iso_time,elapsed_s,imu_ready,imu_pitch_deg,imu_roll_deg,imu_pitch_rate_deg_s,imu_roll_rate_deg_s,mocap_valid,mocap_x_error_m,mocap_y_error_m,mocap_z_error_m,mocap_vx_m_s,mocap_vy_m_s,mocap_vz_m_s,mocap_yaw_error_deg,mocap_yaw_rate_deg_s,backend_loop_hz,tracking_loop_hz,frames_processed,valid_pose_frames,pose_success_rate,full_marker_detection_rate,cam1_full_detection_rate,cam2_full_detection_rate,cam1_leds,cam2_leds,spatial_data_valid,mapping_error_px,model_fit_error_m,scale_factor,position_x_m,position_y_m,position_z_m,velocity_x_m_s,velocity_y_m_s,velocity_z_m_s,yaw_deg,pitch_deg,roll_deg,serial_connected,serial_send_enabled,serial_send_ok,serial_payload_seq,serial_payload_size_bytes,bridge_serial_frames_rx,bridge_espnow_tx_attempts,bridge_espnow_tx_ok,bridge_espnow_tx_fail,bridge_oversize_drops,bridge_tx_rate_hz,bridge_last_tx_seq,bridge_last_tx_latency_us,controller_rx_packets,controller_rx_missing_packets,controller_rx_duplicate_packets,controller_rx_out_of_order_packets,controller_last_rx_seq,controller_loop_hz,controller_control_hz,controller_command_age_ms,controller_apply_latency_us,controller_motor_imbalance,motor_1_output,motor_2_output,motor_3_output,motor_4_output
2026-04-20T18:56:43.648,0.014,1,0.04,-0.72,-3.94,3.58,0,0.0000,0.0000,0.3500,0.0000,0.0000,0.0000,0.00,0.00,54.68,68.47,1,0,0.00000,0.00000,0.00000,0.00000,0,0,0,0.00000,0.00000,1.00000,0.0000,0.0000,0.0000,0.0000,0.0000,0.0000,0.00,0.00,0.00,1,1,1,1,200,0,0,0,0,0,0.00,0,0,0,0,0,0,0,0.00,0.00,0,0,0.0000,0.0000,0.0000,0.0000,0.0000
2026-04-20T18:56:43.669,0.034,1,0.04,-0.72,-3.94,3.58,0,0.0000,0.0000,0.3500,0.0000,0.0000,0.0000,0.00,0.00,89.04,51.74,2,0,0.00000,0.00000,0.00000,0.00000,0,0,0,0.00000,0.00000,1.00000,0.0000,0.0000,0.0000,0.0000,0.0000,0.0000,0.00,0.00,0.00,1,1,1,2,200,0,0,0,0,0,0.00,0,0,0,0,0,0,0,0.00,0.00,0,0,0.0000,0.0000,0.0000,0.0000,0.0000
2026-04-20T18:56:43.685,0.050,1,0.04,-0.72,-3.94,3.58,0,0.0000,0.0000,0.3500,0.0000,0.0000,0.0000,0.00,0.00,49.19,62.27,3,0,0.00000,0.00000,0.00000,0.00000,0,0,0,0.00000,0.00000,1.00000,0.0000,0.0000,0.0000,0.0000,0.0000,0.0000,0.00,0.00,0.00,1,1,1,3,200,0,0,0,0,0,0.00,0,0,0,0,0,0,0,0.00,0.00,0,0,0.0000,0.0000,0.0000,0.0000,0.0000
2026-04-20T18:56:43.701,0.067,1,0.04,-0.72,-3.94,3.58,0,0.0000,0.0000,0.3500,0.0000,0.0000,0.0000,0.00,0.00,58.61,59.86,4,0,0.00000,0.00000,0.00000,0.00000,0,0,0,0.00000,0.00000,1.00000,0.0000,0.0000,0.0000,0.0000,0.0000,0.0000,0.00,0.00,0.00,1,1,1,4,200,0,0,0,0,0,0.00,0,0,0,0,0,0,0,0.00,0.00,0,0,0.0000,0.0000,0.0000,0.0000,0.0000
2026-04-20T18:56:43.712,0.077,1,0.04,-0.72,-3.94,3.58,0,0.0000,0.0000,0.3500,0.0000,0.0000,0.0000,0.00,0.00,59.86,88.09,5,0,0.00000,0.00000,0.00000,0.00000,0,0,0,0.00000,0.00000,1.00000,0.0000,0.0000,0.0000,0.0000,0.0000,0.0000,0.00,0.00,0.00,1,1,1,5,200,0,0,0,0,0,0.00,0,0,0,0,0,0,0,0.00,0.00,0,0,0.0000,0.0000,0.0000,0.0000,0.0000
2026-04-20T18:56:43.735,0.100,1,0.03,-0.74,-3.90,3.54,0,0.0000,0.0000,0.3500,0.0000,0.0000,0.0000,0.00,0.00,106.99,45.14,6,0,0.00000,0.00000,0.00000,0.00000,0,0,0,0.00000,0.00000,1.00000,0.0000,0.0000,0.0000,0.0000,0.0000,0.0000,0.00,0.00,0.00,1,1,1,6,200,0,0,0,0,0,0.00,0,0,0,0,0,0,0,0.00,0.00,0,0,0.0000,0.0000,0.0000,0.0000,0.0000
2026-04-20T18:56:43.751,0.116,1,0.03,-0.74,-3.90,3.54,0,0.0000,0.0000,0.3500,0.0000,0.0000,0.0000,0.00,0.00,42.18,61.51,7,0,0.00000,0.00000,0.00000,0.00000,0,0,0,0.00000,0.00000,1.00000,0.0000,0.0000,0.0000,0.0000,0.0000,0.0000,0.00,0.00,0.00,1,1,1,7,200,0,0,0,0,0,0.00,0,0,0,0,0,0,0,0.00,0.00,0,0,0.0000,0.0000,0.0000,0.0000,0.0000
2026-04-20T18:56:43.768,0.134,1,0.03,-0.74,-3.90,3.54,0,0.0000,0.0000,0.3500,0.0000,0.0000,0.0000,0.00,0.00,58.80,57.50,8,0,0.00000,0.00000,0.00000,0.00000,0,0,0,0.00000,0.00000,1.00000,0.0000,0.0000,0.0000,0.0000,0.0000,0.0000,0.00,0.00,0.00,1,1,1,8,200,0,0,0,0,0,0.00,0,0,0,0,0,0,0,0.00,0.00,0,0,0.0000,0.0000,0.0000,0.0000,0.0000
2026-04-20T18:56:43.787,0.152,1,0.03,-0.74,-3.90,3.54,0,0.0000,0.0000,0.3500,0.0000,0.0000,0.0000,0.00,0.00,57.82,58.23,9,0,0.00000,0.00000,0.00000,0.00000,0,0,0,0.00000,0.00000,1.00000,0.0000,0.0000,0.0000,0.0000,0.0000,0.0000,0.00,0.00,0.00,1,1,1,9,200,0,0,0,0,0,0.00,0,0,0,0,0,0,0,0.00,0.00,0,0,0.0000,0.0000,0.0000,0.0000,0.0000
2026-04-20T18:56:43.802,0.167,1,0.03,-0.74,-3.90,3.54,0,0.0000,0.0000,0.3500,0.0000,0.0000,0.0000,0.00,0.00,54.34,62.66,10,0,0.00000,0.00000,0.00000,0.00000,0,0,0,0.00000,0.00000,1.00000,0.0000,0.0000,0.0000,0.0000,0.0000,0.0000,0.00,0.00,0.00,1,1,1,10,200,0,0,0,0,0,0.00,0,0,0,0,0,0,0,0.00,0.00,0,0,0.0000,0.0000,0.0000,0.0000,0.0000
2026-04-20T18:56:43.817,0.183,1,0.03,-0.74,-3.90,3.54,0,0.0000,0.0000,0.3500,0.0000,0.0000,0.0000,0.00,0.00,66.95,62.76,11,0,0.00000,0.00000,0.00000,0.00000,0,0,0,0.00000,0.00000,1.00000,0.0000,0.0000,0.0000,0.0000,0.0000,0.0000,0.00,0.00,0.00,1,1,1,11,200,0,0,0,0,0,0.00,0,0,0,0,0,0,0,0.00,0.00,0,0,0.0000,0.0000,0.0000,0.0000,0.0000
2026-04-20T18:56:43.834,0.200,1,0.03,-0.74,-3.90,3.54,0,0.0000,0.0000,0.3500,0.0000,0.0000,0.0000,0.00,0.00,63.03,59.52,12,0,0.00000,0.00000,0.00000,0.00000,0,0,0,0.00000,0.00000,1.00000,0.0000,0.0000,0.0000,0.0000,0.0000,0.0000,0.00,0.00,0.00,1,1,1,12,200,0,0,0,0,0,0.00,0,0,0,0,0,0,0,0.00,0.00,0,0,0.0000,0.0000,0.0000,0.0000,0.0000
2026-04-20T18:56:43.847,0.212,1,0.03,-0.74,-3.90,3.54,0,0.0000,0.0000,0.3500,0.0000,0.0000,0.0000,0.00,0.00,60.10,72.62,13,0,0.00000,0.00000,0.00000,0.00000,0,0,0,0.00000,0.00000,1.00000,0.0000,0.0000,0.0000,0.0000,0.0000,0.0000,0.00,0.00,0.00,1,1,1,13,200,0,0,0,0,0,0.00,0,0,0,0,0,0,0,0.00,0.00,0,0,0.0000,0.0000,0.0000,0.0000,0.0000
2026-04-20T18:56:43.865,0.230,1,0.03,-0.74,-3.90,3.54,0,0.0000,0.0000,0.3500,0.0000,0.0000,0.0000,0.00,0.00,56.14,55.75,14,0,0.00000,0.00000,0.00000,0.00000,0,0,0,0.00000,0.00000,1.00000,0.0000,0.0000,0.0000,0.0000,0.0000,0.0000,0.00,0.00,0.00,1,1,1,14,200,0,0,0,0,0,0.00,0,0,0,0,0,0,0,0.00,0.00,0,0,0.0000,0.0000,0.0000,0.0000,0.0000
2026-04-20T18:56:43.885,0.250,1,0.03,-0.74,-3.90,3.54,0,0.0000,0.0000,0.3500,0.0000,0.0000,0.0000,0.00,0.00,62.62,53.03,15,0,0.00000,0.00000,0.00000,0.00000,0,0,0,0.00000,0.00000,1.00000,0.0000,0.0000,0.0000,0.0000,0.0000,0.0000,0.00,0.00,0.00,1,1,1,15,200,0,0,0,0,0,0.00,0,0,0,0,0,0,0,0.00,0.00,0,0,0.0000,0.0000,0.0000,0.0000,0.0000
2026-04-20T18:56:43.901,0.266,1,0.03,-0.74,-3.90,3.54,0,0.0000,0.0000,0.3500,0.0000,0.0000,0.0000,0.00,0.00,64.09,62.99,16,0,0.00000,0.00000,0.00000,0.00000,0,0,0,0.00000,0.00000,1.00000,0.0000,0.0000,0.0000,0.0000,0.0000,0.0000,0.00,0.00,0.00,1,1,1,16,200,0,0,0,0,0,0.00,0,0,0,0,0,0,0,0.00,0.00,0,0,0.0000,0.0000,0.0000,0.0000,0.0000
2026-04-20T18:56:43.918,0.283,1,0.03,-0.74,-3.90,3.54,0,0.0000,0.0000,0.3500,0.0000,0.0000,0.0000,0.00,0.00,58.37,58.31,17,0,0.00000,0.00000,0.00000,0.00000,0,0,0,0.00000,0.00000,1.00000,0.0000,0.0000,0.0000,0.0000,0.0000,0.0000,0.00,0.00,0.00,1,1,1,17,200,0,0,0,0,0,0.00,0,0,0,0,0,0,0,0.00,0.00,0,0,0.0000,0.0000,0.0000,0.0000,0.0000
2026-04-20T18:56:43.928,0.293,1,0.04,-0.73,-3.93,3.49,0,0.0000,0.0000,0.3500,0.0000,0.0000,0.0000,0.00,0.00,58.80,93.22,18,0,0.00000,0.00000,0.00000,0.00000,0,0,0,0.00000,0.00000,1.00000,0.0000,0.0000,0.0000,0.0000,0.0000,0.0000,0.00,0.00,0.00,1,1,1,18,200,0,0,0,0,0,0.00,0,0,0,0,0,0,0,0.00,0.00,0,0,0.0000,0.0000,0.0000,0.0000,0.0000
2026-04-20T18:56:43.951,0.317,1,0.04,-0.73,-3.93,3.49,0,0.0000,0.0000,0.3500,0.0000,0.0000,0.0000,0.00,0.00,116.16,42.55,19,0,0.00000,0.00000,0.00000,0.00000,0,0,0,0.00000,0.00000,1.00000,0.0000,0.0000,0.0000,0.0000,0.0000,0.0000,0.00,0.00,0.00,1,1,1,19,200,0,0,0,0,0,0.00,0,0,0,0,0,0,0,0.00,0.00,0,0,0.0000,0.0000,0.0000,0.0000,0.0000
2026-04-20T18:56:43.967,0.332,1,0.04,-0.73,-3.93,3.49,0,0.0000,0.0000,0.3500,0.0000,0.0000,0.0000,0.00,0.00,42.55,63.01,20,0,0.00000,0.00000,0.00000,0.00000,0,0,0,0.00000,0.00000,1.00000,0.0000,0.0000,0.0000,0.0000,0.0000,0.0000,0.00,0.00,0.00,1,1,1,20,200,0,0,0,0,0,0.00,0,0,0,0,0,0,0,0.00,0.00,0,0,0.0000,0.0000,0.0000,0.0000,0.0000
2026-04-20T18:56:43.985,0.350,1,0.04,-0.73,-3.93,3.49,0,0.0000,0.0000,0.3500,0.0000,0.0000,0.0000,0.00,0.00,57.78,60.37,21,0,0.00000,0.00000,0.00000,0.00000,0,0,0,0.00000,0.00000,1.00000,0.0000,0.0000,0.0000,0.0000,0.0000,0.0000,0.00,0.00,0.00,1,1,1,21,200,0,0,0,0,0,0.00,0,0,0,0,0,0,0,0.00,0.00,0,0,0.0000,0.0000,0.0000,0.0000,0.0000
2026-04-20T18:56:44.003,0.368,1,0.04,-0.73,-3.93,3.49,0,0.0000,0.0000,0.3500,0.0000,0.0000,0.0000,0.00,0.00,61.15,59.97,22,0,0.00000,0.00000,0.00000,0.00000,0,0,0,0.00000,0.00000,1.00000,0.0000,0.0000,0.0000,0.0000,0.0000,0.0000,0.00,0.00,0.00,1,1,1,22,200,0,0,0,0,0,0.00,0,0,0,0,0,0,0,0.00,0.00,0,0,0.0000,0.0000,0.0000,0.0000,0.0000
2026-04-20T18:56:44.011,0.376,1,0.04,-0.73,-3.93,3.49,0,0.0000,0.0000,0.3500,0.0000,0.0000,0.0000,0.00,0.00,53.21,97.05,23,0,0.00000,0.00000,0.00000,0.00000,0,0,0,0.00000,0.00000,1.00000,0.0000,0.0000,0.0000,0.0000,0.0000,0.0000,0.00,0.00,0.00,1,1,1,23,200,0,0,0,0,0,0.00,0,0,0,0,0,0,0,0.00,0.00,0,0,0.0000,0.0000,0.0000,0.0000,0.0000
2026-04-20T18:56:44.031,0.397,1,0.04,-0.73,-3.93,3.49,0,0.0000,0.0000,0.3500,0.0000,0.0000,0.0000,0.00,0.00,63.88,48.04,24,0,0.00000,0.00000,0.00000,0.00000,0,0,0,0.00000,0.00000,1.00000,0.0000,0.0000,0.0000,0.0000,0.0000,0.0000,0.00,0.00,0.00,1,1,1,24,200,0,0,0,0,0,0.00,0,0,0,0,0,0,0,0.00,0.00,0,0,0.0000,0.0000,0.0000,0.0000,0.0000
2026-04-20T18:56:44.051,0.417,1,0.04,-0.73,-3.93,3.49,0,0.0000,0.0000,0.3500,0.0000,0.0000,0.0000,0.00,0.00,61.25,54.14,25,0,0.00000,0.00000,0.00000,0.00000,0,0,0,0.00000,0.00000,1.00000,0.0000,0.0000,0.0000,0.0000,0.0000,0.0000,0.00,0.00,0.00,1,1,1,25,200,0,0,0,0,0,0.00,0,0,0,0,0,0,0,0.00,0.00,0,0,0.0000,0.0000,0.0000,0.0000,0.0000
2026-04-20T18:56:44.068,0.433,1,0.04,-0.73,-3.93,3.49,0,0.0000,0.0000,0.3500,0.0000,0.0000,0.0000,0.00,0.00,63.13,60.38,26,0,0.00000,0.00000,0.00000,0.00000,0,0,0,0.00000,0.00000,1.00000,0.0000,0.0000,0.0000,0.0000,0.0000,0.0000,0.00,0.00,0.00,1,1,1,26,200,0,0,0,0,0,0.00,0,0,0,0,0,0,0,0.00,0.00,0,0,0.0000,0.0000,0.0000,0.0000,0.0000
2026-04-20T18:56:44.084,0.449,1,0.03,-0.73,-3.91,3.52,0,0.0000,0.0000,0.3500,0.0000,0.0000,0.0000,0.00,0.00,61.05,57.90,27,0,0.00000,0.00000,0.00000,0.00000,0,0,0,0.00000,0.00000,1.00000,0.0000,0.0000,0.0000,0.0000,0.0000,0.0000,0.00,0.00,0.00,1,1,1,27,200,0,0,0,0,0,0.00,0,0,0,0,0,0,0,0.00,0.00,0,0,0.0000,0.0000,0.0000,0.0000,0.0000
2026-04-20T18:56:44.101,0.467,1,0.03,-0.73,-3.91,3.52,0,0.0000,0.0000,0.3500,0.0000,0.0000,0.0000,0.00,0.00,57.99,60.77,28,0,0.00000,0.00000,0.00000,0.00000,0,0,0,0.00000,0.00000,1.00000,0.0000,0.0000,0.0000,0.0000,0.0000,0.0000,0.00,0.00,0.00,1,1,1,28,200,0,0,0,0,0,0.00,0,0,0,0,0,0,0,0.00,0.00,0,0,0.0000,0.0000,0.0000,0.0000,0.0000
2026-04-20T18:56:44.111,0.476,1,0.03,-0.73,-3.91,3.52,0,0.0000,0.0000,0.3500,0.0000,0.0000,0.0000,0.00,0.00,58.31,95.93,29,0,0.00000,0.00000,0.00000,0.00000,0,0,0,0.00000,0.00000,1.00000,0.0000,0.0000,0.0000,0.0000,0.0000,0.0000,0.00,0.00,0.00,1,1,1,29,200,0,0,0,0,0,0.00,0,0,0,0,0,0,0,0.00,0.00,0,0,0.0000,0.0000,0.0000,0.0000,0.0000
2026-04-20T18:56:44.130,0.495,1,0.03,-0.73,-3.91,3.52,0,0.0000,0.0000,0.3500,0.0000,0.0000,0.0000,0.00,0.00,119.54,51.35,30,0,0.00000,0.00000,0.00000,0.00000,0,0,0,0.00000,0.00000,1.00000,0.0000,0.0000,0.0000,0.0000,0.0000,0.0000,0.00,0.00,0.00,1,1,1,30,200,0,0,0,0,0,0.00,0,0,0,0,0,0,0,0.00,0.00,0,0,0.0000,0.0000,0.0000,0.0000,0.0000
2026-04-20T18:56:44.150,0.516,1,0.02,-0.73,-3.91,3.52,0,0.0000,0.0000,0.3500,0.0000,0.0000,0.0000,0.00,0.00,51.35,48.88,31,0,0.00000,0.00000,0.00000,0.00000,0,0,0,0.00000,0.00000,1.00000,0.0000,0.0000,0.0000,0.0000,0.0000,0.0000,0.00,0.00,0.00,1,1,1,31,200,0,0,0,0,0,0.00,0,0,0,0,0,0,0,0.00,0.00,0,0,0.0000,0.0000,0.0000,0.0000,0.0000
2026-04-20T18:56:44.167,0.533,1,0.02,-0.73,-3.91,3.52,0,0.0000,0.0000,0.3500,0.0000,0.0000,0.0000,0.00,0.00,48.88,62.70,32,0,0.00000,0.00000,0.00000,0.00000,0,0,0,0.00000,0.00000,1.00000,0.0000,0.0000,0.0000,0.0000,0.0000,0.0000,0.00,0.00,0.00,1,1,1,32,200,0,0,0,0,0,0.00,0,0,31,0,0,0,36279,249.75,0.00,3,2309,0.0000,0.0000,0.0000,0.0000,0.0000
2026-04-20T18:56:44.185,0.550,1,0.02,-0.73,-3.91,3.52,0,0.0000,0.0000,0.3500,0.0000,0.0000,0.0000,0.00,0.00,55.66,58.17,33,0,0.00000,0.00000,0.00000,0.00000,0,0,0,0.00000,0.00000,1.00000,0.0000,0.0000,0.0000,0.0000,0.0000,0.0000,0.00,0.00,0.00,1,1,1,33,200,0,0,0,0,0,0.00,0,0,31,0,0,0,36279,249.75,0.00,3,2309,0.0000,0.0000,0.0000,0.0000,0.0000
2026-04-20T18:56:44.202,0.568,1,0.03,-0.73,-3.94,3.46,0,0.0000,0.0000,0.3500,0.0000,0.0000,0.0000,0.00,0.00,58.21,80.39,34,0,0.00000,0.00000,0.00000,0.00000,0,0,0,0.00000,0.00000,1.00000,0.0000,0.0000,0.0000,0.0000,0.0000,0.0000,0.00,0.00,0.00,1,1,1,34,200,0,0,0,0,0,0.00,0,0,31,0,0,0,36279,249.75,0.00,3,2309,0.0000,0.0000,0.0000,0.0000,0.0000
2026-04-20T18:56:44.213,0.579,1,0.03,-0.73,-3.94,3.46,0,0.0000,0.0000,0.3500,0.0000,0.0000,0.0000,0.00,0.00,59.41,57.89,35,0,0.00000,0.00000,0.00000,0.00000,0,0,0,0.00000,0.00000,1.00000,0.0000,0.0000,0.0000,0.0000,0.0000,0.0000,0.00,0.00,0.00,1,1,1,35,200,0,0,0,0,0,0.00,0,0,31,0,0,0,36279,249.75,0.00,3,2309,0.0000,0.0000,0.0000,0.0000,0.0000
2026-04-20T18:56:44.234,0.599,1,0.03,-0.73,-3.94,3.46,0,0.0000,0.0000,0.3500,0.0000,0.0000,0.0000,0.00,0.00,91.96,48.41,36,0,0.00000,0.00000,0.00000,0.00000,0,0,0,0.00000,0.00000,1.00000,0.0000,0.0000,0.0000,0.0000,0.0000,0.0000,0.00,0.00,0.00,1,1,1,36,200,0,0,0,0,0,0.00,0,0,31,0,0,0,36279,249.75,0.00,3,2309,0.0000,0.0000,0.0000,0.0000,0.0000
2026-04-20T18:56:44.252,0.617,1,0.03,-0.73,-3.94,3.46,0,0.0000,0.0000,0.3500,0.0000,0.0000,0.0000,0.00,0.00,48.41,63.19,37,0,0.00000,0.00000,0.00000,0.00000,0,0,0,0.00000,0.00000,1.00000,0.0000,0.0000,0.0000,0.0000,0.0000,0.0000,0.00,0.00,0.00,1,1,1,37,200,0,0,0,0,0,0.00,0,0,31,0,0,0,36279,249.75,0.00,3,2309,0.0000,0.0000,0.0000,0.0000,0.0000
2026-04-20T18:56:44.268,0.634,1,0.03,-0.73,-3.94,3.46,0,0.0000,0.0000,0.3500,0.0000,0.0000,0.0000,0.00,0.00,56.09,56.63,38,0,0.00000,0.00000,0.00000,0.00000,0,0,0,0.00000,0.00000,1.00000,0.0000,0.0000,0.0000,0.0000,0.0000,0.0000,0.00,0.00,0.00,1,1,1,38,200,0,0,0,0,0,0.00,0,0,31,0,0,0,36279,249.75,0.00,3,2309,0.0000,0.0000,0.0000,0.0000,0.0000
2026-04-20T18:56:44.280,0.646,1,0.03,-0.73,-3.94,3.46,0,0.0000,0.0000,0.3500,0.0000,0.0000,0.0000,0.00,0.00,56.62,78.11,39,0,0.00000,0.00000,0.00000,0.00000,0,0,0,0.00000,0.00000,1.00000,0.0000,0.0000,0.0000,0.0000,0.0000,0.0000,0.00,0.00,0.00,1,1,1,39,200,0,0,0,0,0,0.00,0,0,31,0,0,0,36279,249.75,0.00,3,2309,0.0000,0.0000,0.0000,0.0000,0.0000
2026-04-20T18:56:44.301,0.667,1,0.04,-0.72,-3.96,3.47,0,0.0000,0.0000,0.3500,0.0000,0.0000,0.0000,0.00,0.00,92.61,51.20,40,0,0.00000,0.00000,0.00000,0.00000,0,0,0,0.00000,0.00000,1.00000,0.0000,0.0000,0.0000,0.0000,0.0000,0.0000,0.00,0.00,0.00,1,1,1,40,200,0,0,0,0,0,0.00,0,0,31,0,0,0,36279,249.75,0.00,3,2309,0.0000,0.0000,0.0000,0.0000,0.0000
2026-04-20T18:56:44.318,0.683,1,0.04,-0.72,-3.96,3.47,0,0.0000,0.0000,0.3500,0.0000,0.0000,0.0000,0.00,0.00,47.94,59.44,41,0,0.00000,0.00000,0.00000,0.00000,0,0,0,0.00000,0.00000,1.00000,0.0000,0.0000,0.0000,0.0000,0.0000,0.0000,0.00,0.00,0.00,1,1,1,41,200,0,0,0,0,0,0.00,0,0,31,0,0,0,36279,249.75,0.00,3,2309,0.0000,0.0000,0.0000,0.0000,0.0000
2026-04-20T18:56:44.335,0.700,1,0.04,-0.72,-3.96,3.47,0,0.0000,0.0000,0.3500,0.0000,0.0000,0.0000,0.00,0.00,57.14,59.05,42,0,0.00000,0.00000,0.00000,0.00000,0,0,0,0.00000,0.00000,1.00000,0.0000,0.0000,0.0000,0.0000,0.0000,0.0000,0.00,0.00,0.00,1,1,1,42,200,0,0,0,0,0,0.00,0,0,31,0,0,0,36279,249.75,0.00,3,2309,0.0000,0.0000,0.0000,0.0000,0.0000
2026-04-20T18:56:44.347,0.713,1,0.02,-0.73,-3.90,3.47,0,0.0000,0.0000,0.3500,0.0000,0.0000,0.0000,0.00,0.00,59.04,72.07,43,0,0.00000,0.00000,0.00000,0.00000,0,0,0,0.00000,0.00000,1.00000,0.0000,0.0000,0.0000,0.0000,0.0000,0.0000,0.00,0.00,0.00,1,1,1,43,200,0,0,0,0,0,0.00,0,0,31,0,0,0,36279,249.75,0.00,3,2309,0.0000,0.0000,0.0000,0.0000,0.0000
2026-04-20T18:56:44.367,0.732,1,0.02,-0.73,-3.90,3.47,0,0.0000,0.0000,0.3500,0.0000,0.0000,0.0000,0.00,0.00,84.24,51.53,44,0,0.00000,0.00000,0.00000,0.00000,0,0,0,0.00000,0.00000,1.00000,0.0000,0.0000,0.0000,0.0000,0.0000,0.0000,0.00,0.00,0.00,1,1,1,44,200,0,0,0,0,0,0.00,0,0,31,0,0,0,36279,249.75,0.00,3,2309,0.0000,0.0000,0.0000,0.0000,0.0000
2026-04-20T18:56:44.384,0.749,1,0.02,-0.73,-3.90,3.47,0,0.0000,0.0000,0.3500,0.0000,0.0000,0.0000,0.00,0.00,51.53,62.82,45,0,0.00000,0.00000,0.00000,0.00000,0,0,0,0.00000,0.00000,1.00000,0.0000,0.0000,0.0000,0.0000,0.0000,0.0000,0.00,0.00,0.00,1,1,1,45,200,0,0,0,0,0,0.00,0,0,31,0,0,0,36279,249.75,0.00,3,2309,0.0000,0.0000,0.0000,0.0000,0.0000
2026-04-20T18:56:44.401,0.766,1,0.04,-0.72,-3.91,3.44,0,0.0000,0.0000,0.3500,0.0000,0.0000,0.0000,0.00,0.00,55.45,58.07,46,0,0.00000,0.00000,0.00000,0.00000,0,0,0,0.00000,0.00000,1.00000,0.0000,0.0000,0.0000,0.0000,0.0000,0.0000,0.00,0.00,0.00,1,1,1,46,200,0,0,0,0,0,0.00,0,0,31,0,0,0,36279,249.75,0.00,3,2309,0.0000,0.0000,0.0000,0.0000,0.0000
2026-04-20T18:56:44.419,0.784,1,0.04,-0.72,-3.91,3.44,0,0.0000,0.0000,0.3500,0.0000,0.0000,0.0000,0.00,0.00,58.15,60.65,47,0,0.00000,0.00000,0.00000,0.00000,0,0,0,0.00000,0.00000,1.00000,0.0000,0.0000,0.0000,0.0000,0.0000,0.0000,0.00,0.00,0.00,1,1,1,47,200,0,0,0,0,0,0.00,0,0,31,0,0,0,36279,249.75,0.00,3,2309,0.0000,0.0000,0.0000,0.0000,0.0000
2026-04-20T18:56:44.434,0.800,1,0.04,-0.72,-3.91,3.44,0,0.0000,0.0000,0.3500,0.0000,0.0000,0.0000,0.00,0.00,57.00,59.58,48,0,0.00000,0.00000,0.00000,0.00000,0,0,0,0.00000,0.00000,1.00000,0.0000,0.0000,0.0000,0.0000,0.0000,0.0000,0.00,0.00,0.00,1,1,1,48,200,0,0,0,0,0,0.00,0,0,31,0,0,0,36279,249.75,0.00,3,2309,0.0000,0.0000,0.0000,0.0000,0.0000
2026-04-20T18:56:44.448,0.813,1,0.04,-0.72,-3.91,3.44,0,0.0000,0.0000,0.3500,0.0000,0.0000,0.0000,0.00,0.00,63.93,69.34,49,0,0.00000,0.00000,0.00000,0.00000,0,0,0,0.00000,0.00000,1.00000,0.0000,0.0000,0.0000,0.0000,0.0000,0.0000,0.00,0.00,0.00,1,1,1,49,200,0,0,0,0,0,0.00,0,0,31,0,0,0,36279,249.75,0.00,3,2309,0.0000,0.0000,0.0000,0.0000,0.0000
2026-04-20T18:56:44.468,0.833,1,0.04,-0.72,-3.91,3.44,0,0.0000,0.0000,0.3500,0.0000,0.0000,0.0000,0.00,0.00,80.54,52.06,50,0,0.00000,0.00000,0.00000,0.00000,0,0,0,0.00000,0.00000,1.00000,0.0000,0.0000,0.0000,0.0000,0.0000,0.0000,0.00,0.00,0.00,1,1,1,50,200,0,0,0,0,0,0.00,0,0,31,0,0,0,36279,249.75,0.00,3,2309,0.0000,0.0000,0.0000,0.0000,0.0000
2026-04-20T18:56:44.484,0.850,1,0.04,-0.72,-3.91,3.44,0,0.0000,0.0000,0.3500,0.0000,0.0000,0.0000,0.00,0.00,47.14,59.24,51,0,0.00000,0.00000,0.00000,0.00000,0,0,0,0.00000,0.00000,1.00000,0.0000,0.0000,0.0000,0.0000,0.0000,0.0000,0.00,0.00,0.00,1,1,1,51,200,0,0,0,0,0,0.00,0,0,31,0,0,0,36279,249.75,0.00,3,2309,0.0000,0.0000,0.0000,0.0000,0.0000
2026-04-20T18:56:44.501,0.866,1,0.04,-0.72,-3.91,3.44,0,0.0000,0.0000,0.3500,0.0000,0.0000,0.0000,0.00,0.00,65.06,62.33,52,0,0.00000,0.00000,0.00000,0.00000,0,0,0,0.00000,0.00000,1.00000,0.0000,0.0000,0.0000,0.0000,0.0000,0.0000,0.00,0.00,0.00,1,1,1,52,200,0,0,0,0,0,0.00,0,0,31,0,0,0,36279,249.75,0.00,3,2309,0.0000,0.0000,0.0000,0.0000,0.0000
2026-04-20T18:56:44.517,0.883,1,0.04,-0.72,-3.91,3.44,0,0.0000,0.0000,0.3500,0.0000,0.0000,0.0000,0.00,0.00,56.12,61.20,53,0,0.00000,0.00000,0.00000,0.00000,0,0,0,0.00000,0.00000,1.00000,0.0000,0.0000,0.0000,0.0000,0.0000,0.0000,0.00,0.00,0.00,1,1,1,53,200,0,0,0,0,0,0.00,0,0,31,0,0,0,36279,249.75,0.00,3,2309,0.0000,0.0000,0.0000,0.0000,0.0000
2026-04-20T18:56:44.527,0.893,1,0.04,-0.72,-3.91,3.44,0,0.0000,0.0000,0.3500,0.0000,0.0000,0.0000,0.00,0.00,61.38,90.83,54,0,0.00000,0.00000,0.00000,0.00000,0,0,0,0.00000,0.00000,1.00000,0.0000,0.0000,0.0000,0.0000,0.0000,0.0000,0.00,0.00,0.00,1,1,1,54,200,0,0,0,0,0,0.00,0,0,31,0,0,0,36279,249.75,0.00,3,2309,0.0000,0.0000,0.0000,0.0000,0.0000
2026-04-20T18:56:44.551,0.917,1,0.04,-0.72,-3.91,3.44,0,0.0000,0.0000,0.3500,0.0000,0.0000,0.0000,0.00,0.00,113.78,44.20,55,0,0.00000,0.00000,0.00000,0.00000,0,0,0,0.00000,0.00000,1.00000,0.0000,0.0000,0.0000,0.0000,0.0000,0.0000,0.00,0.00,0.00,1,1,1,55,200,0,0,0,0,0,0.00,0,0,31,0,0,0,36279,249.75,0.00,3,2309,0.0000,0.0000,0.0000,0.0000,0.0000
2026-04-20T18:56:44.564,0.930,1,0.04,-0.72,-3.91,3.44,0,0.0000,0.0000,0.3500,0.0000,0.0000,0.0000,0.00,0.00,41.44,68.31,56,0,0.00000,0.00000,0.00000,0.00000,0,0,0,0.00000,0.00000,1.00000,0.0000,0.0000,0.0000,0.0000,0.0000,0.0000,0.00,0.00,0.00,1,1,1,56,200,0,0,0,0,0,0.00,0,0,31,0,0,0,36279,249.75,0.00,3,2309,0.0000,0.0000,0.0000,0.0000,0.0000
2026-04-20T18:56:44.585,0.950,1,0.04,-0.72,-3.91,3.44,0,0.0000,0.0000,0.3500,0.0000,0.0000,0.0000,0.00,0.00,57.12,51.84,57,0,0.00000,0.00000,0.00000,0.00000,0,0,0,0.00000,0.00000,1.00000,0.0000,0.0000,0.0000,0.0000,0.0000,0.0000,0.00,0.00,0.00,1,1,1,57,200,0,0,0,0,0,0.00,0,0,31,0,0,0,36279,249.75,0.00,3,2309,0.0000,0.0000,0.0000,0.0000,0.0000
2026-04-20T18:56:44.600,0.966,1,0.05,-0.73,-3.90,3.49,0,0.0000,0.0000,0.3500,0.0000,0.0000,0.0000,0.00,0.00,59.09,60.36,58,0,0.00000,0.00000,0.00000,0.00000,0,0,0,0.00000,0.00000,1.00000,0.0000,0.0000,0.0000,0.0000,0.0000,0.0000,0.00,0.00,0.00,1,1,1,58,200,0,0,0,0,0,0.00,0,0,31,0,0,0,36279,249.75,0.00,3,2309,0.0000,0.0000,0.0000,0.0000,0.0000
2026-04-20T18:56:44.612,0.978,1,0.05,-0.73,-3.90,3.49,0,0.0000,0.0000,0.3500,0.0000,0.0000,0.0000,0.00,0.00,62.69,83.76,59,0,0.00000,0.00000,0.00000,0.00000,0,0,0,0.00000,0.00000,1.00000,0.0000,0.0000,0.0000,0.0000,0.0000,0.0000,0.00,0.00,0.00,1,1,1,59,200,0,0,0,0,0,0.00,0,0,31,0,0,0,36279,249.75,0.00,3,2309,0.0000,0.0000,0.0000,0.0000,0.0000
2026-04-20T18:56:44.636,1.001,1,0.05,-0.73,-3.90,3.49,0,0.0000,0.0000,0.3500,0.0000,0.0000,0.0000,0.00,0.00,94.77,46.83,60,0,0.00000,0.00000,0.00000,0.00000,0,0,0,0.00000,0.00000,1.00000,0.0000,0.0000,0.0000,0.0000,0.0000,0.0000,0.00,0.00,0.00,1,1,1,60,200,0,0,0,0,0,0.00,0,0,31,0,0,0,36279,249.75,0.00,3,2309,0.0000,0.0000,0.0000,0.0000,0.0000
2026-04-20T18:56:44.651,1.016,1,0.05,-0.73,-3.90,3.49,0,0.0000,0.0000,0.3500,0.0000,0.0000,0.0000,0.00,0.00,41.04,62.86,61,0,0.00000,0.00000,0.00000,0.00000,0,0,0,0.00000,0.00000,1.00000,0.0000,0.0000,0.0000,0.0000,0.0000,0.0000,0.00,0.00,0.00,1,1,1,61,200,0,0,0,0,0,0.00,0,0,31,0,0,0,36279,249.75,0.00,3,2309,0.0000,0.0000,0.0000,0.0000,0.0000
2026-04-20T18:56:44.667,1.033,1,0.04,-0.72,-3.93,3.58,0,0.0000,0.0000,0.3500,0.0000,0.0000,0.0000,0.00,0.00,69.43,59.02,62,0,0.00000,0.00000,0.00000,0.00000,0,0,0,0.00000,0.00000,1.00000,0.0000,0.0000,0.0000,0.0000,0.0000,0.0000,0.00,0.00,0.00,1,1,1,62,200,61,61,60,0,0,61.00,36309,2881,61,0,0,0,36309,250.31,0.00,5,1036,0.0000,0.0000,0.0000,0.0000,0.0000
2026-04-20T18:56:44.685,1.050,1,0.04,-0.72,-3.93,3.58,0,0.0000,0.0000,0.3500,0.0000,0.0000,0.0000,0.00,0.00,57.32,59.28,63,0,0.00000,0.00000,0.00000,0.00000,0,0,0,0.00000,0.00000,1.00000,0.0000,0.0000,0.0000,0.0000,0.0000,0.0000,0.00,0.00,0.00,1,1,1,63,200,61,61,60,0,0,61.00,36309,2881,61,0,0,0,36309,250.31,0.00,5,1036,0.0000,0.0000,0.0000,0.0000,0.0000
2026-04-20T18:56:44.701,1.067,1,0.04,-0.72,-3.93,3.58,0,0.0000,0.0000,0.3500,0.0000,0.0000,0.0000,0.00,0.00,61.91,58.82,64,0,0.00000,0.00000,0.00000,0.00000,0,0,0,0.00000,0.00000,1.00000,0.0000,0.0000,0.0000,0.0000,0.0000,0.0000,0.00,0.00,0.00,1,1,1,64,200,61,61,60,0,0,61.00,36309,2881,61,0,0,0,36309,250.31,0.00,5,1036,0.0000,0.0000,0.0000,0.0000,0.0000
2026-04-20T18:56:44.710,1.075,1,0.04,-0.72,-3.93,3.58,0,0.0000,0.0000,0.3500,0.0000,0.0000,0.0000,0.00,0.00,59.83,103.73,65,0,0.00000,0.00000,0.00000,0.00000,0,0,0,0.00000,0.00000,1.00000,0.0000,0.0000,0.0000,0.0000,0.0000,0.0000,0.00,0.00,0.00,1,1,1,65,200,61,61,60,0,0,61.00,36309,2881,61,0,0,0,36309,250.31,0.00,5,1036,0.0000,0.0000,0.0000,0.0000,0.0000
2026-04-20T18:56:44.735,1.100,1,0.04,-0.72,-3.93,3.58,0,0.0000,0.0000,0.3500,0.0000,0.0000,0.0000,0.00,0.00,115.78,41.71,66,0,0.00000,0.00000,0.00000,0.00000,0,0,0,0.00000,0.00000,1.00000,0.0000,0.0000,0.0000,0.0000,0.0000,0.0000,0.00,0.00,0.00,1,1,1,66,200,61,61,60,0,0,61.00,36309,2881,61,0,0,0,36309,250.31,0.00,5,1036,0.0000,0.0000,0.0000,0.0000,0.0000
2026-04-20T18:56:44.751,1.117,1,0.04,-0.72,-3.93,3.58,0,0.0000,0.0000,0.3500,0.0000,0.0000,0.0000,0.00,0.00,37.65,62.93,67,0,0.00000,0.00000,0.00000,0.00000,0,0,0,0.00000,0.00000,1.00000,0.0000,0.0000,0.0000,0.0000,0.0000,0.0000,0.00,0.00,0.00,1,1,1,67,200,61,61,60,0,0,61.00,36309,2881,61,0,0,0,36309,250.31,0.00,5,1036,0.0000,0.0000,0.0000,0.0000,0.0000
2026-04-20T18:56:44.768,1.133,1,0.04,-0.72,-3.93,3.58,0,0.0000,0.0000,0.3500,0.0000,0.0000,0.0000,0.00,0.00,67.51,60.31,68,0,0.00000,0.00000,0.00000,0.00000,0,0,0,0.00000,0.00000,1.00000,0.0000,0.0000,0.0000,0.0000,0.0000,0.0000,0.00,0.00,0.00,1,1,1,68,200,61,61,60,0,0,61.00,36309,2881,61,0,0,0,36309,250.31,0.00,5,1036,0.0000,0.0000,0.0000,0.0000,0.0000
2026-04-20T18:56:44.785,1.151,1,0.04,-0.72,-3.93,3.58,0,0.0000,0.0000,0.3500,0.0000,0.0000,0.0000,0.00,0.00,56.72,56.20,69,0,0.00000,0.00000,0.00000,0.00000,0,0,0,0.00000,0.00000,1.00000,0.0000,0.0000,0.0000,0.0000,0.0000,0.0000,0.00,0.00,0.00,1,1,1,69,200,61,61,60,0,0,61.00,36309,2881,61,0,0,0,36309,250.31,0.00,5,1036,0.0000,0.0000,0.0000,0.0000,0.0000
2026-04-20T18:56:44.801,1.166,1,0.04,-0.72,-3.93,3.58,0,0.0000,0.0000,0.3500,0.0000,0.0000,0.0000,0.00,0.00,57.51,64.13,70,0,0.00000,0.00000,0.00000,0.00000,0,0,0,0.00000,0.00000,1.00000,0.0000,0.0000,0.0000,0.0000,0.0000,0.0000,0.00,0.00,0.00,1,1,1,70,200,61,61,60,0,0,61.00,36309,2881,61,0,0,0,36309,250.31,0.00,5,1036,0.0000,0.0000,0.0000,0.0000,0.0000
2026-04-20T18:56:44.818,1.184,1,0.03,-0.72,-3.91,3.51,0,0.0000,0.0000,0.3500,0.0000,0.0000,0.0000,0.00,0.00,63.49,57.09,71,0,0.00000,0.00000,0.00000,0.00000,0,0,0,0.00000,0.00000,1.00000,0.0000,0.0000,0.0000,0.0000,0.0000,0.0000,0.00,0.00,0.00,1,1,1,71,200,61,61,60,0,0,61.00,36309,2881,61,0,0,0,36309,250.31,0.00,5,1036,0.0000,0.0000,0.0000,0.0000,0.0000
2026-04-20T18:56:44.829,1.195,1,0.03,-0.72,-3.91,3.51,0,0.0000,0.0000,0.3500,0.0000,0.0000,0.0000,0.00,0.00,61.47,83.41,72,0,0.00000,0.00000,0.00000,0.00000,0,0,0,0.00000,0.00000,1.00000,0.0000,0.0000,0.0000,0.0000,0.0000,0.0000,0.00,0.00,0.00,1,1,1,72,200,61,61,60,0,0,61.00,36309,2881,61,0,0,0,36309,250.31,0.00,5,1036,0.0000,0.0000,0.0000,0.0000,0.0000
2026-04-20T18:56:44.850,1.216,1,0.03,-0.72,-3.91,3.51,0,0.0000,0.0000,0.3500,0.0000,0.0000,0.0000,0.00,0.00,91.48,47.46,73,0,0.00000,0.00000,0.00000,0.00000,0,0,0,0.00000,0.00000,1.00000,0.0000,0.0000,0.0000,0.0000,0.0000,0.0000,0.00,0.00,0.00,1,1,1,73,200,61,61,60,0,0,61.00,36309,2881,61,0,0,0,36309,250.31,0.00,5,1036,0.0000,0.0000,0.0000,0.0000,0.0000
2026-04-20T18:56:44.867,1.232,1,0.03,-0.72,-3.90,3.47,0,0.0000,0.0000,0.3500,0.0000,0.0000,0.0000,0.00,0.00,47.46,60.19,74,0,0.00000,0.00000,0.00000,0.00000,0,0,0,0.00000,0.00000,1.00000,0.0000,0.0000,0.0000,0.0000,0.0000,0.0000,0.00,0.00,0.00,1,1,1,74,200,61,61,60,0,0,61.00,36309,2881,61,0,0,0,36309,250.31,0.00,5,1036,0.0000,0.0000,0.0000,0.0000,0.0000
2026-04-20T18:56:44.884,1.249,1,0.03,-0.72,-3.90,3.47,0,0.0000,0.0000,0.3500,0.0000,0.0000,0.0000,0.00,0.00,55.28,60.03,75,0,0.00000,0.00000,0.00000,0.00000,0,0,0,0.00000,0.00000,1.00000,0.0000,0.0000,0.0000,0.0000,0.0000,0.0000,0.00,0.00,0.00,1,1,1,75,200,61,61,60,0,0,61.00,36309,2881,61,0,0,0,36309,250.31,0.00,5,1036,0.0000,0.0000,0.0000,0.0000,0.0000
2026-04-20T18:56:44.901,1.267,1,0.03,-0.72,-3.90,3.47,0,0.0000,0.0000,0.3500,0.0000,0.0000,0.0000,0.00,0.00,60.79,71.44,76,0,0.00000,0.00000,0.00000,0.00000,0,0,0,0.00000,0.00000,1.00000,0.0000,0.0000,0.0000,0.0000,0.0000,0.0000,0.00,0.00,0.00,1,1,1,76,200,61,61,60,0,0,61.00,36309,2881,61,0,0,0,36309,250.31,0.00,5,1036,0.0000,0.0000,0.0000,0.0000,0.0000
2026-04-20T18:56:44.912,1.278,1,0.03,-0.72,-3.94,3.46,0,0.0000,0.0000,0.3500,0.0000,0.0000,0.0000,0.00,0.00,61.54,67.68,77,0,0.00000,0.00000,0.00000,0.00000,0,0,0,0.00000,0.00000,1.00000,0.0000,0.0000,0.0000,0.0000,0.0000,0.0000,0.00,0.00,0.00,1,1,1,77,200,61,61,60,0,0,61.00,36309,2881,61,0,0,0,36309,250.31,0.00,5,1036,0.0000,0.0000,0.0000,0.0000,0.0000
2026-04-20T18:56:44.933,1.298,1,0.03,-0.72,-3.94,3.46,0,0.0000,0.0000,0.3500,0.0000,0.0000,0.0000,0.00,0.00,88.84,48.62,78,0,0.00000,0.00000,0.00000,0.00000,0,0,0,0.00000,0.00000,1.00000,0.0000,0.0000,0.0000,0.0000,0.0000,0.0000,0.00,0.00,0.00,1,1,1,78,200,61,61,60,0,0,61.00,36309,2881,61,0,0,0,36309,250.31,0.00,5,1036,0.0000,0.0000,0.0000,0.0000,0.0000
2026-04-20T18:56:44.951,1.316,1,0.03,-0.72,-3.94,3.46,0,0.0000,0.0000,0.3500,0.0000,0.0000,0.0000,0.00,0.00,48.62,58.95,79,0,0.00000,0.00000,0.00000,0.00000,0,0,0,0.00000,0.00000,1.00000,0.0000,0.0000,0.0000,0.0000,0.0000,0.0000,0.00,0.00,0.00,1,1,1,79,200,61,61,60,0,0,61.00,36309,2881,61,0,0,0,36309,250.31,0.00,5,1036,0.0000,0.0000,0.0000,0.0000,0.0000
2026-04-20T18:56:44.968,1.333,1,0.03,-0.73,-3.94,3.51,0,0.0000,0.0000,0.3500,0.0000,0.0000,0.0000,0.00,0.00,55.66,59.17,80,0,0.00000,0.00000,0.00000,0.00000,0,0,0,0.00000,0.00000,1.00000,0.0000,0.0000,0.0000,0.0000,0.0000,0.0000,0.00,0.00,0.00,1,1,1,80,200,61,61,60,0,0,61.00,36309,2881,61,0,0,0,36309,250.31,0.00,5,1036,0.0000,0.0000,0.0000,0.0000,0.0000
2026-04-20T18:56:44.977,1.342,1,0.03,-0.73,-3.94,3.51,0,0.0000,0.0000,0.3500,0.0000,0.0000,0.0000,0.00,0.00,55.86,101.93,81,0,0.00000,0.00000,0.00000,0.00000,0,0,0,0.00000,0.00000,1.00000,0.0000,0.0000,0.0000,0.0000,0.0000,0.0000,0.00,0.00,0.00,1,1,1,81,200,61,61,60,0,0,61.00,36309,2881,61,0,0,0,36309,250.31,0.00,5,1036,0.0000,0.0000,0.0000,0.0000,0.0000
2026-04-20T18:56:44.997,1.362,1,0.03,-0.73,-3.94,3.51,0,0.0000,0.0000,0.3500,0.0000,0.0000,0.0000,0.00,0.00,128.12,49.94,82,0,0.00000,0.00000,0.00000,0.00000,0,0,0,0.00000,0.00000,1.00000,0.0000,0.0000,0.0000,0.0000,0.0000,0.0000,0.00,0.00,0.00,1,1,1,82,200,61,61,60,0,0,61.00,36309,2881,61,0,0,0,36309,250.31,0.00,5,1036,0.0000,0.0000,0.0000,0.0000,0.0000
2026-04-20T18:56:45.017,1.383,1,0.04,-0.73,-3.93,3.57,0,0.0000,0.0000,0.3500,0.0000,0.0000,0.0000,0.00,0.00,39.32,50.72,83,0,0.00000,0.00000,0.00000,0.00000,0,0,0,0.00000,0.00000,1.00000,0.0000,0.0000,0.0000,0.0000,0.0000,0.0000,0.00,0.00,0.00,1,1,1,83,200,61,61,60,0,0,61.00,36309,2881,61,0,0,0,36309,250.31,0.00,5,1036,0.0000,0.0000,0.0000,0.0000,0.0000
2026-04-20T18:56:45.034,1.399,1,0.04,-0.73,-3.93,3.57,0,0.0000,0.0000,0.3500,0.0000,0.0000,0.0000,0.00,0.00,65.78,61.82,84,0,0.00000,0.00000,0.00000,0.00000,0,0,0,0.00000,0.00000,1.00000,0.0000,0.0000,0.0000,0.0000,0.0000,0.0000,0.00,0.00,0.00,1,1,1,84,200,61,61,60,0,0,61.00,36309,2881,61,0,0,0,36309,250.31,0.00,5,1036,0.0000,0.0000,0.0000,0.0000,0.0000
2026-04-20T18:56:45.051,1.416,1,0.04,-0.73,-3.93,3.57,0,0.0000,0.0000,0.3500,0.0000,0.0000,0.0000,0.00,0.00,57.07,57.83,85,0,0.00000,0.00000,0.00000,0.00000,0,0,0,0.00000,0.00000,1.00000,0.0000,0.0000,0.0000,0.0000,0.0000,0.0000,0.00,0.00,0.00,1,1,1,85,200,61,61,60,0,0,61.00,36309,2881,61,0,0,0,36309,250.31,0.00,5,1036,0.0000,0.0000,0.0000,0.0000,0.0000
2026-04-20T18:56:45.061,1.426,1,0.06,-0.73,-3.93,3.51,0,0.0000,0.0000,0.3500,0.0000,0.0000,0.0000,0.00,0.00,58.63,92.58,86,0,0.00000,0.00000,0.00000,0.00000,0,0,0,0.00000,0.00000,1.00000,0.0000,0.0000,0.0000,0.0000,0.0000,0.0000,0.00,0.00,0.00,1,1,1,86,200,61,61,60,0,0,61.00,36309,2881,61,0,0,0,36309,250.31,0.00,5,1036,0.0000,0.0000,0.0000,0.0000,0.0000
2026-04-20T18:56:45.080,1.445,1,0.06,-0.73,-3.93,3.51,0,0.0000,0.0000,0.3500,0.0000,0.0000,0.0000,0.00,0.00,113.69,52.69,87,0,0.00000,0.00000,0.00000,0.00000,0,0,0,0.00000,0.00000,1.00000,0.0000,0.0000,0.0000,0.0000,0.0000,0.0000,0.00,0.00,0.00,1,1,1,87,200,61,61,60,0,0,61.00,36309,2881,61,0,0,0,36309,250.31,0.00,5,1036,0.0000,0.0000,0.0000,0.0000,0.0000
2026-04-20T18:56:45.100,1.466,1,0.06,-0.73,-3.93,3.51,0,0.0000,0.0000,0.3500,0.0000,0.0000,0.0000,0.00,0.00,52.69,49.66,88,0,0.00000,0.00000,0.00000,0.00000,0,0,0,0.00000,0.00000,1.00000,0.0000,0.0000,0.0000,0.0000,0.0000,0.0000,0.00,0.00,0.00,1,1,1,88,200,61,61,60,0,0,61.00,36309,2881,61,0,0,0,36309,250.31,0.00,5,1036,0.0000,0.0000,0.0000,0.0000,0.0000
2026-04-20T18:56:45.118,1.483,1,0.06,-0.73,-3.93,3.51,0,0.0000,0.0000,0.3500,0.0000,0.0000,0.0000,0.00,0.00,48.04,59.53,89,0,0.00000,0.00000,0.00000,0.00000,0,0,0,0.00000,0.00000,1.00000,0.0000,0.0000,0.0000,0.0000,0.0000,0.0000,0.00,0.00,0.00,1,1,1,89,200,61,61,60,0,0,61.00,36309,2881,61,0,0,0,36309,250.31,0.00,5,1036,0.0000,0.0000,0.0000,0.0000,0.0000
2026-04-20T18:56:45.135,1.500,1,0.06,-0.73,-3.93,3.51,0,0.0000,0.0000,0.3500,0.0000,0.0000,0.0000,0.00,0.00,57.96,58.83,90,0,0.00000,0.00000,0.00000,0.00000,0,0,0,0.00000,0.00000,1.00000,0.0000,0.0000,0.0000,0.0000,0.0000,0.0000,0.00,0.00,0.00,1,1,1,90,200,61,61,60,0,0,61.00,36309,2881,61,0,0,0,36309,250.31,0.00,5,1036,0.0000,0.0000,0.0000,0.0000,0.0000
2026-04-20T18:56:45.143,1.508,1,0.06,-0.73,-3.93,3.51,0,0.0000,0.0000,0.3500,0.0000,0.0000,0.0000,0.00,0.00,59.28,109.11,91,0,0.00000,0.00000,0.00000,0.00000,0,0,0,0.00000,0.00000,1.00000,0.0000,0.0000,0.0000,0.0000,0.0000,0.0000,0.00,0.00,0.00,1,1,1,91,200,61,61,60,0,0,61.00,36309,2881,61,0,0,0,36309,250.31,0.00,5,1036,0.0000,0.0000,0.0000,0.0000,0.0000
2026-04-20T18:56:45.163,1.528,1,0.06,-0.73,-3.93,3.51,0,0.0000,0.0000,0.3500,0.0000,0.0000,0.0000,0.00,0.00,122.52,50.37,92,0,0.00000,0.00000,0.00000,0.00000,0,0,0,0.00000,0.00000,1.00000,0.0000,0.0000,0.0000,0.0000,0.0000,0.0000,0.00,0.00,0.00,1,1,1,92,200,61,61,60,0,0,61.00,36309,2881,91,0,0,0,36339,249.75,0.00,3,3827,0.0000,0.0000,0.0000,0.0000,0.0000
2026-04-20T18:56:45.183,1.549,1,0.07,-0.74,-3.94,3.57,0,0.0000,0.0000,0.3500,0.0000,0.0000,0.0000,0.00,0.00,50.37,48.09,93,0,0.00000,0.00000,0.00000,0.00000,0,0,0,0.00000,0.00000,1.00000,0.0000,0.0000,0.0000,0.0000,0.0000,0.0000,0.00,0.00,0.00,1,1,1,93,200,61,61,60,0,0,61.00,36309,2881,91,0,0,0,36339,249.75,0.00,3,3827,0.0000,0.0000,0.0000,0.0000,0.0000
2026-04-20T18:56:45.201,1.566,1,0.07,-0.74,-3.94,3.57,0,0.0000,0.0000,0.3500,0.0000,0.0000,0.0000,0.00,0.00,48.09,60.57,94,0,0.00000,0.00000,0.00000,0.00000,0,0,0,0.00000,0.00000,1.00000,0.0000,0.0000,0.0000,0.0000,0.0000,0.0000,0.00,0.00,0.00,1,1,1,94,200,61,61,60,0,0,61.00,36309,2881,91,0,0,0,36339,249.75,0.00,3,3827,0.0000,0.0000,0.0000,0.0000,0.0000
2026-04-20T18:56:45.217,1.583,1,0.07,-0.74,-3.94,3.57,0,0.0000,0.0000,0.3500,0.0000,0.0000,0.0000,0.00,0.00,57.10,60.32,95,0,0.00000,0.00000,0.00000,0.00000,0,0,0,0.00000,0.00000,1.00000,0.0000,0.0000,0.0000,0.0000,0.0000,0.0000,0.00,0.00,0.00,1,1,1,95,200,61,61,60,0,0,61.00,36309,2881,91,0,0,0,36339,249.75,0.00,3,3827,0.0000,0.0000,0.0000,0.0000,0.0000
2026-04-20T18:56:45.235,1.600,1,0.07,-0.74,-3.91,3.57,0,0.0000,0.0000,0.3500,0.0000,0.0000,0.0000,0.00,0.00,60.32,58.31,96,0,0.00000,0.00000,0.00000,0.00000,0,0,0,0.00000,0.00000,1.00000,0.0000,0.0000,0.0000,0.0000,0.0000,0.0000,0.00,0.00,0.00,1,1,1,96,200,61,61,60,0,0,61.00,36309,2881,91,0,0,0,36339,249.75,0.00,3,3827,0.0000,0.0000,0.0000,0.0000,0.0000
2026-04-20T18:56:45.245,1.610,1,0.07,-0.74,-3.91,3.57,0,0.0000,0.0000,0.3500,0.0000,0.0000,0.0000,0.00,0.00,54.41,87.68,97,0,0.00000,0.00000,0.00000,0.00000,0,0,0,0.00000,0.00000,1.00000,0.0000,0.0000,0.0000,0.0000,0.0000,0.0000,0.00,0.00,0.00,1,1,1,97,200,61,61,60,0,0,61.00,36309,2881,91,0,0,0,36339,249.75,0.00,3,3827,0.0000,0.0000,0.0000,0.0000,0.0000
2026-04-20T18:56:45.269,1.634,1,0.07,-0.74,-3.91,3.57,0,0.0000,0.0000,0.3500,0.0000,0.0000,0.0000,0.00,0.00,109.00,50.04,98,0,0.00000,0.00000,0.00000,0.00000,0,0,0,0.00000,0.00000,1.00000,0.0000,0.0000,0.0000,0.0000,0.0000,0.0000,0.00,0.00,0.00,1,1,1,98,200,61,61,60,0,0,61.00,36309,2881,91,0,0,0,36339,249.75,0.00,3,3827,0.0000,0.0000,0.0000,0.0000,0.0000
2026-04-20T18:56:45.284,1.649,1,0.07,-0.74,-3.91,3.57,0,0.0000,0.0000,0.3500,0.0000,0.0000,0.0000,0.00,0.00,42.29,53.41,99,0,0.00000,0.00000,0.00000,0.00000,0,0,0,0.00000,0.00000,1.00000,0.0000,0.0000,0.0000,0.0000,0.0000,0.0000,0.00,0.00,0.00,1,1,1,99,200,61,61,60,0,0,61.00,36309,2881,91,0,0,0,36339,249.75,0.00,3,3827,0.0000,0.0000,0.0000,0.0000,0.0000
2026-04-20T18:56:45.301,1.667,1,0.07,-0.74,-3.91,3.57,0,0.0000,0.0000,0.3500,0.0000,0.0000,0.0000,0.00,0.00,61.73,60.76,100,0,0.00000,0.00000,0.00000,0.00000,0,0,0,0.00000,0.00000,1.00000,0.0000,0.0000,0.0000,0.0000,0.0000,0.0000,0.00,0.00,0.00,1,1,1,100,200,61,61,60,0,0,61.00,36309,2881,91,0,0,0,36339,249.75,0.00,3,3827,0.0000,0.0000,0.0000,0.0000,0.0000
2026-04-20T18:56:45.311,1.676,1,0.07,-0.74,-3.91,3.57,0,0.0000,0.0000,0.3500,0.0000,0.0000,0.0000,0.00,0.00,61.25,94.09,101,0,0.00000,0.00000,0.00000,0.00000,0,0,0,0.00000,0.00000,1.00000,0.0000,0.0000,0.0000,0.0000,0.0000,0.0000,0.00,0.00,0.00,1,1,1,101,200,61,61,60,0,0,61.00,36309,2881,91,0,0,0,36339,249.75,0.00,3,3827,0.0000,0.0000,0.0000,0.0000,0.0000
2026-04-20T18:56:45.329,1.695,1,0.07,-0.74,-3.91,3.57,0,0.0000,0.0000,0.3500,0.0000,0.0000,0.0000,0.00,0.00,103.91,54.58,102,0,0.00000,0.00000,0.00000,0.00000,0,0,0,0.00000,0.00000,1.00000,0.0000,0.0000,0.0000,0.0000,0.0000,0.0000,0.00,0.00,0.00,1,1,1,102,200,61,61,60,0,0,61.00,36309,2881,91,0,0,0,36339,249.75,0.00,3,3827,0.0000,0.0000,0.0000,0.0000,0.0000
2026-04-20T18:56:45.350,1.715,1,0.07,-0.74,-3.91,3.57,0,0.0000,0.0000,0.3500,0.0000,0.0000,0.0000,0.00,0.00,54.58,48.60,103,0,0.00000,0.00000,0.00000,0.00000,0,0,0,0.00000,0.00000,1.00000,0.0000,0.0000,0.0000,0.0000,0.0000,0.0000,0.00,0.00,0.00,1,1,1,103,200,61,61,60,0,0,61.00,36309,2881,91,0,0,0,36339,249.75,0.00,3,3827,0.0000,0.0000,0.0000,0.0000,0.0000
2026-04-20T18:56:45.367,1.733,1,0.07,-0.74,-3.91,3.57,0,0.0000,0.0000,0.3500,0.0000,0.0000,0.0000,0.00,0.00,48.60,60.75,104,0,0.00000,0.00000,0.00000,0.00000,0,0,0,0.00000,0.00000,1.00000,0.0000,0.0000,0.0000,0.0000,0.0000,0.0000,0.00,0.00,0.00,1,1,1,104,200,61,61,60,0,0,61.00,36309,2881,91,0,0,0,36339,249.75,0.00,3,3827,0.0000,0.0000,0.0000,0.0000,0.0000
2026-04-20T18:56:45.384,1.749,1,0.05,-0.74,-3.97,3.52,0,0.0000,0.0000,0.3500,0.0000,0.0000,0.0000,0.00,0.00,56.93,60.69,105,0,0.00000,0.00000,0.00000,0.00000,0,0,0,0.00000,0.00000,1.00000,0.0000,0.0000,0.0000,0.0000,0.0000,0.0000,0.00,0.00,0.00,1,1,1,105,200,61,61,60,0,0,61.00,36309,2881,91,0,0,0,36339,249.75,0.00,3,3827,0.0000,0.0000,0.0000,0.0000,0.0000
2026-04-20T18:56:45.400,1.766,1,0.05,-0.74,-3.97,3.52,0,0.0000,0.0000,0.3500,0.0000,0.0000,0.0000,0.00,0.00,57.43,60.10,106,0,0.00000,0.00000,0.00000,0.00000,0,0,0,0.00000,0.00000,1.00000,0.0000,0.0000,0.0000,0.0000,0.0000,0.0000,0.00,0.00,0.00,1,1,1,106,200,61,61,60,0,0,61.00,36309,2881,91,0,0,0,36339,249.75,0.00,3,3827,0.0000,0.0000,0.0000,0.0000,0.0000
2026-04-20T18:56:45.409,1.775,1,0.05,-0.74,-3.97,3.52,0,0.0000,0.0000,0.3500,0.0000,0.0000,0.0000,0.00,0.00,60.07,100.18,107,0,0.00000,0.00000,0.00000,0.00000,0,0,0,0.00000,0.00000,1.00000,0.0000,0.0000,0.0000,0.0000,0.0000,0.0000,0.00,0.00,0.00,1,1,1,107,200,61,61,60,0,0,61.00,36309,2881,91,0,0,0,36339,249.75,0.00,3,3827,0.0000,0.0000,0.0000,0.0000,0.0000
2026-04-20T18:56:45.434,1.799,1,0.06,-0.73,-3.91,3.54,0,0.0000,0.0000,0.3500,0.0000,0.0000,0.0000,0.00,0.00,125.98,42.99,108,0,0.00000,0.00000,0.00000,0.00000,0,0,0,0.00000,0.00000,1.00000,0.0000,0.0000,0.0000,0.0000,0.0000,0.0000,0.00,0.00,0.00,1,1,1,108,200,61,61,60,0,0,61.00,36309,2881,91,0,0,0,36339,249.75,0.00,3,3827,0.0000,0.0000,0.0000,0.0000,0.0000
2026-04-20T18:56:45.451,1.816,1,0.06,-0.73,-3.91,3.54,0,0.0000,0.0000,0.3500,0.0000,0.0000,0.0000,0.00,0.00,39.33,66.70,109,0,0.00000,0.00000,0.00000,0.00000,0,0,0,0.00000,0.00000,1.00000,0.0000,0.0000,0.0000,0.0000,0.0000,0.0000,0.00,0.00,0.00,1,1,1,109,200,61,61,60,0,0,61.00,36309,2881,91,0,0,0,36339,249.75,0.00,3,3827,0.0000,0.0000,0.0000,0.0000,0.0000
2026-04-20T18:56:45.468,1.833,1,0.06,-0.73,-3.91,3.54,0,0.0000,0.0000,0.3500,0.0000,0.0000,0.0000,0.00,0.00,57.94,54.50,110,0,0.00000,0.00000,0.00000,0.00000,0,0,0,0.00000,0.00000,1.00000,0.0000,0.0000,0.0000,0.0000,0.0000,0.0000,0.00,0.00,0.00,1,1,1,110,200,61,61,60,0,0,61.00,36309,2881,91,0,0,0,36339,249.75,0.00,3,3827,0.0000,0.0000,0.0000,0.0000,0.0000
2026-04-20T18:56:45.484,1.849,1,0.05,-0.73,-3.90,3.58,0,0.0000,0.0000,0.3500,0.0000,0.0000,0.0000,0.00,0.00,59.10,58.44,111,0,0.00000,0.00000,0.00000,0.00000,0,0,0,0.00000,0.00000,1.00000,0.0000,0.0000,0.0000,0.0000,0.0000,0.0000,0.00,0.00,0.00,1,1,1,111,200,61,61,60,0,0,61.00,36309,2881,91,0,0,0,36339,249.75,0.00,3,3827,0.0000,0.0000,0.0000,0.0000,0.0000
2026-04-20T18:56:45.501,1.867,1,0.05,-0.73,-3.90,3.58,0,0.0000,0.0000,0.3500,0.0000,0.0000,0.0000,0.00,0.00,66.20,58.45,112,0,0.00000,0.00000,0.00000,0.00000,0,0,0,0.00000,0.00000,1.00000,0.0000,0.0000,0.0000,0.0000,0.0000,0.0000,0.00,0.00,0.00,1,1,1,112,200,61,61,60,0,0,61.00,36309,2881,91,0,0,0,36339,249.75,0.00,3,3827,0.0000,0.0000,0.0000,0.0000,0.0000
2026-04-20T18:56:45.517,1.883,1,0.05,-0.73,-3.90,3.58,0,0.0000,0.0000,0.3500,0.0000,0.0000,0.0000,0.00,0.00,55.22,61.29,113,0,0.00000,0.00000,0.00000,0.00000,0,0,0,0.00000,0.00000,1.00000,0.0000,0.0000,0.0000,0.0000,0.0000,0.0000,0.00,0.00,0.00,1,1,1,113,200,61,61,60,0,0,61.00,36309,2881,91,0,0,0,36339,249.75,0.00,3,3827,0.0000,0.0000,0.0000,0.0000,0.0000
2026-04-20T18:56:45.534,1.899,1,0.05,-0.73,-3.90,3.58,0,0.0000,0.0000,0.3500,0.0000,0.0000,0.0000,0.00,0.00,65.29,58.95,114,0,0.00000,0.00000,0.00000,0.00000,0,0,0,0.00000,0.00000,1.00000,0.0000,0.0000,0.0000,0.0000,0.0000,0.0000,0.00,0.00,0.00,1,1,1,114,200,61,61,60,0,0,61.00,36309,2881,91,0,0,0,36339,249.75,0.00,3,3827,0.0000,0.0000,0.0000,0.0000,0.0000
2026-04-20T18:56:45.550,1.916,1,0.05,-0.73,-3.90,3.58,0,0.0000,0.0000,0.3500,0.0000,0.0000,0.0000,0.00,0.00,61.26,63.14,115,0,0.00000,0.00000,0.00000,0.00000,0,0,0,0.00000,0.00000,1.00000,0.0000,0.0000,0.0000,0.0000,0.0000,0.0000,0.00,0.00,0.00,1,1,1,115,200,61,61,60,0,0,61.00,36309,2881,91,0,0,0,36339,249.75,0.00,3,3827,0.0000,0.0000,0.0000,0.0000,0.0000
2026-04-20T18:56:45.567,1.933,1,0.05,-0.73,-3.90,3.58,0,0.0000,0.0000,0.3500,0.0000,0.0000,0.0000,0.00,0.00,56.60,58.56,116,0,0.00000,0.00000,0.00000,0.00000,0,0,0,0.00000,0.00000,1.00000,0.0000,0.0000,0.0000,0.0000,0.0000,0.0000,0.00,0.00,0.00,1,1,1,116,200,61,61,60,0,0,61.00,36309,2881,91,0,0,0,36339,249.75,0.00,3,3827,0.0000,0.0000,0.0000,0.0000,0.0000
2026-04-20T18:56:45.584,1.949,1,0.05,-0.73,-3.90,3.58,0,0.0000,0.0000,0.3500,0.0000,0.0000,0.0000,0.00,0.00,62.96,57.69,117,0,0.00000,0.00000,0.00000,0.00000,0,0,0,0.00000,0.00000,1.00000,0.0000,0.0000,0.0000,0.0000,0.0000,0.0000,0.00,0.00,0.00,1,1,1,117,200,61,61,60,0,0,61.00,36309,2881,91,0,0,0,36339,249.75,0.00,3,3827,0.0000,0.0000,0.0000,0.0000,0.0000
2026-04-20T18:56:45.601,1.966,1,0.05,-0.73,-3.90,3.58,0,0.0000,0.0000,0.3500,0.0000,0.0000,0.0000,0.00,0.00,56.08,61.78,118,0,0.00000,0.00000,0.00000,0.00000,0,0,0,0.00000,0.00000,1.00000,0.0000,0.0000,0.0000,0.0000,0.0000,0.0000,0.00,0.00,0.00,1,1,1,118,200,61,61,60,0,0,61.00,36309,2881,91,0,0,0,36339,249.75,0.00,3,3827,0.0000,0.0000,0.0000,0.0000,0.0000
2026-04-20T18:56:45.614,1.979,1,0.05,-0.73,-3.90,3.58,0,0.0000,0.0000,0.3500,0.0000,0.0000,0.0000,0.00,0.00,63.74,72.45,119,0,0.00000,0.00000,0.00000,0.00000,0,0,0,0.00000,0.00000,1.00000,0.0000,0.0000,0.0000,0.0000,0.0000,0.0000,0.00,0.00,0.00,1,1,1,119,200,61,61,60,0,0,61.00,36309,2881,91,0,0,0,36339,249.75,0.00,3,3827,0.0000,0.0000,0.0000,0.0000,0.0000
2026-04-20T18:56:45.634,1.999,1,0.05,-0.73,-3.88,3.52,0,0.0000,0.0000,0.3500,0.0000,0.0000,0.0000,0.00,0.00,78.13,52.74,120,0,0.00000,0.00000,0.00000,0.00000,0,0,0,0.00000,0.00000,1.00000,0.0000,0.0000,0.0000,0.0000,0.0000,0.0000,0.00,0.00,0.00,1,1,1,120,200,61,61,60,0,0,61.00,36309,2881,91,0,0,0,36339,249.75,0.00,3,3827,0.0000,0.0000,0.0000,0.0000,0.0000
2026-04-20T18:56:45.650,2.015,1,0.05,-0.73,-3.88,3.52,0,0.0000,0.0000,0.3500,0.0000,0.0000,0.0000,0.00,0.00,47.45,57.53,121,0,0.00000,0.00000,0.00000,0.00000,0,0,0,0.00000,0.00000,1.00000,0.0000,0.0000,0.0000,0.0000,0.0000,0.0000,0.00,0.00,0.00,1,1,1,121,200,61,61,60,0,0,61.00,36309,2881,91,0,0,0,36339,249.75,0.00,3,3827,0.0000,0.0000,0.0000,0.0000,0.0000
2026-04-20T18:56:45.667,2.033,1,0.05,-0.73,-3.88,3.52,0,0.0000,0.0000,0.3500,0.0000,0.0000,0.0000,0.00,0.00,65.49,62.89,122,0,0.00000,0.00000,0.00000,0.00000,0,0,0,0.00000,0.00000,1.00000,0.0000,0.0000,0.0000,0.0000,0.0000,0.0000,0.00,0.00,0.00,1,1,1,122,200,61,61,60,0,0,61.00,36309,2881,91,0,0,0,36339,249.75,0.00,3,3827,0.0000,0.0000,0.0000,0.0000,0.0000
2026-04-20T18:56:45.685,2.051,1,0.05,-0.75,-3.93,3.51,0,0.0000,0.0000,0.3500,0.0000,0.0000,0.0000,0.00,0.00,55.04,58.38,123,0,0.00000,0.00000,0.00000,0.00000,0,0,0,0.00000,0.00000,1.00000,0.0000,0.0000,0.0000,0.0000,0.0000,0.0000,0.00,0.00,0.00,1,1,1,123,200,121,121,120,0,0,60.00,36369,2984,121,0,0,0,36369,250.25,0.00,9,440,0.0000,0.0000,0.0000,0.0000,0.0000
2026-04-20T18:56:45.700,2.066,1,0.05,-0.75,-3.93,3.51,0,0.0000,0.0000,0.3500,0.0000,0.0000,0.0000,0.00,0.00,55.53,61.21,124,0,0.00000,0.00000,0.00000,0.00000,0,0,0,0.00000,0.00000,1.00000,0.0000,0.0000,0.0000,0.0000,0.0000,0.0000,0.00,0.00,0.00,1,1,1,124,200,121,121,120,0,0,60.00,36369,2984,121,0,0,0,36369,250.25,0.00,9,440,0.0000,0.0000,0.0000,0.0000,0.0000
2026-04-20T18:56:45.718,2.083,1,0.05,-0.75,-3.93,3.51,0,0.0000,0.0000,0.3500,0.0000,0.0000,0.0000,0.00,0.00,65.81,57.31,125,0,0.00000,0.00000,0.00000,0.00000,0,0,0,0.00000,0.00000,1.00000,0.0000,0.0000,0.0000,0.0000,0.0000,0.0000,0.00,0.00,0.00,1,1,1,125,200,121,121,120,0,0,60.00,36369,2984,121,0,0,0,36369,250.25,0.00,9,440,0.0000,0.0000,0.0000,0.0000,0.0000
2026-04-20T18:56:45.735,2.100,1,0.05,-0.75,-3.91,3.54,0,0.0000,0.0000,0.3500,0.0000,0.0000,0.0000,0.00,0.00,56.29,63.21,126,0,0.00000,0.00000,0.00000,0.00000,0,0,0,0.00000,0.00000,1.00000,0.0000,0.0000,0.0000,0.0000,0.0000,0.0000,0.00,0.00,0.00,1,1,1,126,200,121,121,120,0,0,60.00,36369,2984,121,0,0,0,36369,250.25,0.00,9,440,0.0000,0.0000,0.0000,0.0000,0.0000
2026-04-20T18:56:45.750,2.116,1,0.05,-0.75,-3.91,3.54,0,0.0000,0.0000,0.3500,0.0000,0.0000,0.0000,0.00,0.00,63.25,60.25,127,0,0.00000,0.00000,0.00000,0.00000,0,0,0,0.00000,0.00000,1.00000,0.0000,0.0000,0.0000,0.0000,0.0000,0.0000,0.00,0.00,0.00,1,1,1,127,200,121,121,120,0,0,60.00,36369,2984,121,0,0,0,36369,250.25,0.00,9,440,0.0000,0.0000,0.0000,0.0000,0.0000
2026-04-20T18:56:45.767,2.132,1,0.05,-0.75,-3.91,3.54,0,0.0000,0.0000,0.3500,0.0000,0.0000,0.0000,0.00,0.00,60.06,59.70,128,0,0.00000,0.00000,0.00000,0.00000,0,0,0,0.00000,0.00000,1.00000,0.0000,0.0000,0.0000,0.0000,0.0000,0.0000,0.00,0.00,0.00,1,1,1,128,200,121,121,120,0,0,60.00,36369,2984,121,0,0,0,36369,250.25,0.00,9,440,0.0000,0.0000,0.0000,0.0000,0.0000
2026-04-20T18:56:45.777,2.142,1,0.05,-0.75,-3.88,3.47,0,0.0000,0.0000,0.3500,0.0000,0.0000,0.0000,0.00,0.00,60.75,91.51,129,0,0.00000,0.00000,0.00000,0.00000,0,0,0,0.00000,0.00000,1.00000,0.0000,0.0000,0.0000,0.0000,0.0000,0.0000,0.00,0.00,0.00,1,1,1,129,200,121,121,120,0,0,60.00,36369,2984,121,0,0,0,36369,250.25,0.00,9,440,0.0000,0.0000,0.0000,0.0000,0.0000
2026-04-20T18:56:45.800,2.165,1,0.05,-0.75,-3.88,3.47,0,0.0000,0.0000,0.3500,0.0000,0.0000,0.0000,0.00,0.00,112.93,43.77,130,0,0.00000,0.00000,0.00000,0.00000,0,0,0,0.00000,0.00000,1.00000,0.0000,0.0000,0.0000,0.0000,0.0000,0.0000,0.00,0.00,0.00,1,1,1,130,200,121,121,120,0,0,60.00,36369,2984,121,0,0,0,36369,250.25,0.00,9,440,0.0000,0.0000,0.0000,0.0000,0.0000
2026-04-20T18:56:45.816,2.182,1,0.05,-0.75,-3.88,3.47,0,0.0000,0.0000,0.3500,0.0000,0.0000,0.0000,0.00,0.00,43.77,59.51,131,0,0.00000,0.00000,0.00000,0.00000,0,0,0,0.00000,0.00000,1.00000,0.0000,0.0000,0.0000,0.0000,0.0000,0.0000,0.00,0.00,0.00,1,1,1,131,200,121,121,120,0,0,60.00,36369,2984,121,0,0,0,36369,250.25,0.00,9,440,0.0000,0.0000,0.0000,0.0000,0.0000
2026-04-20T18:56:45.834,2.200,1,0.05,-0.75,-3.88,3.47,0,0.0000,0.0000,0.3500,0.0000,0.0000,0.0000,0.00,0.00,59.51,62.36,132,0,0.00000,0.00000,0.00000,0.00000,0,0,0,0.00000,0.00000,1.00000,0.0000,0.0000,0.0000,0.0000,0.0000,0.0000,0.00,0.00,0.00,1,1,1,132,200,121,121,120,0,0,60.00,36369,2984,121,0,0,0,36369,250.25,0.00,9,440,0.0000,0.0000,0.0000,0.0000,0.0000
2026-04-20T18:56:45.851,2.216,1,0.05,-0.76,-3.88,3.60,0,0.0000,0.0000,0.3500,0.0000,0.0000,0.0000,0.00,0.00,56.87,58.23,133,0,0.00000,0.00000,0.00000,0.00000,0,0,0,0.00000,0.00000,1.00000,0.0000,0.0000,0.0000,0.0000,0.0000,0.0000,0.00,0.00,0.00,1,1,1,133,200,121,121,120,0,0,60.00,36369,2984,121,0,0,0,36369,250.25,0.00,9,440,0.0000,0.0000,0.0000,0.0000,0.0000
2026-04-20T18:56:45.859,2.224,1,0.05,-0.76,-3.88,3.60,0,0.0000,0.0000,0.3500,0.0000,0.0000,0.0000,0.00,0.00,60.14,109.57,134,0,0.00000,0.00000,0.00000,0.00000,0,0,0,0.00000,0.00000,1.00000,0.0000,0.0000,0.0000,0.0000,0.0000,0.0000,0.00,0.00,0.00,1,1,1,134,200,121,121,120,0,0,60.00,36369,2984,121,0,0,0,36369,250.25,0.00,9,440,0.0000,0.0000,0.0000,0.0000,0.0000
2026-04-20T18:56:45.878,2.244,1,0.05,-0.76,-3.88,3.60,0,0.0000,0.0000,0.3500,0.0000,0.0000,0.0000,0.00,0.00,123.08,51.84,135,0,0.00000,0.00000,0.00000,0.00000,0,0,0,0.00000,0.00000,1.00000,0.0000,0.0000,0.0000,0.0000,0.0000,0.0000,0.00,0.00,0.00,1,1,1,135,200,121,121,120,0,0,60.00,36369,2984,121,0,0,0,36369,250.25,0.00,9,440,0.0000,0.0000,0.0000,0.0000,0.0000
2026-04-20T18:56:45.901,2.267,1,0.05,-0.76,-3.88,3.60,0,0.0000,0.0000,0.3500,0.0000,0.0000,0.0000,0.00,0.00,51.84,48.35,136,0,0.00000,0.00000,0.00000,0.00000,0,0,0,0.00000,0.00000,1.00000,0.0000,0.0000,0.0000,0.0000,0.0000,0.0000,0.00,0.00,0.00,1,1,1,136,200,121,121,120,0,0,60.00,36369,2984,121,0,0,0,36369,250.25,0.00,9,440,0.0000,0.0000,0.0000,0.0000,0.0000
2026-04-20T18:56:45.907,2.273,1,0.05,-0.76,-3.88,3.60,0,0.0000,0.0000,0.3500,0.0000,0.0000,0.0000,0.00,0.00,41.63,118.23,137,0,0.00000,0.00000,0.00000,0.00000,0,0,0,0.00000,0.00000,1.00000,0.0000,0.0000,0.0000,0.0000,0.0000,0.0000,0.00,0.00,0.00,1,1,1,137,200,121,121,120,0,0,60.00,36369,2984,121,0,0,0,36369,250.25,0.00,9,440,0.0000,0.0000,0.0000,0.0000,0.0000
2026-04-20T18:56:45.927,2.292,1,0.05,-0.76,-3.88,3.60,0,0.0000,0.0000,0.3500,0.0000,0.0000,0.0000,0.00,0.00,195.28,51.66,138,0,0.00000,0.00000,0.00000,0.00000,0,0,0,0.00000,0.00000,1.00000,0.0000,0.0000,0.0000,0.0000,0.0000,0.0000,0.00,0.00,0.00,1,1,1,138,200,121,121,120,0,0,60.00,36369,2984,121,0,0,0,36369,250.25,0.00,9,440,0.0000,0.0000,0.0000,0.0000,0.0000
2026-04-20T18:56:45.949,2.315,1,0.06,-0.75,-3.96,3.54,0,0.0000,0.0000,0.3500,0.0000,0.0000,0.0000,0.00,0.00,51.66,44.35,139,0,0.00000,0.00000,0.00000,0.00000,0,0,0,0.00000,0.00000,1.00000,0.0000,0.0000,0.0000,0.0000,0.0000,0.0000,0.00,0.00,0.00,1,1,1,139,200,121,121,120,0,0,60.00,36369,2984,121,0,0,0,36369,250.25,0.00,9,440,0.0000,0.0000,0.0000,0.0000,0.0000
2026-04-20T18:56:45.967,2.332,1,0.06,-0.75,-3.96,3.54,0,0.0000,0.0000,0.3500,0.0000,0.0000,0.0000,0.00,0.00,44.35,57.44,140,0,0.00000,0.00000,0.00000,0.00000,0,0,0,0.00000,0.00000,1.00000,0.0000,0.0000,0.0000,0.0000,0.0000,0.0000,0.00,0.00,0.00,1,1,1,140,200,121,121,120,0,0,60.00,36369,2984,121,0,0,0,36369,250.25,0.00,9,440,0.0000,0.0000,0.0000,0.0000,0.0000
2026-04-20T18:56:45.983,2.348,1,0.06,-0.75,-3.96,3.54,0,0.0000,0.0000,0.3500,0.0000,0.0000,0.0000,0.00,0.00,54.32,60.87,141,0,0.00000,0.00000,0.00000,0.00000,0,0,0,0.00000,0.00000,1.00000,0.0000,0.0000,0.0000,0.0000,0.0000,0.0000,0.00,0.00,0.00,1,1,1,141,200,121,121,120,0,0,60.00,36369,2984,121,0,0,0,36369,250.25,0.00,9,440,0.0000,0.0000,0.0000,0.0000,0.0000
2026-04-20T18:56:46.000,2.365,1,0.07,-0.76,-3.94,3.47,0,0.0000,0.0000,0.3500,0.0000,0.0000,0.0000,0.00,0.00,64.82,59.15,142,0,0.00000,0.00000,0.00000,0.00000,0,0,0,0.00000,0.00000,1.00000,0.0000,0.0000,0.0000,0.0000,0.0000,0.0000,0.00,0.00,0.00,1,1,1,142,200,121,121,120,0,0,60.00,36369,2984,121,0,0,0,36369,250.25,0.00,9,440,0.0000,0.0000,0.0000,0.0000,0.0000
2026-04-20T18:56:46.009,2.374,1,0.07,-0.76,-3.94,3.47,0,0.0000,0.0000,0.3500,0.0000,0.0000,0.0000,0.00,0.00,59.15,110.71,143,0,0.00000,0.00000,0.00000,0.00000,0,0,0,0.00000,0.00000,1.00000,0.0000,0.0000,0.0000,0.0000,0.0000,0.0000,0.00,0.00,0.00,1,1,1,143,200,121,121,120,0,0,60.00,36369,2984,121,0,0,0,36369,250.25,0.00,9,440,0.0000,0.0000,0.0000,0.0000,0.0000
2026-04-20T18:56:46.034,2.399,1,0.07,-0.76,-3.94,3.47,0,0.0000,0.0000,0.3500,0.0000,0.0000,0.0000,0.00,0.00,110.71,41.61,144,0,0.00000,0.00000,0.00000,0.00000,0,0,0,0.00000,0.00000,1.00000,0.0000,0.0000,0.0000,0.0000,0.0000,0.0000,0.00,0.00,0.00,1,1,1,144,200,121,121,120,0,0,60.00,36369,2984,121,0,0,0,36369,250.25,0.00,9,440,0.0000,0.0000,0.0000,0.0000,0.0000
2026-04-20T18:56:46.050,2.416,1,0.05,-0.76,-3.88,3.55,0,0.0000,0.0000,0.3500,0.0000,0.0000,0.0000,0.00,0.00,39.95,63.15,145,0,0.00000,0.00000,0.00000,0.00000,0,0,0,0.00000,0.00000,1.00000,0.0000,0.0000,0.0000,0.0000,0.0000,0.0000,0.00,0.00,0.00,1,1,1,145,200,121,121,120,0,0,60.00,36369,2984,121,0,0,0,36369,250.25,0.00,9,440,0.0000,0.0000,0.0000,0.0000,0.0000
2026-04-20T18:56:46.059,2.425,1,0.05,-0.76,-3.88,3.55,0,0.0000,0.0000,0.3500,0.0000,0.0000,0.0000,0.00,0.00,53.43,96.68,146,0,0.00000,0.00000,0.00000,0.00000,0,0,0,0.00000,0.00000,1.00000,0.0000,0.0000,0.0000,0.0000,0.0000,0.0000,0.00,0.00,0.00,1,1,1,146,200,121,121,120,0,0,60.00,36369,2984,121,0,0,0,36369,250.25,0.00,9,440,0.0000,0.0000,0.0000,0.0000,0.0000
2026-04-20T18:56:46.078,2.444,1,0.05,-0.76,-3.88,3.55,0,0.0000,0.0000,0.3500,0.0000,0.0000,0.0000,0.00,0.00,154.73,52.85,147,0,0.00000,0.00000,0.00000,0.00000,0,0,0,0.00000,0.00000,1.00000,0.0000,0.0000,0.0000,0.0000,0.0000,0.0000,0.00,0.00,0.00,1,1,1,147,200,121,121,120,0,0,60.00,36369,2984,121,0,0,0,36369,250.25,0.00,9,440,0.0000,0.0000,0.0000,0.0000,0.0000
2026-04-20T18:56:46.095,2.460,1,0.07,-0.74,-3.91,3.51,0,0.0000,0.0000,0.3500,0.0000,0.0000,0.0000,0.00,0.00,52.85,60.80,148,0,0.00000,0.00000,0.00000,0.00000,0,0,0,0.00000,0.00000,1.00000,0.0000,0.0000,0.0000,0.0000,0.0000,0.0000,0.00,0.00,0.00,1,1,1,148,200,121,121,120,0,0,60.00,36369,2984,121,0,0,0,36369,250.25,0.00,9,440,0.0000,0.0000,0.0000,0.0000,0.0000
2026-04-20T18:56:46.116,2.481,1,0.07,-0.74,-3.91,3.51,0,0.0000,0.0000,0.3500,0.0000,0.0000,0.0000,0.00,0.00,60.80,47.29,149,0,0.00000,0.00000,0.00000,0.00000,0,0,0,0.00000,0.00000,1.00000,0.0000,0.0000,0.0000,0.0000,0.0000,0.0000,0.00,0.00,0.00,1,1,1,149,200,121,121,120,0,0,60.00,36369,2984,121,0,0,0,36369,250.25,0.00,9,440,0.0000,0.0000,0.0000,0.0000,0.0000
2026-04-20T18:56:46.134,2.499,1,0.07,-0.74,-3.91,3.51,0,0.0000,0.0000,0.3500,0.0000,0.0000,0.0000,0.00,0.00,47.29,58.48,150,0,0.00000,0.00000,0.00000,0.00000,0,0,0,0.00000,0.00000,1.00000,0.0000,0.0000,0.0000,0.0000,0.0000,0.0000,0.00,0.00,0.00,1,1,1,150,200,121,121,120,0,0,60.00,36369,2984,121,0,0,0,36369,250.25,0.00,9,440,0.0000,0.0000,0.0000,0.0000,0.0000
2026-04-20T18:56:46.150,2.516,1,0.06,-0.75,-3.90,3.54,0,0.0000,0.0000,0.3500,0.0000,0.0000,0.0000,0.00,0.00,55.24,61.04,151,0,0.00000,0.00000,0.00000,0.00000,0,0,0,0.00000,0.00000,1.00000,0.0000,0.0000,0.0000,0.0000,0.0000,0.0000,0.00,0.00,0.00,1,1,1,151,200,121,121,120,0,0,60.00,36369,2984,121,0,0,0,36369,250.25,0.00,9,440,0.0000,0.0000,0.0000,0.0000,0.0000
2026-04-20T18:56:46.167,2.533,1,0.06,-0.75,-3.90,3.54,0,0.0000,0.0000,0.3500,0.0000,0.0000,0.0000,0.00,0.00,57.24,58.30,152,0,0.00000,0.00000,0.00000,0.00000,0,0,0,0.00000,0.00000,1.00000,0.0000,0.0000,0.0000,0.0000,0.0000,0.0000,0.00,0.00,0.00,1,1,1,152,200,121,121,120,0,0,60.00,36369,2984,121,0,0,0,36369,250.25,0.00,9,440,0.0000,0.0000,0.0000,0.0000,0.0000
2026-04-20T18:56:46.177,2.543,1,0.06,-0.75,-3.90,3.54,0,0.0000,0.0000,0.3500,0.0000,0.0000,0.0000,0.00,0.00,62.25,90.04,153,0,0.00000,0.00000,0.00000,0.00000,0,0,0,0.00000,0.00000,1.00000,0.0000,0.0000,0.0000,0.0000,0.0000,0.0000,0.00,0.00,0.00,1,1,1,153,200,121,121,120,0,0,60.00,36369,2984,121,0,0,0,36369,250.25,0.00,9,440,0.0000,0.0000,0.0000,0.0000,0.0000
2026-04-20T18:56:46.198,2.563,1,0.06,-0.74,-3.91,3.51,0,0.0000,0.0000,0.3500,0.0000,0.0000,0.0000,0.00,0.00,98.97,49.31,154,0,0.00000,0.00000,0.00000,0.00000,0,0,0,0.00000,0.00000,1.00000,0.0000,0.0000,0.0000,0.0000,0.0000,0.0000,0.00,0.00,0.00,1,1,1,154,200,121,121,120,0,0,60.00,36369,2984,121,0,0,0,36369,250.25,0.00,9,440,0.0000,0.0000,0.0000,0.0000,0.0000
2026-04-20T18:56:46.216,2.582,1,0.06,-0.74,-3.91,3.51,0,0.0000,0.0000,0.3500,0.0000,0.0000,0.0000,0.00,0.00,42.19,53.97,155,0,0.00000,0.00000,0.00000,0.00000,0,0,0,0.00000,0.00000,1.00000,0.0000,0.0000,0.0000,0.0000,0.0000,0.0000,0.00,0.00,0.00,1,1,1,155,200,121,121,120,0,0,60.00,36369,2984,121,0,0,0,36369,250.25,0.00,9,440,0.0000,0.0000,0.0000,0.0000,0.0000
2026-04-20T18:56:46.234,2.599,1,0.06,-0.74,-3.91,3.51,0,0.0000,0.0000,0.3500,0.0000,0.0000,0.0000,0.00,0.00,60.59,60.80,156,0,0.00000,0.00000,0.00000,0.00000,0,0,0,0.00000,0.00000,1.00000,0.0000,0.0000,0.0000,0.0000,0.0000,0.0000,0.00,0.00,0.00,1,1,1,156,200,121,121,120,0,0,60.00,36369,2984,121,0,0,0,36369,250.25,0.00,9,440,0.0000,0.0000,0.0000,0.0000,0.0000
2026-04-20T18:56:46.251,2.616,1,0.06,-0.74,-3.93,3.41,0,0.0000,0.0000,0.3500,0.0000,0.0000,0.0000,0.00,0.00,58.66,58.76,157,0,0.00000,0.00000,0.00000,0.00000,0,0,0,0.00000,0.00000,1.00000,0.0000,0.0000,0.0000,0.0000,0.0000,0.0000,0.00,0.00,0.00,1,1,1,157,200,121,121,120,0,0,60.00,36369,2984,121,0,0,0,36369,250.25,0.00,9,440,0.0000,0.0000,0.0000,0.0000,0.0000
2026-04-20T18:56:46.259,2.625,1,0.06,-0.74,-3.93,3.41,0,0.0000,0.0000,0.3500,0.0000,0.0000,0.0000,0.00,0.00,58.75,102.29,158,0,0.00000,0.00000,0.00000,0.00000,0,0,0,0.00000,0.00000,1.00000,0.0000,0.0000,0.0000,0.0000,0.0000,0.0000,0.00,0.00,0.00,1,1,1,158,200,121,121,120,0,0,60.00,36369,2984,121,0,0,0,36369,250.25,0.00,9,440,0.0000,0.0000,0.0000,0.0000,0.0000
2026-04-20T18:56:46.280,2.645,1,0.06,-0.74,-3.93,3.41,0,0.0000,0.0000,0.3500,0.0000,0.0000,0.0000,0.00,0.00,128.69,49.08,159,0,0.00000,0.00000,0.00000,0.00000,0,0,0,0.00000,0.00000,1.00000,0.0000,0.0000,0.0000,0.0000,0.0000,0.0000,0.00,0.00,0.00,1,1,1,159,200,121,121,120,0,0,60.00,36369,2984,121,0,0,0,36369,250.25,0.00,9,440,0.0000,0.0000,0.0000,0.0000,0.0000
2026-04-20T18:56:46.300,2.666,1,0.06,-0.74,-3.87,3.52,0,0.0000,0.0000,0.3500,0.0000,0.0000,0.0000,0.00,0.00,49.08,50.17,160,0,0.00000,0.00000,0.00000,0.00000,0,0,0,0.00000,0.00000,1.00000,0.0000,0.0000,0.0000,0.0000,0.0000,0.0000,0.00,0.00,0.00,1,1,1,160,200,121,121,120,0,0,60.00,36369,2984,121,0,0,0,36369,250.25,0.00,9,440,0.0000,0.0000,0.0000,0.0000,0.0000
2026-04-20T18:56:46.317,2.682,1,0.06,-0.74,-3.87,3.52,0,0.0000,0.0000,0.3500,0.0000,0.0000,0.0000,0.00,0.00,49.15,63.27,161,0,0.00000,0.00000,0.00000,0.00000,0,0,0,0.00000,0.00000,1.00000,0.0000,0.0000,0.0000,0.0000,0.0000,0.0000,0.00,0.00,0.00,1,1,1,161,200,121,121,120,0,0,60.00,36369,2984,121,0,0,0,36369,250.25,0.00,9,440,0.0000,0.0000,0.0000,0.0000,0.0000
2026-04-20T18:56:46.335,2.700,1,0.06,-0.74,-3.87,3.52,0,0.0000,0.0000,0.3500,0.0000,0.0000,0.0000,0.00,0.00,56.99,59.04,162,0,0.00000,0.00000,0.00000,0.00000,0,0,0,0.00000,0.00000,1.00000,0.0000,0.0000,0.0000,0.0000,0.0000,0.0000,0.00,0.00,0.00,1,1,1,162,200,121,121,120,0,0,60.00,36369,2984,121,0,0,0,36369,250.25,0.00,9,440,0.0000,0.0000,0.0000,0.0000,0.0000
2026-04-20T18:56:46.347,2.712,1,0.06,-0.74,-3.87,3.52,0,0.0000,0.0000,0.3500,0.0000,0.0000,0.0000,0.00,0.00,56.22,69.04,163,0,0.00000,0.00000,0.00000,0.00000,0,0,0,0.00000,0.00000,1.00000,0.0000,0.0000,0.0000,0.0000,0.0000,0.0000,0.00,0.00,0.00,1,1,1,163,200,121,121,120,0,0,60.00,36369,2984,121,0,0,0,36369,250.25,0.00,9,440,0.0000,0.0000,0.0000,0.0000,0.0000
2026-04-20T18:56:46.361,2.726,1,0.05,-0.74,-3.90,3.55,0,0.0000,0.0000,0.3500,0.0000,0.0000,0.0000,0.00,0.00,87.11,71.43,164,0,0.00000,0.00000,0.00000,0.00000,0,0,0,0.00000,0.00000,1.00000,0.0000,0.0000,0.0000,0.0000,0.0000,0.0000,0.00,0.00,0.00,1,1,1,164,200,121,121,120,0,0,60.00,36369,2984,121,0,0,0,36369,250.25,0.00,9,440,0.0000,0.0000,0.0000,0.0000,0.0000
2026-04-20T18:56:46.384,2.749,1,0.05,-0.74,-3.90,3.55,0,0.0000,0.0000,0.3500,0.0000,0.0000,0.0000,0.00,0.00,71.43,52.60,165,0,0.00000,0.00000,0.00000,0.00000,0,0,0,0.00000,0.00000,1.00000,0.0000,0.0000,0.0000,0.0000,0.0000,0.0000,0.00,0.00,0.00,1,1,1,165,200,121,121,120,0,0,60.00,36369,2984,121,0,0,0,36369,250.25,0.00,9,440,0.0000,0.0000,0.0000,0.0000,0.0000
2026-04-20T18:56:46.400,2.765,1,0.05,-0.74,-3.90,3.55,0,0.0000,0.0000,0.3500,0.0000,0.0000,0.0000,0.00,0.00,40.16,52.70,166,0,0.00000,0.00000,0.00000,0.00000,0,0,0,0.00000,0.00000,1.00000,0.0000,0.0000,0.0000,0.0000,0.0000,0.0000,0.00,0.00,0.00,1,1,1,166,200,121,121,120,0,0,60.00,36369,2984,121,0,0,0,36369,250.25,0.00,9,440,0.0000,0.0000,0.0000,0.0000,0.0000
2026-04-20T18:56:46.417,2.782,1,0.04,-0.74,-3.97,3.47,0,0.0000,0.0000,0.3500,0.0000,0.0000,0.0000,0.00,0.00,66.25,60.19,167,0,0.00000,0.00000,0.00000,0.00000,0,0,0,0.00000,0.00000,1.00000,0.0000,0.0000,0.0000,0.0000,0.0000,0.0000,0.00,0.00,0.00,1,1,1,167,200,121,121,120,0,0,60.00,36369,2984,121,0,0,0,36369,250.25,0.00,9,440,0.0000,0.0000,0.0000,0.0000,0.0000
