iso_time,elapsed_s,imu_ready,imu_pitch_deg,imu_roll_deg,imu_pitch_rate_deg_s,imu_roll_rate_deg_s,mocap_valid,mocap_x_error_m,mocap_y_error_m,mocap_z_error_m,mocap_vx_m_s,mocap_vy_m_s,mocap_vz_m_s,mocap_yaw_error_deg,mocap_yaw_rate_deg_s,backend_loop_hz,tracking_loop_hz,frames_processed,valid_pose_frames,pose_success_rate,full_marker_detection_rate,cam1_full_detection_rate,cam2_full_detection_rate,cam1_leds,cam2_leds,spatial_data_valid,mapping_error_px,model_fit_error_m,scale_factor,position_x_m,position_y_m,position_z_m,velocity_x_m_s,velocity_y_m_s,velocity_z_m_s,yaw_deg,pitch_deg,roll_deg,serial_connected,serial_send_enabled,serial_send_ok,serial_payload_seq,serial_payload_size_bytes,bridge_serial_frames_rx,bridge_espnow_tx_attempts,bridge_espnow_tx_ok,bridge_espnow_tx_fail,bridge_oversize_drops,bridge_tx_rate_hz,bridge_last_tx_seq,bridge_last_tx_latency_us,controller_rx_packets,controller_rx_missing_packets,controller_rx_duplicate_packets,controller_rx_out_of_order_packets,controller_last_rx_seq,controller_loop_hz,controller_control_hz,controller_command_age_ms,controller_apply_latency_us,controller_motor_imbalance,motor_1_output,motor_2_output,motor_3_output,motor_4_output
2026-04-20T17:54:22.983,0.069,1,-0.04,-0.60,0.03,-0.06,1,0.0073,0.0929,0.2534,0.0000,0.0000,0.0000,4.07,0.00,10.65,10.43,1,1,1.00000,1.00000,1.00000,1.00000,3,3,1,24.78602,0.00213,1.06684,-0.0073,-0.0929,0.0966,0.0000,0.0000,0.0000,-4.07,-11.65,176.30,1,1,1,1,221,0,0,0,0,0,58.00,0,3034,0,0,0,0,0,249.88,0.00,2,2310,0.0000,0.0000,0.0000,0.0000,0.0000
2026-04-20T17:54:22.998,0.084,1,-0.04,-0.60,0.03,-0.06,1,0.0072,0.0933,0.2531,0.0000,0.0000,0.0000,4.14,-4.38,52.20,60.07,2,2,1.00000,1.00000,1.00000,1.00000,3,3,1,24.79639,0.00204,1.06184,-0.0072,-0.0933,0.0969,0.0000,0.0000,0.0000,-4.14,-11.66,176.50,1,1,1,2,221,0,0,0,0,0,58.00,0,3034,0,0,0,0,0,249.88,0.00,2,2310,0.0000,0.0000,0.0000,0.0000,0.0000
2026-04-20T17:54:23.018,0.104,1,-0.04,-0.60,0.03,-0.06,1,0.0071,0.0929,0.2533,0.0000,0.0000,0.0000,4.08,2.84,64.65,62.65,3,3,1.00000,1.00000,1.00000,1.00000,3,3,1,24.81238,0.00214,1.06660,-0.0071,-0.0929,0.0967,0.0000,0.0000,0.0000,-4.08,-11.61,176.28,1,1,1,3,222,0,0,0,0,0,58.00,0,3034,0,0,0,0,0,249.88,0.00,2,2310,0.0000,0.0000,0.0000,0.0000,0.0000
2026-04-20T17:54:23.036,0.121,0,0.00,0.00,0.00,0.00,1,0.0069,0.0931,0.2529,0.0000,0.0000,0.0000,4.08,0.00,52.36,52.37,4,4,1.00000,1.00000,1.00000,1.00000,3,3,1,24.78798,0.00197,1.06472,-0.0069,-0.0931,0.0971,0.0000,0.0000,0.0000,-4.08,-11.34,176.29,1,1,1,4,222,0,0,0,0,0,58.00,0,3034,0,0,0,0,0,249.88,0.00,2,2310,0.0000,0.0000,0.0000,0.0000,0.0000
2026-04-20T17:54:23.050,0.135,0,0.00,0.00,0.00,0.00,1,0.0069,0.0932,0.2529,0.0000,0.0000,0.0000,4.05,2.21,53.67,58.34,5,5,1.00000,1.00000,1.00000,1.00000,3,3,1,24.81440,0.00198,1.06466,-0.0069,-0.0932,0.0971,0.0000,0.0000,0.0000,-4.05,-11.16,176.25,1,1,1,5,222,0,0,0,0,0,58.00,0,3034,0,0,0,0,0,249.88,0.00,2,2310,0.0000,0.0000,0.0000,0.0000,0.0000
2026-04-20T17:54:23.066,0.152,0,0.00,0.00,0.00,0.00,1,0.0073,0.0931,0.2534,0.0000,0.0000,0.0000,4.05,0.00,71.14,71.16,6,6,1.00000,1.00000,1.00000,1.00000,3,3,1,24.78406,0.00223,1.06558,-0.0073,-0.0931,0.0966,0.0000,0.0000,0.0000,-4.05,-11.64,176.29,1,1,1,6,222,0,0,0,0,0,58.00,0,3034,0,0,0,0,0,249.88,0.00,2,2310,0.0000,0.0000,0.0000,0.0000,0.0000
2026-04-20T17:54:23.081,0.167,0,0.00,0.00,0.00,0.00,1,0.0070,0.0931,0.2531,0.0000,0.0000,0.0000,4.04,0.69,64.46,63.95,7,7,1.00000,1.00000,1.00000,1.00000,3,3,1,24.81275,0.00206,1.06587,-0.0070,-0.0931,0.0969,0.0000,0.0000,0.0000,-4.04,-11.39,176.23,1,1,1,7,222,0,0,0,0,0,58.00,0,3034,0,0,0,0,0,249.88,0.00,2,2310,0.0000,0.0000,0.0000,0.0000,0.0000
2026-04-20T17:54:23.098,0.183,0,0.00,0.00,0.00,0.00,1,0.0072,0.0930,0.2535,0.0000,0.0000,0.0000,4.06,-1.21,63.85,60.46,8,8,1.00000,1.00000,1.00000,1.00000,3,3,1,24.77774,0.00212,1.06506,-0.0072,-0.0930,0.0965,0.0000,0.0000,0.0000,-4.06,-11.58,176.34,1,1,1,8,222,0,0,0,0,0,58.00,0,3034,0,0,0,0,0,249.88,0.00,2,2310,0.0000,0.0000,0.0000,0.0000,0.0000
2026-04-20T17:54:23.111,0.196,0,0.00,0.00,0.00,0.00,1,0.0072,0.0932,0.2532,0.0000,0.0000,0.0000,4.12,-4.60,64.32,62.34,9,9,1.00000,1.00000,1.00000,1.00000,3,3,1,24.84685,0.00200,1.06376,-0.0072,-0.0932,0.0968,0.0000,0.0000,0.0000,-4.12,-11.63,176.41,1,1,1,9,222,0,0,0,0,0,58.00,0,3034,0,0,0,0,0,249.88,0.00,2,2310,0.0000,0.0000,0.0000,0.0000,0.0000
2026-04-20T17:54:23.130,0.215,0,0.00,0.00,0.00,0.00,1,0.0070,0.0931,0.2531,0.0000,0.0000,0.0000,4.08,2.08,71.31,56.99,10,10,1.00000,1.00000,1.00000,1.00000,3,3,1,24.81313,0.00205,1.06593,-0.0070,-0.0931,0.0969,0.0000,0.0000,0.0000,-4.08,-11.39,176.31,1,1,1,10,222,0,0,0,0,0,58.00,0,3034,0,0,0,0,0,249.88,0.00,2,2310,0.0000,0.0000,0.0000,0.0000,0.0000
2026-04-20T17:54:23.146,0.231,0,0.00,0.00,0.00,0.00,1,0.0070,0.0932,0.2533,0.0000,0.0000,0.0000,4.01,4.45,54.83,59.77,11,11,1.00000,1.00000,1.00000,1.00000,3,3,1,24.83824,0.00211,1.06404,-0.0070,-0.0932,0.0967,0.0000,0.0000,0.0000,-4.01,-11.37,176.30,1,1,1,11,218,0,0,0,0,0,58.00,0,3034,0,0,0,0,0,249.88,0.00,2,2310,0.0000,0.0000,0.0000,0.0000,0.0000
2026-04-20T17:54:23.162,0.248,0,0.00,0.00,0.00,0.00,1,0.0070,0.0931,0.2531,0.0000,0.0000,0.0000,4.02,-0.64,61.51,65.61,12,12,1.00000,1.00000,1.00000,1.00000,3,3,1,24.79929,0.00204,1.06651,-0.0070,-0.0931,0.0969,0.0000,0.0000,0.0000,-4.02,-11.25,176.23,1,1,1,12,222,0,0,0,0,0,58.00,0,3034,0,0,0,0,0,249.88,0.00,2,2310,0.0000,0.0000,0.0000,0.0000,0.0000
2026-04-20T17:54:23.185,0.270,0,0.00,0.00,0.00,0.00,1,0.0072,0.0931,0.2533,0.0000,0.0000,0.0000,4.05,-1.27,62.34,52.38,13,13,1.00000,1.00000,1.00000,1.00000,3,3,1,24.79296,0.00210,1.06432,-0.0072,-0.0931,0.0967,0.0000,0.0000,0.0000,-4.05,-11.63,176.37,1,1,1,13,222,0,0,0,0,0,58.00,0,3034,0,0,0,0,0,249.88,0.00,2,2310,0.0000,0.0000,0.0000,0.0000,0.0000
2026-04-20T17:54:23.200,0.286,0,0.00,0.00,0.00,0.00,1,0.0073,0.0932,0.2533,0.0000,0.0000,0.0000,4.07,-1.37,43.26,55.35,14,14,1.00000,1.00000,1.00000,1.00000,3,3,1,24.82499,0.00216,1.06445,-0.0073,-0.0932,0.0967,0.0000,0.0000,0.0000,-4.07,-11.85,176.33,1,1,1,14,222,0,0,0,0,0,58.00,0,3034,0,0,0,0,0,249.88,0.00,2,2310,0.0000,0.0000,0.0000,0.0000,0.0000
2026-04-20T17:54:23.215,0.301,0,0.00,0.00,0.00,0.00,1,0.0071,0.0932,0.2531,0.0000,0.0000,0.0000,4.08,-0.67,62.19,60.31,15,15,1.00000,1.00000,1.00000,1.00000,3,3,1,24.83668,0.00213,1.06382,-0.0071,-0.0932,0.0969,0.0000,0.0000,0.0000,-4.08,-11.84,176.36,1,1,1,15,222,0,0,0,0,0,58.00,0,3034,0,0,0,0,0,249.88,0.00,2,2310,0.0000,0.0000,0.0000,0.0000,0.0000
2026-04-20T17:54:23.231,0.317,0,0.00,0.00,0.00,0.00,1,0.0071,0.0932,0.2531,0.0000,0.0000,0.0000,4.10,-1.27,76.67,73.75,16,16,1.00000,1.00000,1.00000,1.00000,3,3,1,24.83132,0.00204,1.06465,-0.0071,-0.0932,0.0969,0.0000,0.0000,0.0000,-4.10,-11.85,176.32,1,1,1,16,221,0,0,0,0,0,58.00,0,3034,0,0,0,0,0,249.88,0.00,2,2310,0.0000,0.0000,0.0000,0.0000,0.0000
2026-04-20T17:54:23.245,0.331,0,0.00,0.00,0.00,0.00,1,0.0069,0.0932,0.2531,0.0000,0.0000,0.0000,4.06,2.75,56.52,61.81,17,17,1.00000,1.00000,1.00000,1.00000,3,3,1,24.80219,0.00200,1.06421,-0.0069,-0.0932,0.0969,0.0000,0.0000,0.0000,-4.06,-11.58,176.37,1,1,1,17,222,0,0,0,0,0,58.00,0,3034,0,0,0,0,0,249.88,0.00,2,2310,0.0000,0.0000,0.0000,0.0000,0.0000
2026-04-20T17:54:23.263,0.349,0,0.00,0.00,0.00,0.00,1,0.0070,0.0932,0.2531,0.0000,0.0000,0.0000,4.13,-3.77,77.62,60.43,18,18,1.00000,1.00000,1.00000,1.00000,3,3,1,24.82397,0.00211,1.06300,-0.0070,-0.0932,0.0969,0.0000,0.0000,0.0000,-4.13,-11.50,176.40,1,1,1,18,220,0,0,0,0,0,58.00,0,3034,0,0,0,0,0,249.88,0.00,2,2310,0.0000,0.0000,0.0000,0.0000,0.0000
2026-04-20T17:54:23.287,0.373,0,0.00,0.00,0.00,0.00,1,0.0071,0.0932,0.2532,0.0000,0.0000,0.0000,4.13,0.00,52.02,55.35,19,19,1.00000,1.00000,1.00000,1.00000,3,3,1,24.84355,0.00212,1.06241,-0.0071,-0.0932,0.0968,0.0000,0.0000,0.0000,-4.13,-11.71,176.38,1,1,1,19,222,0,0,0,0,0,58.00,0,3034,0,0,0,0,0,249.88,0.00,2,2310,0.0000,0.0000,0.0000,0.0000,0.0000
2026-04-20T17:54:23.301,0.387,0,0.00,0.00,0.00,0.00,1,0.0070,0.0932,0.2531,0.0000,0.0000,0.0000,4.12,0.71,43.62,47.82,20,20,1.00000,1.00000,1.00000,1.00000,3,3,1,24.85917,0.00204,1.06367,-0.0070,-0.0932,0.0969,0.0000,0.0000,0.0000,-4.12,-11.65,176.32,1,1,1,20,222,0,0,0,0,0,58.00,0,3034,0,0,0,0,0,249.88,0.00,2,2310,0.0000,0.0000,0.0000,0.0000,0.0000
2026-04-20T17:54:23.316,0.402,0,0.00,0.00,0.00,0.00,1,0.0070,0.0931,0.2532,0.0000,0.0000,0.0000,4.06,3.95,66.49,66.41,21,21,1.00000,1.00000,1.00000,1.00000,3,3,1,24.82893,0.00213,1.06586,-0.0070,-0.0931,0.0968,0.0000,0.0000,0.0000,-4.06,-11.51,176.25,1,1,1,21,222,0,0,0,0,0,58.00,0,3034,0,0,0,0,0,249.88,0.00,2,2310,0.0000,0.0000,0.0000,0.0000,0.0000
2026-04-20T17:54:23.332,0.418,0,0.00,0.00,0.00,0.00,1,0.0069,0.0933,0.2532,0.0000,0.0000,0.0000,4.09,-2.02,70.48,70.57,22,22,1.00000,1.00000,1.00000,1.00000,3,3,1,24.86590,0.00196,1.05897,-0.0069,-0.0933,0.0968,0.0000,0.0000,0.0000,-4.09,-11.58,176.50,1,1,1,22,221,54,54,54,0,0,54.00,54,3025,0,0,0,0,0,249.88,0.00,2,2310,0.0000,0.0000,0.0000,0.0000,0.0000
2026-04-20T17:54:23.347,0.433,0,0.00,0.00,0.00,0.00,1,0.0068,0.0932,0.2532,0.0000,0.0000,0.0000,4.10,-0.64,63.02,62.94,23,23,1.00000,1.00000,1.00000,1.00000,3,3,1,24.80045,0.00200,1.06188,-0.0068,-0.0932,0.0968,0.0000,0.0000,0.0000,-4.10,-11.37,176.45,1,1,1,23,221,54,54,54,0,0,54.00,54,3025,0,0,0,0,0,249.88,0.00,2,2310,0.0000,0.0000,0.0000,0.0000,0.0000
2026-04-20T17:54:23.362,0.448,0,0.00,0.00,0.00,0.00,1,0.0070,0.0932,0.2534,0.0000,0.0000,0.0000,4.04,3.96,69.69,61.22,24,24,1.00000,1.00000,1.00000,1.00000,3,3,1,24.82832,0.00215,1.06413,-0.0070,-0.0932,0.0966,0.0000,0.0000,0.0000,-4.04,-11.55,176.39,1,1,1,24,222,54,54,54,0,0,54.00,54,3025,0,0,0,0,0,249.88,0.00,2,2310,0.0000,0.0000,0.0000,0.0000,0.0000
2026-04-20T17:54:23.381,0.467,0,0.00,0.00,0.00,0.00,1,0.0069,0.0932,0.2532,0.0000,0.0000,0.0000,3.98,3.15,64.99,51.57,25,25,1.00000,1.00000,1.00000,1.00000,3,3,1,24.85245,0.00205,1.06613,-0.0069,-0.0932,0.0968,0.0000,0.0000,0.0000,-3.98,-11.34,176.20,1,1,1,25,221,54,54,54,0,0,54.00,54,3025,0,0,0,0,0,249.88,0.00,2,2310,0.0000,0.0000,0.0000,0.0000,0.0000
2026-04-20T17:54:23.396,0.482,0,0.00,0.00,0.00,0.00,1,0.0070,0.0932,0.2533,0.0000,0.0000,0.0000,4.04,-3.86,52.52,68.80,26,26,1.00000,1.00000,1.00000,1.00000,3,3,1,24.86027,0.00205,1.06233,-0.0070,-0.0932,0.0967,0.0000,0.0000,0.0000,-4.04,-11.50,176.28,1,1,1,26,221,54,54,54,0,0,54.00,54,3025,0,0,0,0,0,249.88,0.00,2,2310,0.0000,0.0000,0.0000,0.0000,0.0000
2026-04-20T17:54:23.414,0.499,0,0.00,0.00,0.00,0.00,1,0.0072,0.0932,0.2534,0.0000,0.0000,0.0000,4.02,1.17,64.27,55.39,27,27,1.00000,1.00000,1.00000,1.00000,3,3,1,24.83061,0.00210,1.06508,-0.0072,-0.0932,0.0966,0.0000,0.0000,0.0000,-4.02,-11.80,176.26,1,1,1,27,221,54,54,54,0,0,54.00,54,3025,0,0,0,0,0,249.88,0.00,2,2310,0.0000,0.0000,0.0000,0.0000,0.0000
2026-04-20T17:54:23.432,0.518,0,0.00,0.00,0.00,0.00,1,0.0070,0.0931,0.2533,0.0000,0.0000,0.0000,4.04,-1.08,57.05,62.32,28,28,1.00000,1.00000,1.00000,1.00000,3,3,1,24.80465,0.00215,1.06520,-0.0070,-0.0931,0.0967,0.0000,0.0000,0.0000,-4.04,-11.65,176.25,1,1,1,28,222,54,54,54,0,0,54.00,54,3025,0,0,0,0,0,249.88,0.00,2,2310,0.0000,0.0000,0.0000,0.0000,0.0000
2026-04-20T17:54:23.452,0.537,0,0.00,0.00,0.00,0.00,1,0.0070,0.0932,0.2532,0.0000,0.0000,0.0000,4.06,-1.02,55.38,60.34,29,29,1.00000,1.00000,1.00000,1.00000,3,3,1,24.88154,0.00210,1.06383,-0.0070,-0.0932,0.0968,0.0000,0.0000,0.0000,-4.06,-11.56,176.27,1,1,1,29,222,54,54,54,0,0,54.00,54,3025,0,0,0,0,0,249.88,0.00,2,2310,0.0000,0.0000,0.0000,0.0000,0.0000
2026-04-20T17:54:23.469,0.555,0,0.00,0.00,0.00,0.00,1,0.0071,0.0932,0.2533,0.0000,0.0000,0.0000,4.03,1.71,48.50,52.39,30,30,1.00000,1.00000,1.00000,1.00000,3,3,1,24.86661,0.00215,1.06504,-0.0071,-0.0932,0.0967,0.0000,0.0000,0.0000,-4.03,-11.64,176.20,1,1,1,30,221,54,54,54,0,0,54.00,54,3025,0,0,0,0,0,249.88,0.00,2,2310,0.0000,0.0000,0.0000,0.0000,0.0000
2026-04-20T17:54:23.486,0.572,0,0.00,0.00,0.00,0.00,1,0.0070,0.0932,0.2532,0.0000,0.0000,0.0000,4.01,1.18,56.99,51.16,31,31,1.00000,1.00000,1.00000,1.00000,3,3,1,24.79370,0.00201,1.06447,-0.0070,-0.0932,0.0968,0.0000,0.0000,0.0000,-4.01,-11.59,176.20,1,1,1,31,218,54,54,54,0,0,54.00,54,3025,0,0,0,0,0,249.88,0.00,2,2310,0.0000,0.0000,0.0000,0.0000,0.0000
2026-04-20T17:54:23.503,0.588,0,0.00,0.00,0.00,0.00,1,0.0072,0.0932,0.2533,0.0000,0.0000,0.0000,4.07,-3.60,59.11,62.80,32,32,1.00000,1.00000,1.00000,1.00000,3,3,1,24.81188,0.00212,1.06322,-0.0072,-0.0932,0.0967,0.0000,0.0000,0.0000,-4.07,-11.78,176.28,1,1,1,32,222,54,54,54,0,0,54.00,54,3025,0,0,0,0,0,249.88,0.00,2,2310,0.0000,0.0000,0.0000,0.0000,0.0000
2026-04-20T17:54:23.531,0.617,0,0.00,0.00,0.00,0.00,1,0.0071,0.0931,0.2533,0.0000,0.0000,0.0000,4.05,0.71,63.29,32.98,33,33,1.00000,1.00000,1.00000,1.00000,3,3,1,24.77507,0.00225,1.06716,-0.0071,-0.0931,0.0967,0.0000,0.0000,0.0000,-4.05,-11.66,176.17,1,1,1,33,222,54,54,54,0,0,54.00,54,3025,0,0,0,0,0,249.88,0.00,2,2310,0.0000,0.0000,0.0000,0.0000,0.0000
2026-04-20T17:54:23.548,0.634,0,0.00,0.00,0.00,0.00,1,0.0072,0.0932,0.2532,0.0000,0.0000,0.0000,4.11,-3.57,35.64,68.77,34,34,1.00000,1.00000,1.00000,1.00000,3,3,1,24.84435,0.00210,1.06302,-0.0072,-0.0932,0.0968,0.0000,0.0000,0.0000,-4.11,-11.68,176.31,1,1,1,34,222,54,54,54,0,0,54.00,54,3025,0,0,0,0,0,249.88,0.00,2,2310,0.0000,0.0000,0.0000,0.0000,0.0000
2026-04-20T17:54:23.566,0.651,0,0.00,0.00,0.00,0.00,1,0.0070,0.0932,0.2530,0.0000,0.0000,0.0000,4.08,1.91,57.80,59.56,35,35,1.00000,1.00000,1.00000,1.00000,3,3,1,24.81451,0.00207,1.06574,-0.0070,-0.0932,0.0970,0.0000,0.0000,0.0000,-4.08,-11.38,176.20,1,1,1,35,221,54,54,54,0,0,54.00,54,3025,0,0,0,0,0,249.88,0.00,2,2310,0.0000,0.0000,0.0000,0.0000,0.0000
2026-04-20T17:54:23.585,0.671,0,0.00,0.00,0.00,0.00,1,0.0072,0.0932,0.2532,0.0000,0.0000,0.0000,4.08,0.00,58.10,48.36,36,36,1.00000,1.00000,1.00000,1.00000,3,3,1,24.78026,0.00212,1.06391,-0.0072,-0.0932,0.0968,0.0000,0.0000,0.0000,-4.08,-11.71,176.35,1,1,1,36,222,54,54,54,0,0,54.00,54,3025,0,0,0,0,0,249.88,0.00,2,2310,0.0000,0.0000,0.0000,0.0000,0.0000
2026-04-20T17:54:23.605,0.691,0,0.00,0.00,0.00,0.00,1,0.0072,0.0933,0.2532,0.0000,0.0000,0.0000,4.09,-0.58,49.64,59.92,37,37,1.00000,1.00000,1.00000,1.00000,3,3,1,24.78563,0.00204,1.06301,-0.0072,-0.0933,0.0968,0.0000,0.0000,0.0000,-4.09,-11.83,176.45,1,1,1,37,222,54,54,54,0,0,54.00,54,3025,0,0,0,0,0,249.88,0.00,2,2310,0.0000,0.0000,0.0000,0.0000,0.0000
2026-04-20T17:54:23.630,0.716,1,-0.01,-0.62,0.01,0.04,1,0.0071,0.0932,0.2532,0.0000,0.0000,0.0000,4.07,0.69,49.73,33.67,38,38,1.00000,1.00000,1.00000,1.00000,3,3,1,24.80837,0.00208,1.06299,-0.0071,-0.0932,0.0968,0.0000,0.0000,0.0000,-4.07,-11.82,176.33,1,1,1,38,222,54,54,54,0,0,54.00,54,3025,0,0,0,0,0,249.88,0.00,2,2310,0.0000,0.0000,0.0000,0.0000,0.0000
2026-04-20T17:54:23.645,0.731,1,-0.01,-0.62,0.01,0.04,1,0.0071,0.0934,0.2532,0.0000,0.0000,0.0000,4.10,-1.93,41.08,72.74,39,39,1.00000,1.00000,1.00000,1.00000,3,3,1,24.85656,0.00212,1.06243,-0.0071,-0.0934,0.0968,0.0000,0.0000,0.0000,-4.10,-11.84,176.46,1,1,1,39,221,54,54,54,0,0,54.00,54,3025,0,0,0,0,0,249.88,0.00,2,2310,0.0000,0.0000,0.0000,0.0000,0.0000
2026-04-20T17:54:23.665,0.751,1,-0.01,-0.62,0.01,0.04,1,0.0071,0.0931,0.2532,0.0000,0.0000,0.0000,3.98,6.11,63.84,53.54,40,40,1.00000,1.00000,1.00000,1.00000,3,3,1,24.81679,0.00215,1.06962,-0.0071,-0.0931,0.0968,0.0000,0.0000,0.0000,-3.98,-11.62,176.11,1,1,1,40,222,54,54,54,0,0,54.00,54,3025,0,0,0,0,0,249.88,0.00,2,2310,0.0000,0.0000,0.0000,0.0000,0.0000
2026-04-20T17:54:23.688,0.774,1,-0.01,-0.62,0.01,0.04,1,0.0067,0.0934,0.2528,0.0000,0.0000,0.0000,3.99,-0.63,49.89,58.71,41,41,1.00000,1.00000,1.00000,1.00000,3,3,1,24.83121,0.00187,1.06379,-0.0067,-0.0934,0.0972,0.0000,0.0000,0.0000,-3.99,-11.05,176.17,1,1,1,41,222,54,54,54,0,0,54.00,54,3025,0,0,0,0,0,249.88,0.00,2,2310,0.0000,0.0000,0.0000,0.0000,0.0000
2026-04-20T17:54:23.717,0.803,1,-0.01,-0.62,0.01,0.04,1,0.0069,0.0934,0.2531,0.0000,0.0000,0.0000,4.01,-0.57,40.66,36.75,42,42,1.00000,1.00000,1.00000,1.00000,3,3,1,24.86652,0.00216,1.06413,-0.0069,-0.0934,0.0969,0.0000,0.0000,0.0000,-4.01,-11.47,176.23,1,1,1,42,219,54,54,54,0,0,54.00,54,3025,0,0,0,0,0,249.88,0.00,2,2310,0.0000,0.0000,0.0000,0.0000,0.0000
2026-04-20T17:54:23.743,0.829,1,-0.02,-0.62,0.06,0.01,1,0.0069,0.0934,0.2531,0.0000,0.0000,0.0000,4.01,0.00,36.02,36.84,43,43,1.00000,1.00000,1.00000,1.00000,3,3,1,24.83749,0.00214,1.06674,-0.0069,-0.0934,0.0969,0.0000,0.0000,0.0000,-4.01,-11.55,176.22,1,1,1,43,219,54,54,54,0,0,54.00,54,3025,0,0,0,0,0,249.88,0.00,2,2310,0.0000,0.0000,0.0000,0.0000,0.0000
2026-04-20T17:54:23.764,0.849,1,-0.02,-0.62,0.06,0.01,1,0.0069,0.0935,0.2530,0.0000,0.0000,0.0000,4.05,-1.92,39.66,40.43,44,44,1.00000,1.00000,1.00000,1.00000,3,3,1,24.81589,0.00211,1.06131,-0.0069,-0.0935,0.0970,0.0000,0.0000,0.0000,-4.05,-11.55,176.34,1,1,1,44,222,54,54,54,0,0,54.00,54,3025,0,0,0,0,0,249.88,0.00,2,2310,0.0000,0.0000,0.0000,0.0000,0.0000
2026-04-20T17:54:23.783,0.868,1,-0.02,-0.62,0.06,0.01,1,0.0066,0.0934,0.2530,0.0000,0.0000,0.0000,4.13,-4.42,48.10,44.82,45,45,1.00000,1.00000,1.00000,1.00000,3,3,1,24.79927,0.00198,1.06337,-0.0066,-0.0934,0.0970,0.0000,0.0000,0.0000,-4.13,-11.21,176.49,1,1,1,45,222,54,54,54,0,0,54.00,54,3025,0,0,0,0,0,249.88,0.00,2,2310,0.0000,0.0000,0.0000,0.0000,0.0000
2026-04-20T17:54:23.799,0.885,1,-0.02,-0.62,0.06,0.01,1,0.0069,0.0933,0.2532,0.0000,0.0000,0.0000,4.11,1.17,52.39,56.95,46,46,1.00000,1.00000,1.00000,1.00000,3,3,1,24.84876,0.00214,1.06408,-0.0069,-0.0933,0.0968,0.0000,0.0000,0.0000,-4.11,-11.39,176.38,1,1,1,46,222,54,54,54,0,0,54.00,54,3025,0,0,0,0,0,249.88,0.00,2,2310,0.0000,0.0000,0.0000,0.0000,0.0000
2026-04-20T17:54:23.815,0.901,1,-0.02,-0.62,0.06,0.01,1,0.0068,0.0934,0.2529,0.0000,0.0000,0.0000,4.06,3.22,58.67,60.47,47,47,1.00000,1.00000,1.00000,1.00000,3,3,1,24.82972,0.00198,1.06232,-0.0068,-0.0934,0.0971,0.0000,0.0000,0.0000,-4.06,-11.43,176.35,1,1,1,47,222,54,54,54,0,0,54.00,54,3025,0,0,0,0,0,249.88,0.00,2,2310,0.0000,0.0000,0.0000,0.0000,0.0000
2026-04-20T17:54:23.828,0.914,1,-0.02,-0.62,0.06,0.01,1,0.0069,0.0934,0.2531,0.0000,0.0000,0.0000,4.10,-2.95,66.79,71.18,48,48,1.00000,1.00000,1.00000,1.00000,3,3,1,24.81996,0.00199,1.06270,-0.0069,-0.0934,0.0969,0.0000,0.0000,0.0000,-4.10,-11.53,176.43,1,1,1,48,221,54,54,54,0,0,54.00,54,3025,0,0,0,0,0,249.88,0.00,2,2310,0.0000,0.0000,0.0000,0.0000,0.0000
2026-04-20T17:54:23.846,0.931,1,-0.02,-0.62,0.06,0.01,1,0.0069,0.0934,0.2531,0.0000,0.0000,0.0000,4.14,-2.22,79.28,58.68,49,49,1.00000,1.00000,1.00000,1.00000,3,3,1,24.79863,0.00194,1.06343,-0.0069,-0.0934,0.0969,0.0000,0.0000,0.0000,-4.14,-11.46,176.51,1,1,1,49,222,54,54,54,0,0,54.00,54,3025,0,0,0,0,0,249.88,0.00,2,2310,0.0000,0.0000,0.0000,0.0000,0.0000
2026-04-20T17:54:23.863,0.949,1,-0.02,-0.62,0.06,0.01,1,0.0068,0.0934,0.2531,0.0000,0.0000,0.0000,4.06,4.43,55.37,60.40,50,50,1.00000,1.00000,1.00000,1.00000,3,3,1,24.82845,0.00206,1.06399,-0.0068,-0.0934,0.0969,0.0000,0.0000,0.0000,-4.06,-11.36,176.38,1,1,1,50,222,54,54,54,0,0,54.00,54,3025,0,0,0,0,0,249.88,0.00,2,2310,0.0000,0.0000,0.0000,0.0000,0.0000
2026-04-20T17:54:23.878,0.963,1,-0.02,-0.62,0.06,0.01,1,0.0070,0.0933,0.2531,0.0000,0.0000,0.0000,4.13,-5.17,53.96,67.83,51,51,1.00000,1.00000,1.00000,1.00000,3,3,1,24.82687,0.00211,1.06462,-0.0070,-0.0933,0.0969,0.0000,0.0000,0.0000,-4.13,-11.49,176.41,1,1,1,51,222,54,54,54,0,0,54.00,54,3025,0,0,0,0,0,249.88,0.00,2,2310,0.0000,0.0000,0.0000,0.0000,0.0000
2026-04-20T17:54:23.897,0.983,1,-0.02,-0.62,0.06,0.01,1,0.0069,0.0933,0.2530,0.0000,0.0000,0.0000,4.08,2.55,71.21,54.54,52,52,1.00000,1.00000,1.00000,1.00000,3,3,1,24.82615,0.00193,1.06417,-0.0069,-0.0933,0.0970,0.0000,0.0000,0.0000,-4.08,-11.36,176.38,1,1,1,52,222,54,54,54,0,0,54.00,54,3025,0,0,0,0,0,249.88,0.00,2,2310,0.0000,0.0000,0.0000,0.0000,0.0000
2026-04-20T17:54:23.913,0.999,1,-0.02,-0.62,0.06,0.01,1,0.0071,0.0933,0.2532,0.0000,0.0000,0.0000,4.10,-1.33,51.09,62.23,53,53,1.00000,1.00000,1.00000,1.00000,3,3,1,24.81898,0.00207,1.06352,-0.0071,-0.0933,0.0968,0.0000,0.0000,0.0000,-4.10,-11.63,176.46,1,1,1,53,221,54,54,54,0,0,54.00,54,3025,0,0,0,0,0,249.88,0.00,2,2310,0.0000,0.0000,0.0000,0.0000,0.0000
2026-04-20T17:54:23.929,1.014,1,-0.02,-0.61,0.03,0.06,1,0.0071,0.0933,0.2533,0.0000,0.0000,0.0000,4.06,2.66,64.36,58.34,54,54,1.00000,1.00000,1.00000,1.00000,3,3,1,24.84778,0.00208,1.06506,-0.0071,-0.0933,0.0967,0.0000,0.0000,0.0000,-4.06,-11.75,176.41,1,1,1,54,222,54,54,54,0,0,54.00,54,3025,0,0,0,0,0,249.88,0.00,2,2310,0.0000,0.0000,0.0000,0.0000,0.0000
2026-04-20T17:54:23.945,1.031,1,-0.02,-0.61,0.03,0.06,1,0.0069,0.0933,0.2532,0.0000,0.0000,0.0000,4.10,-2.31,65.48,61.84,55,55,1.00000,1.00000,1.00000,1.00000,3,3,1,24.80706,0.00195,1.06176,-0.0069,-0.0933,0.0968,0.0000,0.0000,0.0000,-4.10,-11.54,176.53,1,1,1,55,221,54,54,54,0,0,54.00,54,3025,0,0,0,0,0,249.88,0.00,2,2310,0.0000,0.0000,0.0000,0.0000,0.0000
2026-04-20T17:54:23.962,1.048,1,-0.02,-0.61,0.03,0.06,1,0.0068,0.0933,0.2531,0.0000,0.0000,0.0000,4.06,2.24,57.81,59.47,56,56,1.00000,1.00000,1.00000,1.00000,3,3,1,24.79978,0.00202,1.06329,-0.0068,-0.0933,0.0969,0.0000,0.0000,0.0000,-4.06,-11.24,176.42,1,1,1,56,222,54,54,54,0,0,54.00,54,3025,0,0,0,0,0,249.88,0.00,2,2310,0.0000,0.0000,0.0000,0.0000,0.0000
2026-04-20T17:54:23.982,1.068,1,-0.02,-0.61,0.03,0.06,1,0.0069,0.0933,0.2532,0.0000,0.0000,0.0000,4.07,-0.51,58.63,56.66,57,57,1.00000,1.00000,1.00000,1.00000,3,3,1,24.79040,0.00196,1.06460,-0.0069,-0.0933,0.0968,0.0000,0.0000,0.0000,-4.07,-11.32,176.47,1,1,1,57,222,54,54,54,0,0,54.00,54,3025,0,0,0,0,0,249.88,0.00,2,2310,0.0000,0.0000,0.0000,0.0000,0.0000
2026-04-20T17:54:24.001,1.086,1,-0.02,-0.61,0.03,0.06,1,0.0069,0.0932,0.2531,0.0000,0.0000,0.0000,4.06,0.54,49.54,58.49,58,58,1.00000,1.00000,1.00000,1.00000,3,3,1,24.80721,0.00208,1.06665,-0.0069,-0.0932,0.0969,0.0000,0.0000,0.0000,-4.06,-11.27,176.32,1,1,1,58,222,54,54,54,0,0,54.00,54,3025,0,0,0,0,0,249.88,0.00,2,2310,0.0000,0.0000,0.0000,0.0000,0.0000
2026-04-20T17:54:24.019,1.105,1,-0.02,-0.61,0.03,0.06,1,0.0068,0.0933,0.2533,0.0000,0.0000,0.0000,4.13,-3.73,55.27,49.77,59,59,1.00000,1.00000,1.00000,1.00000,3,3,1,24.79260,0.00202,1.06093,-0.0068,-0.0933,0.0967,0.0000,0.0000,0.0000,-4.13,-11.20,176.52,1,1,1,59,221,54,54,54,0,0,54.00,54,3025,0,0,0,0,0,249.88,0.00,2,2310,0.0000,0.0000,0.0000,0.0000,0.0000
2026-04-20T17:54:24.035,1.121,1,-0.02,-0.61,0.03,0.06,1,0.0072,0.0931,0.2532,0.0000,0.0000,0.0000,4.09,2.72,56.29,58.01,60,60,1.00000,1.00000,1.00000,1.00000,3,3,1,24.82820,0.00222,1.06728,-0.0072,-0.0931,0.0968,0.0000,0.0000,0.0000,-4.09,-11.55,176.28,1,1,1,60,222,54,54,54,0,0,54.00,54,3025,0,0,0,0,0,249.88,0.00,2,2310,0.0000,0.0000,0.0000,0.0000,0.0000
2026-04-20T17:54:24.049,1.135,1,-0.02,-0.61,0.03,0.06,1,0.0071,0.0932,0.2531,0.0000,0.0000,0.0000,4.09,0.00,59.62,61.44,61,61,1.00000,1.00000,1.00000,1.00000,3,3,1,24.80464,0.00219,1.06354,-0.0071,-0.0932,0.0969,0.0000,0.0000,0.0000,-4.09,-11.61,176.35,1,1,1,61,222,54,54,54,0,0,54.00,54,3025,0,0,0,0,0,249.88,0.00,2,2310,0.0000,0.0000,0.0000,0.0000,0.0000
2026-04-20T17:54:24.069,1.154,1,-0.02,-0.61,0.03,0.06,1,0.0071,0.0932,0.2532,0.0000,0.0000,0.0000,4.04,2.72,68.73,60.69,62,62,1.00000,1.00000,1.00000,1.00000,3,3,1,24.84972,0.00210,1.06544,-0.0071,-0.0932,0.0968,0.0000,0.0000,0.0000,-4.04,-11.61,176.25,1,1,1,62,222,54,54,54,0,0,54.00,54,3025,0,0,0,0,0,249.88,0.00,2,2310,0.0000,0.0000,0.0000,0.0000,0.0000
2026-04-20T17:54:24.085,1.170,1,-0.02,-0.61,0.03,0.06,1,0.0072,0.0931,0.2532,0.0000,0.0000,0.0000,4.07,-1.89,52.95,60.78,63,63,1.00000,1.00000,1.00000,1.00000,3,3,1,24.83083,0.00215,1.06507,-0.0072,-0.0931,0.0968,0.0000,0.0000,0.0000,-4.07,-11.74,176.21,1,1,1,63,222,54,54,54,0,0,54.00,54,3025,0,0,0,0,0,249.88,0.00,2,2310,0.0000,0.0000,0.0000,0.0000,0.0000
2026-04-20T17:54:24.100,1.185,1,-0.01,-0.59,0.07,0.07,1,0.0072,0.0930,0.2532,0.0000,0.0000,0.0000,4.01,3.98,64.22,64.69,64,64,1.00000,1.00000,1.00000,1.00000,3,3,1,24.78919,0.00211,1.06749,-0.0072,-0.0930,0.0968,0.0000,0.0000,0.0000,-4.01,-11.78,176.08,1,1,1,64,219,54,54,54,0,0,54.00,54,3025,0,0,0,0,0,249.88,0.00,2,2310,0.0000,0.0000,0.0000,0.0000,0.0000
2026-04-20T17:54:24.116,1.201,1,-0.01,-0.59,0.07,0.07,1,0.0071,0.0931,0.2532,0.0000,0.0000,0.0000,4.05,-2.50,64.83,60.47,65,65,1.00000,1.00000,1.00000,1.00000,3,3,1,24.83844,0.00208,1.06245,-0.0071,-0.0931,0.0968,0.0000,0.0000,0.0000,-4.05,-11.80,176.13,1,1,1,65,221,54,54,54,0,0,54.00,54,3025,0,0,0,0,0,249.88,0.00,2,2310,0.0000,0.0000,0.0000,0.0000,0.0000
2026-04-20T17:54:24.133,1.218,1,-0.01,-0.59,0.07,0.07,1,0.0071,0.0932,0.2532,0.0000,0.0000,0.0000,4.09,-2.19,63.79,63.71,66,66,1.00000,1.00000,1.00000,1.00000,3,3,1,24.79439,0.00194,1.06471,-0.0071,-0.0932,0.0968,0.0000,0.0000,0.0000,-4.09,-11.60,176.32,1,1,1,66,221,54,54,54,0,0,54.00,54,3025,0,0,0,0,0,249.88,0.00,2,2310,0.0000,0.0000,0.0000,0.0000,0.0000
2026-04-20T17:54:24.153,1.239,1,-0.01,-0.59,0.07,0.07,1,0.0070,0.0931,0.2531,0.0000,0.0000,0.0000,4.05,2.20,53.74,52.02,67,67,1.00000,1.00000,1.00000,1.00000,3,3,1,24.82421,0.00204,1.06580,-0.0070,-0.0931,0.0969,0.0000,0.0000,0.0000,-4.05,-11.33,176.21,1,1,1,67,222,54,54,54,0,0,54.00,54,3025,0,0,0,0,0,249.88,0.00,2,2310,0.0000,0.0000,0.0000,0.0000,0.0000
2026-04-20T17:54:24.171,1.256,1,-0.01,-0.59,0.07,0.07,1,0.0071,0.0932,0.2531,0.0000,0.0000,0.0000,4.04,0.57,53.52,51.11,68,68,1.00000,1.00000,1.00000,1.00000,3,3,1,24.82733,0.00205,1.06467,-0.0071,-0.0932,0.0969,0.0000,0.0000,0.0000,-4.04,-11.41,176.26,1,1,1,68,222,54,54,54,0,0,54.00,54,3025,0,0,0,0,0,249.88,0.00,2,2310,0.0000,0.0000,0.0000,0.0000,0.0000
2026-04-20T17:54:24.189,1.275,1,-0.01,-0.59,0.07,0.07,1,0.0070,0.0931,0.2531,0.0000,0.0000,0.0000,4.03,0.50,58.95,69.20,69,69,1.00000,1.00000,1.00000,1.00000,3,3,1,24.81982,0.00209,1.06630,-0.0070,-0.0931,0.0969,0.0000,0.0000,0.0000,-4.03,-11.35,176.18,1,1,1,69,222,54,54,54,0,0,54.00,54,3025,0,0,0,0,0,249.88,0.00,2,2310,0.0000,0.0000,0.0000,0.0000,0.0000
2026-04-20T17:54:24.205,1.291,1,-0.01,-0.59,0.07,0.07,1,0.0070,0.0931,0.2532,0.0000,0.0000,0.0000,4.03,0.00,52.93,47.86,70,70,1.00000,1.00000,1.00000,1.00000,3,3,1,24.82903,0.00199,1.06428,-0.0070,-0.0931,0.0968,0.0000,0.0000,0.0000,-4.03,-11.31,176.19,1,1,1,70,222,54,54,54,0,0,54.00,54,3025,0,0,0,0,0,249.88,0.00,2,2310,0.0000,0.0000,0.0000,0.0000,0.0000
2026-04-20T17:54:24.221,1.306,1,-0.01,-0.59,0.07,0.07,1,0.0071,0.0931,0.2530,0.0000,0.0000,0.0000,4.02,0.71,62.70,70.78,71,71,1.00000,1.00000,1.00000,1.00000,3,3,1,24.81245,0.00206,1.06589,-0.0071,-0.0931,0.0970,0.0000,0.0000,0.0000,-4.02,-11.49,176.12,1,1,1,71,222,54,54,54,0,0,54.00,54,3025,0,0,0,0,0,249.88,0.00,2,2310,0.0000,0.0000,0.0000,0.0000,0.0000
2026-04-20T17:54:24.240,1.325,1,-0.01,-0.59,0.07,0.07,1,0.0072,0.0931,0.2531,0.0000,0.0000,0.0000,4.05,-1.46,65.74,66.54,72,72,1.00000,1.00000,1.00000,1.00000,3,3,1,24.84031,0.00224,1.06416,-0.0072,-0.0931,0.0969,0.0000,0.0000,0.0000,-4.05,-11.75,176.16,1,1,1,72,222,54,54,54,0,0,54.00,54,3025,0,0,0,0,0,249.88,0.00,2,2310,0.0000,0.0000,0.0000,0.0000,0.0000
2026-04-20T17:54:24.254,1.339,1,-0.01,-0.59,0.07,0.07,1,0.0069,0.0931,0.2529,0.0000,0.0000,0.0000,4.07,-1.37,52.33,52.33,73,73,1.00000,1.00000,1.00000,1.00000,3,3,1,24.80562,0.00196,1.06577,-0.0069,-0.0931,0.0971,0.0000,0.0000,0.0000,-4.07,-11.35,176.20,1,1,1,73,221,54,54,54,0,0,54.00,54,3025,0,0,0,0,0,249.88,0.00,2,2310,0.0000,0.0000,0.0000,0.0000,0.0000
2026-04-20T17:54:24.270,1.356,1,-0.01,-0.59,0.07,0.07,1,0.0070,0.0932,0.2531,0.0000,0.0000,0.0000,4.07,0.00,68.00,63.60,74,74,1.00000,1.00000,1.00000,1.00000,3,3,1,24.80693,0.00206,1.06396,-0.0070,-0.0932,0.0969,0.0000,0.0000,0.0000,-4.07,-11.44,176.26,1,1,1,74,222,54,54,54,0,0,54.00,54,3025,0,0,0,0,0,249.88,0.00,2,2310,0.0000,0.0000,0.0000,0.0000,0.0000
2026-04-20T17:54:24.288,1.374,1,-0.01,-0.59,0.07,0.07,1,0.0069,0.0932,0.2530,0.0000,0.0000,0.0000,4.02,2.62,56.66,53.61,75,75,1.00000,1.00000,1.00000,1.00000,3,3,1,24.87878,0.00206,1.06391,-0.0069,-0.0932,0.0970,0.0000,0.0000,0.0000,-4.02,-11.31,176.23,1,1,1,75,222,54,54,54,0,0,54.00,54,3025,0,0,0,0,0,249.88,0.00,2,2310,0.0000,0.0000,0.0000,0.0000,0.0000
2026-04-20T17:54:24.303,1.388,1,-0.01,-0.59,0.07,0.07,1,0.0073,0.0930,0.2534,0.0000,0.0000,0.0000,4.06,-2.75,62.29,71.27,76,76,1.00000,1.00000,1.00000,1.00000,3,3,1,24.75256,0.00224,1.06521,-0.0073,-0.0930,0.0966,0.0000,0.0000,0.0000,-4.06,-11.83,176.28,1,1,1,76,222,54,54,54,0,0,54.00,54,3025,0,0,0,0,0,249.88,0.00,2,2310,0.0000,0.0000,0.0000,0.0000,0.0000
2026-04-20T17:54:24.318,1.404,1,-0.01,-0.58,0.09,0.07,1,0.0071,0.0931,0.2532,0.0000,0.0000,0.0000,4.09,-2.03,68.81,67.09,77,77,1.00000,1.00000,1.00000,1.00000,3,3,1,24.81194,0.00196,1.06368,-0.0071,-0.0931,0.0968,0.0000,0.0000,0.0000,-4.09,-11.55,176.38,1,1,1,77,222,54,54,54,0,0,54.00,54,3025,0,0,0,0,0,249.88,0.00,2,2310,0.0000,0.0000,0.0000,0.0000,0.0000
2026-04-20T17:54:24.333,1.419,1,-0.01,-0.58,0.09,0.07,1,0.0072,0.0931,0.2531,0.0000,0.0000,0.0000,4.10,-0.68,63.47,65.01,78,78,1.00000,1.00000,1.00000,1.00000,3,3,1,24.84948,0.00204,1.06504,-0.0072,-0.0931,0.0969,0.0000,0.0000,0.0000,-4.10,-11.60,176.34,1,1,1,78,220,110,110,109,0,0,56.00,110,2984,0,0,0,0,0,249.88,0.00,2,2310,0.0000,0.0000,0.0000,0.0000,0.0000
2026-04-20T17:54:24.349,1.435,1,-0.01,-0.58,0.09,0.07,1,0.0071,0.0930,0.2531,0.0000,0.0000,0.0000,4.03,4.10,73.41,60.11,79,79,1.00000,1.00000,1.00000,1.00000,3,3,1,24.84646,0.00213,1.06558,-0.0071,-0.0930,0.0969,0.0000,0.0000,0.0000,-4.03,-11.38,176.10,1,1,1,79,221,110,110,109,0,0,56.00,110,2984,0,0,0,0,0,249.88,0.00,2,2310,0.0000,0.0000,0.0000,0.0000,0.0000
2026-04-20T17:54:24.368,1.454,1,-0.01,-0.58,0.09,0.07,1,0.0070,0.0931,0.2532,0.0000,0.0000,0.0000,4.06,-1.64,58.54,71.08,80,80,1.00000,1.00000,1.00000,1.00000,3,3,1,24.85159,0.00195,1.06311,-0.0070,-0.0931,0.0968,0.0000,0.0000,0.0000,-4.06,-11.10,176.23,1,1,1,80,221,110,110,109,0,0,56.00,110,2984,0,0,0,0,0,249.88,0.00,2,2310,0.0000,0.0000,0.0000,0.0000,0.0000
2026-04-20T17:54:24.382,1.468,1,-0.01,-0.58,0.09,0.07,1,0.0069,0.0931,0.2532,0.0000,0.0000,0.0000,4.07,-0.69,51.86,51.86,81,81,1.00000,1.00000,1.00000,1.00000,3,3,1,24.75070,0.00197,1.06546,-0.0069,-0.0931,0.0968,0.0000,0.0000,0.0000,-4.07,-11.02,176.34,1,1,1,81,222,110,110,109,0,0,56.00,110,2984,0,0,0,0,0,249.88,0.00,2,2310,0.0000,0.0000,0.0000,0.0000,0.0000
2026-04-20T17:54:24.398,1.483,1,-0.01,-0.58,0.09,0.07,1,0.0071,0.0932,0.2531,0.0000,0.0000,0.0000,4.07,0.00,73.92,64.34,82,82,1.00000,1.00000,1.00000,1.00000,3,3,1,24.85903,0.00209,1.06207,-0.0071,-0.0932,0.0969,0.0000,0.0000,0.0000,-4.07,-11.38,176.37,1,1,1,82,222,110,110,109,0,0,56.00,110,2984,0,0,0,0,0,249.88,0.00,2,2310,0.0000,0.0000,0.0000,0.0000,0.0000
2026-04-20T17:54:24.414,1.499,1,-0.01,-0.58,0.09,0.07,1,0.0072,0.0932,0.2533,0.0000,0.0000,0.0000,4.12,-3.33,64.24,68.71,83,83,1.00000,1.00000,1.00000,1.00000,3,3,1,24.80842,0.00202,1.06261,-0.0072,-0.0932,0.0967,0.0000,0.0000,0.0000,-4.12,-11.57,176.47,1,1,1,83,222,110,110,109,0,0,56.00,110,2984,0,0,0,0,0,249.88,0.00,2,2310,0.0000,0.0000,0.0000,0.0000,0.0000
2026-04-20T17:54:24.428,1.514,1,-0.01,-0.58,0.09,0.07,1,0.0072,0.0930,0.2532,0.0000,0.0000,0.0000,4.09,1.93,62.39,62.31,84,84,1.00000,1.00000,1.00000,1.00000,3,3,1,24.78594,0.00208,1.06720,-0.0072,-0.0930,0.0968,0.0000,0.0000,0.0000,-4.09,-11.65,176.27,1,1,1,84,222,110,110,109,0,0,56.00,110,2984,0,0,0,0,0,249.88,0.00,2,2310,0.0000,0.0000,0.0000,0.0000,0.0000
2026-04-20T17:54:24.446,1.532,1,-0.01,-0.58,0.09,0.07,1,0.0070,0.0931,0.2531,0.0000,0.0000,0.0000,4.04,2.85,68.69,58.67,85,85,1.00000,1.00000,1.00000,1.00000,3,3,1,24.82312,0.00203,1.06773,-0.0070,-0.0931,0.0969,0.0000,0.0000,0.0000,-4.04,-11.19,176.15,1,1,1,85,222,110,110,109,0,0,56.00,110,2984,0,0,0,0,0,249.88,0.00,2,2310,0.0000,0.0000,0.0000,0.0000,0.0000
2026-04-20T17:54:24.463,1.549,1,-0.01,-0.58,0.09,0.07,1,0.0070,0.0932,0.2530,0.0000,0.0000,0.0000,4.07,-1.71,55.41,57.00,86,86,1.00000,1.00000,1.00000,1.00000,3,3,1,24.78424,0.00202,1.06479,-0.0070,-0.0932,0.0970,0.0000,0.0000,0.0000,-4.07,-11.09,176.23,1,1,1,86,222,110,110,109,0,0,56.00,110,2984,0,0,0,0,0,249.88,0.00,2,2310,0.0000,0.0000,0.0000,0.0000,0.0000
2026-04-20T17:54:24.478,1.563,1,-0.01,-0.58,0.09,0.07,1,0.0071,0.0931,0.2532,0.0000,0.0000,0.0000,4.08,-0.71,62.43,66.46,87,87,1.00000,1.00000,1.00000,1.00000,3,3,1,24.82114,0.00210,1.06573,-0.0071,-0.0931,0.0968,0.0000,0.0000,0.0000,-4.08,-11.20,176.26,1,1,1,87,221,110,110,109,0,0,56.00,110,2984,0,0,0,0,0,249.88,0.00,2,2310,0.0000,0.0000,0.0000,0.0000,0.0000
2026-04-20T17:54:24.495,1.580,1,-0.01,-0.58,0.09,0.07,1,0.0071,0.0930,0.2532,0.0000,0.0000,0.0000,4.08,0.00,62.94,62.95,88,88,1.00000,1.00000,1.00000,1.00000,3,3,1,24.80168,0.00212,1.06575,-0.0071,-0.0930,0.0968,0.0000,0.0000,0.0000,-4.08,-11.23,176.16,1,1,1,88,222,110,110,109,0,0,56.00,110,2984,0,0,0,0,0,249.88,0.00,2,2310,0.0000,0.0000,0.0000,0.0000,0.0000
2026-04-20T17:54:24.514,1.599,1,-0.03,-0.60,0.04,0.03,1,0.0070,0.0932,0.2531,0.0000,0.0000,0.0000,4.08,0.00,58.63,55.46,89,89,1.00000,1.00000,1.00000,1.00000,3,3,1,24.84255,0.00201,1.06282,-0.0070,-0.0932,0.0969,0.0000,0.0000,0.0000,-4.08,-11.16,176.29,1,1,1,89,222,110,110,109,0,0,56.00,110,2984,0,0,0,0,0,249.88,0.00,2,2310,0.0000,0.0000,0.0000,0.0000,0.0000
2026-04-20T17:54:24.543,1.628,1,-0.03,-0.60,0.04,0.03,1,0.0071,0.0931,0.2532,0.0000,0.0000,0.0000,4.10,-0.69,52.47,32.66,90,90,1.00000,1.00000,1.00000,1.00000,3,3,1,24.83087,0.00201,1.06445,-0.0071,-0.0931,0.0968,0.0000,0.0000,0.0000,-4.10,-11.42,176.31,1,1,1,90,221,110,110,109,0,0,56.00,110,2984,0,0,0,0,0,249.88,0.00,2,2310,0.0000,0.0000,0.0000,0.0000,0.0000
2026-04-20T17:54:24.558,1.643,1,-0.03,-0.60,0.04,0.03,1,0.0068,0.0930,0.2532,0.0000,0.0000,0.0000,4.00,6.83,34.87,68.33,91,91,1.00000,1.00000,1.00000,1.00000,3,3,1,24.82097,0.00212,1.06620,-0.0068,-0.0930,0.0968,0.0000,0.0000,0.0000,-4.00,-11.12,176.13,1,1,1,91,219,110,110,109,0,0,56.00,110,2984,0,0,0,0,0,249.88,0.00,2,2310,0.0000,0.0000,0.0000,0.0000,0.0000
2026-04-20T17:54:24.573,1.658,1,-0.02,-0.60,-0.00,0.04,1,0.0070,0.0930,0.2532,0.0000,0.0000,0.0000,3.99,0.67,68.28,70.78,92,92,1.00000,1.00000,1.00000,1.00000,3,3,1,24.79541,0.00208,1.06778,-0.0070,-0.0930,0.0968,0.0000,0.0000,0.0000,-3.99,-11.24,176.09,1,1,1,92,222,110,110,109,0,0,56.00,110,2984,0,0,0,0,0,249.88,0.00,2,2310,0.0000,0.0000,0.0000,0.0000,0.0000
2026-04-20T17:54:24.588,1.673,1,-0.02,-0.60,-0.00,0.04,1,0.0071,0.0930,0.2532,0.0000,0.0000,0.0000,3.97,1.34,62.39,56.98,93,93,1.00000,1.00000,1.00000,1.00000,3,3,1,24.85593,0.00211,1.06622,-0.0071,-0.0930,0.0968,0.0000,0.0000,0.0000,-3.97,-11.43,176.03,1,1,1,93,222,110,110,109,0,0,56.00,110,2984,0,0,0,0,0,249.88,0.00,2,2310,0.0000,0.0000,0.0000,0.0000,0.0000
2026-04-20T17:54:24.601,1.687,1,-0.02,-0.60,-0.00,0.04,1,0.0071,0.0931,0.2533,0.0000,0.0000,0.0000,4.08,-7.99,69.44,77.60,94,94,1.00000,1.00000,1.00000,1.00000,3,3,1,24.80848,0.00204,1.06282,-0.0071,-0.0931,0.0967,0.0000,0.0000,0.0000,-4.08,-11.55,176.28,1,1,1,94,222,110,110,109,0,0,56.00,110,2984,0,0,0,0,0,249.88,0.00,2,2310,0.0000,0.0000,0.0000,0.0000,0.0000
2026-04-20T17:54:24.616,1.702,1,-0.02,-0.60,-0.00,0.04,1,0.0072,0.0930,0.2532,0.0000,0.0000,0.0000,4.06,1.33,70.16,70.12,95,95,1.00000,1.00000,1.00000,1.00000,3,3,1,24.80426,0.00217,1.06718,-0.0072,-0.0930,0.0968,0.0000,0.0000,0.0000,-4.06,-11.69,176.19,1,1,1,95,222,110,110,109,0,0,56.00,110,2984,0,0,0,0,0,249.88,0.00,2,2310,0.0000,0.0000,0.0000,0.0000,0.0000
2026-04-20T17:54:24.631,1.716,1,-0.02,-0.60,-0.00,0.04,1,0.0069,0.0931,0.2532,0.0000,0.0000,0.0000,4.04,1.47,66.36,66.44,96,96,1.00000,1.00000,1.00000,1.00000,3,3,1,24.82170,0.00204,1.06494,-0.0069,-0.0931,0.0968,0.0000,0.0000,0.0000,-4.04,-11.38,176.19,1,1,1,96,222,110,110,109,0,0,56.00,110,2984,0,0,0,0,0,249.88,0.00,2,2310,0.0000,0.0000,0.0000,0.0000,0.0000
2026-04-20T17:54:24.646,1.732,1,-0.02,-0.60,-0.00,0.04,1,0.0071,0.0931,0.2533,0.0000,0.0000,0.0000,4.00,2.41,73.76,73.77,97,97,1.00000,1.00000,1.00000,1.00000,3,3,1,24.85752,0.00215,1.06623,-0.0071,-0.0931,0.0967,0.0000,0.0000,0.0000,-4.00,-11.60,176.13,1,1,1,97,218,110,110,109,0,0,56.00,110,2984,0,0,0,0,0,249.88,0.00,2,2310,0.0000,0.0000,0.0000,0.0000,0.0000
2026-04-20T17:54:24.661,1.747,1,-0.02,-0.60,-0.00,0.04,1,0.0070,0.0931,0.2533,0.0000,0.0000,0.0000,4.06,-3.99,64.19,56.88,98,98,1.00000,1.00000,1.00000,1.00000,3,3,1,24.83361,0.00203,1.06370,-0.0070,-0.0931,0.0967,0.0000,0.0000,0.0000,-4.06,-11.56,176.22,1,1,1,98,222,110,110,109,0,0,56.00,110,2984,0,0,0,0,0,249.88,0.00,2,2310,0.0000,0.0000,0.0000,0.0000,0.0000
2026-04-20T17:54:24.680,1.766,1,-0.02,-0.60,0.09,0.09,1,0.0069,0.0931,0.2533,0.0000,0.0000,0.0000,4.04,1.08,66.54,62.29,99,99,1.00000,1.00000,1.00000,1.00000,3,3,1,24.83179,0.00201,1.06476,-0.0069,-0.0931,0.0967,0.0000,0.0000,0.0000,-4.04,-11.33,176.18,1,1,1,99,222,110,110,109,0,0,56.00,110,2984,0,0,0,0,0,249.88,0.00,2,2310,0.0000,0.0000,0.0000,0.0000,0.0000
2026-04-20T17:54:24.695,1.780,1,-0.02,-0.60,0.09,0.09,1,0.0069,0.0931,0.2532,0.0000,0.0000,0.0000,4.03,0.74,53.89,58.70,100,100,1.00000,1.00000,1.00000,1.00000,3,3,1,24.84168,0.00207,1.06506,-0.0069,-0.0931,0.0968,0.0000,0.0000,0.0000,-4.03,-11.28,176.18,1,1,1,100,222,110,110,109,0,0,56.00,110,2984,0,0,0,0,0,249.88,0.00,2,2310,0.0000,0.0000,0.0000,0.0000,0.0000
2026-04-20T17:54:24.713,1.799,1,-0.02,-0.60,0.09,0.09,1,0.0070,0.0932,0.2533,0.0000,0.0000,0.0000,4.04,-0.53,66.40,57.52,101,101,1.00000,1.00000,1.00000,1.00000,3,3,1,24.84380,0.00210,1.06254,-0.0070,-0.0932,0.0967,0.0000,0.0000,0.0000,-4.04,-11.47,176.33,1,1,1,101,222,110,110,109,0,0,56.00,110,2984,0,0,0,0,0,249.88,0.00,2,2310,0.0000,0.0000,0.0000,0.0000,0.0000
2026-04-20T17:54:24.732,1.818,1,-0.02,-0.60,0.09,0.01,1,0.0070,0.0932,0.2531,0.0000,0.0000,0.0000,4.05,-0.51,51.64,56.97,102,102,1.00000,1.00000,1.00000,1.00000,3,3,1,24.79890,0.00207,1.06570,-0.0070,-0.0932,0.0969,0.0000,0.0000,0.0000,-4.05,-11.36,176.25,1,1,1,102,222,110,110,109,0,0,56.00,110,2984,0,0,0,0,0,249.88,0.00,2,2310,0.0000,0.0000,0.0000,0.0000,0.0000
2026-04-20T17:54:24.749,1.834,1,-0.02,-0.60,0.09,0.01,1,0.0070,0.0932,0.2532,0.0000,0.0000,0.0000,4.10,-2.98,56.84,60.30,103,103,1.00000,1.00000,1.00000,1.00000,3,3,1,24.82495,0.00200,1.06198,-0.0070,-0.0932,0.0968,0.0000,0.0000,0.0000,-4.10,-11.42,176.39,1,1,1,103,221,110,110,109,0,0,56.00,110,2984,0,0,0,0,0,249.88,0.00,2,2310,0.0000,0.0000,0.0000,0.0000,0.0000
2026-04-20T17:54:24.766,1.851,1,-0.02,-0.60,0.09,0.01,1,0.0070,0.0931,0.2533,0.0000,0.0000,0.0000,4.00,5.66,59.69,59.73,104,104,1.00000,1.00000,1.00000,1.00000,3,3,1,24.83106,0.00219,1.06651,-0.0070,-0.0931,0.0967,0.0000,0.0000,0.0000,-4.00,-11.45,176.20,1,1,1,104,218,110,110,109,0,0,56.00,110,2984,0,0,0,0,0,249.88,0.00,2,2310,0.0000,0.0000,0.0000,0.0000,0.0000
2026-04-20T17:54:24.782,1.868,1,-0.02,-0.60,0.09,0.01,1,0.0071,0.0932,0.2532,0.0000,0.0000,0.0000,4.08,-5.15,58.25,58.24,105,105,1.00000,1.00000,1.00000,1.00000,3,3,1,24.84433,0.00212,1.06250,-0.0071,-0.0932,0.0968,0.0000,0.0000,0.0000,-4.08,-11.60,176.29,1,1,1,105,221,110,110,109,0,0,56.00,110,2984,0,0,0,0,0,249.88,0.00,2,2310,0.0000,0.0000,0.0000,0.0000,0.0000
2026-04-20T17:54:24.797,1.883,1,-0.02,-0.60,0.09,0.01,1,0.0072,0.0931,0.2533,0.0000,0.0000,0.0000,4.12,-2.55,62.36,62.32,106,106,1.00000,1.00000,1.00000,1.00000,3,3,1,24.82311,0.00223,1.06539,-0.0072,-0.0931,0.0967,0.0000,0.0000,0.0000,-4.12,-11.64,176.37,1,1,1,106,222,110,110,109,0,0,56.00,110,2984,0,0,0,0,0,249.88,0.00,2,2310,0.0000,0.0000,0.0000,0.0000,0.0000
2026-04-20T17:54:24.813,1.899,1,-0.02,-0.60,0.09,0.01,1,0.0070,0.0931,0.2532,0.0000,0.0000,0.0000,4.08,2.57,59.69,63.52,107,107,1.00000,1.00000,1.00000,1.00000,3,3,1,24.81661,0.00207,1.06619,-0.0070,-0.0931,0.0968,0.0000,0.0000,0.0000,-4.08,-11.41,176.26,1,1,1,107,222,110,110,109,0,0,56.00,110,2984,0,0,0,0,0,249.88,0.00,2,2310,0.0000,0.0000,0.0000,0.0000,0.0000
2026-04-20T17:54:24.831,1.917,1,-0.02,-0.60,0.09,0.01,1,0.0072,0.0931,0.2534,0.0000,0.0000,0.0000,4.02,3.59,63.77,59.90,108,108,1.00000,1.00000,1.00000,1.00000,3,3,1,24.84441,0.00219,1.06436,-0.0072,-0.0931,0.0966,0.0000,0.0000,0.0000,-4.02,-11.78,176.24,1,1,1,108,222,110,110,109,0,0,56.00,110,2984,0,0,0,0,0,249.88,0.00,2,2310,0.0000,0.0000,0.0000,0.0000,0.0000
2026-04-20T17:54:24.846,1.932,1,-0.02,-0.60,0.09,0.01,1,0.0072,0.0931,0.2532,0.0000,0.0000,0.0000,4.01,0.64,59.79,61.68,109,109,1.00000,1.00000,1.00000,1.00000,3,3,1,24.85750,0.00218,1.06608,-0.0072,-0.0931,0.0968,0.0000,0.0000,0.0000,-4.01,-11.72,176.22,1,1,1,109,219,110,110,109,0,0,56.00,110,2984,0,0,0,0,0,249.88,0.00,2,2310,0.0000,0.0000,0.0000,0.0000,0.0000
2026-04-20T17:54:24.861,1.947,1,-0.02,-0.60,0.09,0.01,1,0.0072,0.0932,0.2534,0.0000,0.0000,0.0000,4.12,-7.08,66.43,60.41,110,110,1.00000,1.00000,1.00000,1.00000,3,3,1,24.82926,0.00211,1.06280,-0.0072,-0.0932,0.0966,0.0000,0.0000,0.0000,-4.12,-11.90,176.43,1,1,1,110,221,110,110,109,0,0,56.00,110,2984,0,0,0,0,0,249.88,0.00,2,2310,0.0000,0.0000,0.0000,0.0000,0.0000
2026-04-20T17:54:24.878,1.963,1,-0.02,-0.60,0.09,0.01,1,0.0072,0.0932,0.2534,0.0000,0.0000,0.0000,4.12,0.00,66.60,62.33,111,111,1.00000,1.00000,1.00000,1.00000,3,3,1,24.81960,0.00213,1.06388,-0.0072,-0.0932,0.0966,0.0000,0.0000,0.0000,-4.12,-12.04,176.44,1,1,1,111,222,110,110,109,0,0,56.00,110,2984,0,0,0,0,0,249.88,0.00,2,2310,0.0000,0.0000,0.0000,0.0000,0.0000
2026-04-20T17:54:24.898,1.984,1,-0.02,-0.60,0.09,0.01,1,0.0071,0.0931,0.2533,0.0000,0.0000,0.0000,4.00,6.35,58.86,57.27,112,112,1.00000,1.00000,1.00000,1.00000,3,3,1,24.84226,0.00206,1.06845,-0.0071,-0.0931,0.0967,0.0000,0.0000,0.0000,-4.00,-11.70,176.16,1,1,1,112,218,110,110,109,0,0,56.00,110,2984,0,0,0,0,0,249.88,0.00,2,2310,0.0000,0.0000,0.0000,0.0000,0.0000
2026-04-20T17:54:24.914,1.999,1,-0.02,-0.60,0.09,0.01,1,0.0069,0.0931,0.2531,0.0000,0.0000,0.0000,4.02,-1.16,49.84,55.29,113,113,1.00000,1.00000,1.00000,1.00000,3,3,1,24.85106,0.00201,1.06465,-0.0069,-0.0931,0.0969,0.0000,0.0000,0.0000,-4.02,-11.28,176.15,1,1,1,113,222,110,110,109,0,0,56.00,110,2984,0,0,0,0,0,249.88,0.00,2,2310,0.0000,0.0000,0.0000,0.0000,0.0000
2026-04-20T17:54:24.930,2.016,1,-0.02,-0.60,0.09,0.01,1,0.0070,0.0932,0.2532,0.0000,0.0000,0.0000,4.03,-0.64,61.38,63.35,114,114,1.00000,1.00000,1.00000,1.00000,3,3,1,24.85048,0.00200,1.06511,-0.0070,-0.0932,0.0968,0.0000,0.0000,0.0000,-4.03,-11.23,176.20,1,1,1,114,221,110,110,109,0,0,56.00,110,2984,0,0,0,0,0,249.88,0.00,2,2310,0.0000,0.0000,0.0000,0.0000,0.0000
2026-04-20T17:54:24.948,2.033,1,-0.02,-0.60,0.09,0.01,1,0.0070,0.0931,0.2534,0.0000,0.0000,0.0000,4.05,-1.15,64.19,58.59,115,115,1.00000,1.00000,1.00000,1.00000,3,3,1,24.81482,0.00214,1.06455,-0.0070,-0.0931,0.0966,0.0000,0.0000,0.0000,-4.05,-11.32,176.29,1,1,1,115,222,110,110,109,0,0,56.00,110,2984,0,0,0,0,0,249.88,0.00,2,2310,0.0000,0.0000,0.0000,0.0000,0.0000
2026-04-20T17:54:24.962,2.048,1,-0.02,-0.60,0.09,0.01,1,0.0072,0.0931,0.2535,0.0000,0.0000,0.0000,4.02,2.05,58.63,64.32,116,116,1.00000,1.00000,1.00000,1.00000,3,3,1,24.86127,0.00222,1.06412,-0.0072,-0.0931,0.0965,0.0000,0.0000,0.0000,-4.02,-11.61,176.24,1,1,1,116,222,110,110,109,0,0,56.00,110,2984,0,0,0,0,0,249.88,0.00,2,2310,0.0000,0.0000,0.0000,0.0000,0.0000
2026-04-20T17:54:24.980,2.066,1,-0.02,-0.60,0.09,0.01,1,0.0068,0.0931,0.2533,0.0000,0.0000,0.0000,4.03,-0.56,66.59,58.72,117,117,1.00000,1.00000,1.00000,1.00000,3,3,1,24.79368,0.00200,1.06464,-0.0068,-0.0931,0.0967,0.0000,0.0000,0.0000,-4.03,-11.14,176.23,1,1,1,117,222,110,110,109,0,0,56.00,110,2984,0,0,0,0,0,249.88,0.00,2,2310,0.0000,0.0000,0.0000,0.0000,0.0000
2026-04-20T17:54:24.996,2.081,1,-0.02,-0.60,0.09,0.01,1,0.0072,0.0931,0.2535,0.0000,0.0000,0.0000,4.06,-1.87,55.95,57.58,118,118,1.00000,1.00000,1.00000,1.00000,3,3,1,24.84827,0.00214,1.06429,-0.0072,-0.0931,0.0965,0.0000,0.0000,0.0000,-4.06,-11.53,176.28,1,1,1,118,222,110,110,109,0,0,56.00,110,2984,0,0,0,0,0,249.88,0.00,2,2310,0.0000,0.0000,0.0000,0.0000,0.0000
2026-04-20T17:54:25.011,2.096,1,-0.02,-0.60,0.09,0.01,1,0.0072,0.0932,0.2533,0.0000,0.0000,0.0000,4.05,0.69,64.83,66.41,119,119,1.00000,1.00000,1.00000,1.00000,3,3,1,24.80307,0.00198,1.06565,-0.0072,-0.0932,0.0967,0.0000,0.0000,0.0000,-4.05,-11.58,176.30,1,1,1,119,221,110,110,109,0,0,56.00,110,2984,0,0,0,0,0,249.88,0.00,2,2310,0.0000,0.0000,0.0000,0.0000,0.0000
2026-04-20T17:54:25.030,2.116,1,-0.02,-0.60,0.09,0.01,1,0.0071,0.0933,0.2533,0.0000,0.0000,0.0000,4.15,-5.11,65.92,58.64,120,120,1.00000,1.00000,1.00000,1.00000,3,3,1,24.80525,0.00202,1.06284,-0.0071,-0.0933,0.0967,0.0000,0.0000,0.0000,-4.15,-11.48,176.47,1,1,1,120,222,110,110,109,0,0,56.00,110,2984,0,0,0,0,0,249.88,0.00,2,2310,0.0000,0.0000,0.0000,0.0000,0.0000
2026-04-20T17:54:25.045,2.130,1,-0.02,-0.60,0.09,0.01,1,0.0074,0.0930,0.2534,0.0000,0.0000,0.0000,4.10,3.56,51.10,58.66,121,121,1.00000,1.00000,1.00000,1.00000,3,3,1,24.77550,0.00223,1.06810,-0.0074,-0.0930,0.0966,0.0000,0.0000,0.0000,-4.10,-11.85,176.18,1,1,1,121,221,110,110,109,0,0,56.00,110,2984,0,0,0,0,0,249.88,0.00,2,2310,0.0000,0.0000,0.0000,0.0000,0.0000
2026-04-20T17:54:25.063,2.149,1,-0.02,-0.60,0.09,0.01,1,0.0072,0.0932,0.2533,0.0000,0.0000,0.0000,4.11,-0.50,66.34,60.34,122,122,1.00000,1.00000,1.00000,1.00000,3,3,1,24.80782,0.00206,1.06331,-0.0072,-0.0932,0.0967,0.0000,0.0000,0.0000,-4.11,-11.78,176.35,1,1,1,122,222,110,110,109,0,0,56.00,110,2984,0,0,0,0,0,249.88,0.00,2,2310,0.0000,0.0000,0.0000,0.0000,0.0000
2026-04-20T17:54:25.080,2.166,1,-0.02,-0.60,0.09,0.01,1,0.0071,0.0933,0.2533,0.0000,0.0000,0.0000,4.09,1.37,52.27,61.94,123,123,1.00000,1.00000,1.00000,1.00000,3,3,1,24.86118,0.00201,1.05927,-0.0071,-0.0933,0.0967,0.0000,0.0000,0.0000,-4.09,-11.73,176.45,1,1,1,123,222,110,110,109,0,0,56.00,110,2984,0,0,0,0,0,249.88,0.00,2,2310,0.0000,0.0000,0.0000,0.0000,0.0000
2026-04-20T17:54:25.095,2.181,0,-0.02,0.00,0.06,-0.00,1,0.0072,0.0932,0.2533,0.0000,0.0000,0.0000,4.07,1.28,59.84,63.72,124,124,1.00000,1.00000,1.00000,1.00000,3,3,1,24.82920,0.00206,1.06435,-0.0072,-0.0932,0.0967,0.0000,0.0000,0.0000,-4.07,-11.59,176.41,1,1,1,124,222,110,110,109,0,0,56.00,110,2984,0,0,0,0,0,249.88,0.00,2,2310,0.0000,0.0000,0.0000,0.0000,0.0000
2026-04-20T17:54:25.111,2.196,0,-0.02,0.00,0.06,-0.00,1,0.0074,0.0931,0.2536,0.0000,0.0000,0.0000,4.04,1.74,69.39,57.37,125,125,1.00000,1.00000,1.00000,1.00000,3,3,1,24.84548,0.00228,1.06547,-0.0074,-0.0931,0.0964,0.0000,0.0000,0.0000,-4.04,-11.95,176.27,1,1,1,125,222,110,110,109,0,0,56.00,110,2984,0,0,0,0,0,249.88,0.00,2,2310,0.0000,0.0000,0.0000,0.0000,0.0000
2026-04-20T17:54:25.129,2.215,0,-0.02,0.00,0.06,-0.00,1,0.0070,0.0933,0.2531,0.0000,0.0000,0.0000,4.03,0.61,61.06,57.54,126,126,1.00000,1.00000,1.00000,1.00000,3,3,1,24.81112,0.00200,1.06285,-0.0070,-0.0933,0.0969,0.0000,0.0000,0.0000,-4.03,-11.45,176.34,1,1,1,126,222,110,110,109,0,0,56.00,110,2984,0,0,0,0,0,249.88,0.00,2,2310,0.0000,0.0000,0.0000,0.0000,0.0000
2026-04-20T17:54:25.147,2.232,0,-0.02,0.00,0.06,-0.00,1,0.0072,0.0932,0.2532,0.0000,0.0000,0.0000,4.08,-2.76,57.60,65.18,127,127,1.00000,1.00000,1.00000,1.00000,3,3,1,24.77996,0.00207,1.06386,-0.0072,-0.0932,0.0968,0.0000,0.0000,0.0000,-4.08,-11.61,176.35,1,1,1,127,222,110,110,109,0,0,56.00,110,2984,0,0,0,0,0,249.88,0.00,2,2310,0.0000,0.0000,0.0000,0.0000,0.0000
2026-04-20T17:54:25.164,2.250,0,-0.02,0.00,0.06,-0.00,1,0.0070,0.0931,0.2532,0.0000,0.0000,0.0000,4.01,4.23,56.70,56.70,128,128,1.00000,1.00000,1.00000,1.00000,3,3,1,24.86552,0.00206,1.06585,-0.0070,-0.0931,0.0968,0.0000,0.0000,0.0000,-4.01,-11.32,176.14,1,1,1,128,219,110,110,109,0,0,56.00,110,2984,0,0,0,0,0,249.88,0.00,2,2310,0.0000,0.0000,0.0000,0.0000,0.0000
2026-04-20T17:54:25.178,2.264,0,-0.02,0.00,0.06,-0.00,1,0.0071,0.0931,0.2533,0.0000,0.0000,0.0000,4.05,-2.58,55.46,55.45,129,129,1.00000,1.00000,1.00000,1.00000,3,3,1,24.79438,0.00205,1.06538,-0.0071,-0.0931,0.0967,0.0000,0.0000,0.0000,-4.05,-11.29,176.22,1,1,1,129,222,110,110,109,0,0,56.00,110,2984,0,0,0,0,0,249.88,0.00,2,2310,0.0000,0.0000,0.0000,0.0000,0.0000
2026-04-20T17:54:25.195,2.281,0,-0.02,0.00,0.06,-0.00,1,0.0069,0.0931,0.2534,0.0000,0.0000,0.0000,4.10,-3.10,73.51,68.49,130,130,1.00000,1.00000,1.00000,1.00000,3,3,1,24.82153,0.00195,1.06338,-0.0069,-0.0931,0.0966,0.0000,0.0000,0.0000,-4.10,-11.16,176.34,1,1,1,130,221,110,110,109,0,0,56.00,110,2984,0,0,0,0,0,249.88,0.00,2,2310,0.0000,0.0000,0.0000,0.0000,0.0000
2026-04-20T17:54:25.212,2.297,0,-0.02,0.00,0.06,-0.00,1,0.0071,0.0932,0.2533,0.0000,0.0000,0.0000,4.06,2.22,62.37,56.58,131,131,1.00000,1.00000,1.00000,1.00000,3,3,1,24.82104,0.00201,1.06413,-0.0071,-0.0932,0.0967,0.0000,0.0000,0.0000,-4.06,-11.40,176.32,1,1,1,131,221,110,110,109,0,0,56.00,110,2984,0,0,0,0,0,249.88,0.00,2,2310,0.0000,0.0000,0.0000,0.0000,0.0000
2026-04-20T17:54:25.229,2.314,0,-0.02,0.00,0.06,-0.00,1,0.0072,0.0931,0.2533,0.0000,0.0000,0.0000,4.03,1.84,54.88,62.09,132,132,1.00000,1.00000,1.00000,1.00000,3,3,1,24.81744,0.00216,1.06700,-0.0072,-0.0931,0.0967,0.0000,0.0000,0.0000,-4.03,-11.55,176.21,1,1,1,132,222,110,110,109,0,0,56.00,110,2984,0,0,0,0,0,249.88,0.00,2,2310,0.0000,0.0000,0.0000,0.0000,0.0000
2026-04-20T17:54:25.247,2.332,0,-0.02,0.00,0.06,-0.00,1,0.0071,0.0931,0.2532,0.0000,0.0000,0.0000,4.04,-0.58,60.95,62.97,133,133,1.00000,1.00000,1.00000,1.00000,3,3,1,24.82739,0.00204,1.06562,-0.0071,-0.0931,0.0968,0.0000,0.0000,0.0000,-4.04,-11.59,176.27,1,1,1,133,222,110,110,109,0,0,56.00,110,2984,0,0,0,0,0,249.88,0.00,2,2310,0.0000,0.0000,0.0000,0.0000,0.0000
2026-04-20T17:54:25.265,2.351,0,-0.02,0.00,0.06,-0.00,1,0.0071,0.0932,0.2532,0.0000,0.0000,0.0000,4.10,-3.06,55.29,52.39,134,134,1.00000,1.00000,1.00000,1.00000,3,3,1,24.79973,0.00203,1.06392,-0.0071,-0.0932,0.0968,0.0000,0.0000,0.0000,-4.10,-11.63,176.36,1,1,1,134,221,110,110,109,0,0,56.00,110,2984,0,0,0,0,0,249.88,0.00,2,2310,0.0000,0.0000,0.0000,0.0000,0.0000
2026-04-20T17:54:25.279,2.365,0,-0.02,0.00,0.06,-0.00,1,0.0071,0.0931,0.2534,0.0000,0.0000,0.0000,4.10,0.00,52.43,58.58,135,135,1.00000,1.00000,1.00000,1.00000,3,3,1,24.78797,0.00206,1.06617,-0.0071,-0.0931,0.0966,0.0000,0.0000,0.0000,-4.10,-11.60,176.34,1,1,1,135,220,110,110,109,0,0,56.00,110,2984,0,0,0,0,0,249.88,0.00,2,2310,0.0000,0.0000,0.0000,0.0000,0.0000
2026-04-20T17:54:25.295,2.381,0,-0.02,0.00,0.06,-0.00,1,0.0072,0.0932,0.2534,0.0000,0.0000,0.0000,4.08,1.25,76.71,66.51,136,136,1.00000,1.00000,1.00000,1.00000,3,3,1,24.79751,0.00222,1.06377,-0.0072,-0.0932,0.0966,0.0000,0.0000,0.0000,-4.08,-11.77,176.33,1,1,1,136,222,110,110,109,0,0,56.00,110,2984,0,0,0,0,0,249.88,0.00,2,2310,0.0000,0.0000,0.0000,0.0000,0.0000
2026-04-20T17:54:25.311,2.397,0,-0.02,0.00,0.06,-0.00,1,0.0072,0.0932,0.2533,0.0000,0.0000,0.0000,4.05,1.87,63.06,59.31,137,137,1.00000,1.00000,1.00000,1.00000,3,3,1,24.82315,0.00211,1.06491,-0.0072,-0.0932,0.0967,0.0000,0.0000,0.0000,-4.05,-11.74,176.35,1,1,1,137,222,110,110,109,0,0,56.00,110,2984,0,0,0,0,0,249.88,0.00,2,2310,0.0000,0.0000,0.0000,0.0000,0.0000
2026-04-20T17:54:25.330,2.416,0,-0.02,0.00,0.06,-0.00,1,0.0072,0.0931,0.2534,0.0000,0.0000,0.0000,4.05,0.00,58.68,57.08,138,138,1.00000,1.00000,1.00000,1.00000,3,3,1,24.80444,0.00219,1.06436,-0.0072,-0.0931,0.0966,0.0000,0.0000,0.0000,-4.05,-11.77,176.33,1,1,1,138,222,170,170,170,0,0,60.00,170,3306,0,0,0,0,0,249.88,0.00,2,2310,0.0000,0.0000,0.0000,0.0000,0.0000
2026-04-20T17:54:25.351,2.436,0,-0.02,0.00,0.06,-0.00,1,0.0073,0.0931,0.2535,0.0000,0.0000,0.0000,4.06,-0.48,52.75,60.57,139,139,1.00000,1.00000,1.00000,1.00000,3,3,1,24.78859,0.00217,1.06587,-0.0073,-0.0931,0.0965,0.0000,0.0000,0.0000,-4.06,-12.01,176.32,1,1,1,139,219,170,170,170,0,0,60.00,170,3306,0,0,0,0,0,249.88,0.00,2,2310,0.0000,0.0000,0.0000,0.0000,0.0000
2026-04-20T17:54:25.369,2.455,1,-0.04,-0.63,0.11,0.04,1,0.0072,0.0931,0.2533,0.0000,0.0000,0.0000,4.02,2.26,48.80,50.00,140,140,1.00000,1.00000,1.00000,1.00000,3,3,1,24.81661,0.00203,1.06705,-0.0072,-0.0931,0.0967,0.0000,0.0000,0.0000,-4.02,-11.69,176.20,1,1,1,140,221,170,170,170,0,0,60.00,170,3306,0,0,0,0,0,249.88,0.00,2,2310,0.0000,0.0000,0.0000,0.0000,0.0000
2026-04-20T17:54:25.387,2.473,1,-0.04,-0.63,0.11,0.04,1,0.0071,0.0931,0.2534,0.0000,0.0000,0.0000,4.04,-1.13,53.39,50.79,141,141,1.00000,1.00000,1.00000,1.00000,3,3,1,24.79759,0.00207,1.06512,-0.0071,-0.0931,0.0966,0.0000,0.0000,0.0000,-4.04,-11.44,176.23,1,1,1,141,222,170,170,170,0,0,60.00,170,3306,0,0,0,0,0,249.88,0.00,2,2310,0.0000,0.0000,0.0000,0.0000,0.0000
2026-04-20T17:54:25.406,2.492,1,-0.04,-0.63,0.11,0.04,1,0.0073,0.0931,0.2534,0.0000,0.0000,0.0000,4.09,-2.58,56.85,55.30,142,142,1.00000,1.00000,1.00000,1.00000,3,3,1,24.78588,0.00213,1.06469,-0.0073,-0.0931,0.0966,0.0000,0.0000,0.0000,-4.09,-11.78,176.35,1,1,1,142,222,170,170,170,0,0,60.00,170,3306,0,0,0,0,0,249.88,0.00,2,2310,0.0000,0.0000,0.0000,0.0000,0.0000
2026-04-20T17:54:25.420,2.506,1,-0.04,-0.63,0.11,0.04,1,0.0072,0.0931,0.2533,0.0000,0.0000,0.0000,4.07,1.38,52.52,58.68,143,143,1.00000,1.00000,1.00000,1.00000,3,3,1,24.81235,0.00204,1.06679,-0.0072,-0.0931,0.0967,0.0000,0.0000,0.0000,-4.07,-11.73,176.27,1,1,1,143,222,170,170,170,0,0,60.00,170,3306,0,0,0,0,0,249.88,0.00,2,2310,0.0000,0.0000,0.0000,0.0000,0.0000
2026-04-20T17:54:25.435,2.521,1,-0.04,-0.63,0.11,0.04,1,0.0071,0.0930,0.2534,0.0000,0.0000,0.0000,4.05,1.39,71.34,76.83,144,144,1.00000,1.00000,1.00000,1.00000,3,3,1,24.80785,0.00206,1.06502,-0.0071,-0.0930,0.0966,0.0000,0.0000,0.0000,-4.05,-11.58,176.30,1,1,1,144,221,170,170,170,0,0,60.00,170,3306,0,0,0,0,0,249.88,0.00,2,2310,0.0000,0.0000,0.0000,0.0000,0.0000
2026-04-20T17:54:25.449,2.535,1,-0.04,-0.63,0.11,0.04,1,0.0071,0.0932,0.2533,0.0000,0.0000,0.0000,4.11,-4.08,69.70,64.98,145,145,1.00000,1.00000,1.00000,1.00000,3,3,1,24.84006,0.00198,1.06202,-0.0071,-0.0932,0.0967,0.0000,0.0000,0.0000,-4.11,-11.56,176.40,1,1,1,145,221,170,170,170,0,0,60.00,170,3306,0,0,0,0,0,249.88,0.00,2,2310,0.0000,0.0000,0.0000,0.0000,0.0000
2026-04-20T17:54:25.469,2.555,1,-0.04,-0.63,0.11,0.04,1,0.0071,0.0932,0.2533,0.0000,0.0000,0.0000,4.06,2.62,70.34,57.58,146,146,1.00000,1.00000,1.00000,1.00000,3,3,1,24.83951,0.00204,1.06306,-0.0071,-0.0932,0.0967,0.0000,0.0000,0.0000,-4.06,-11.63,176.38,1,1,1,146,222,170,170,170,0,0,60.00,170,3306,0,0,0,0,0,249.88,0.00,2,2310,0.0000,0.0000,0.0000,0.0000,0.0000
2026-04-20T17:54:25.486,2.572,1,-0.04,-0.63,0.11,0.04,1,0.0072,0.0932,0.2535,0.0000,0.0000,0.0000,4.12,-3.31,51.09,57.53,147,147,1.00000,1.00000,1.00000,1.00000,3,3,1,24.82297,0.00209,1.06203,-0.0072,-0.0932,0.0965,0.0000,0.0000,0.0000,-4.12,-11.80,176.53,1,1,1,147,221,170,170,170,0,0,60.00,170,3306,0,0,0,0,0,249.88,0.00,2,2310,0.0000,0.0000,0.0000,0.0000,0.0000
2026-04-20T17:54:25.501,2.587,1,-0.04,-0.63,0.11,0.04,1,0.0072,0.0931,0.2535,0.0000,0.0000,0.0000,4.16,-2.75,58.31,58.30,148,148,1.00000,1.00000,1.00000,1.00000,3,3,1,24.78347,0.00216,1.06351,-0.0072,-0.0931,0.0965,0.0000,0.0000,0.0000,-4.16,-11.89,176.51,1,1,1,148,222,170,170,170,0,0,60.00,170,3306,0,0,0,0,0,249.88,0.00,2,2310,0.0000,0.0000,0.0000,0.0000,0.0000
2026-04-20T17:54:25.514,2.600,1,-0.02,-0.62,-0.00,-0.00,1,0.0072,0.0931,0.2534,0.0000,0.0000,0.0000,4.13,2.30,68.74,71.17,149,149,1.00000,1.00000,1.00000,1.00000,3,3,1,24.80583,0.00207,1.06491,-0.0072,-0.0931,0.0966,0.0000,0.0000,0.0000,-4.13,-11.85,176.42,1,1,1,149,222,170,170,170,0,0,60.00,170,3306,0,0,0,0,0,249.88,0.00,2,2310,0.0000,0.0000,0.0000,0.0000,0.0000
2026-04-20T17:54:25.544,2.629,1,-0.02,-0.62,-0.00,-0.00,1,0.0071,0.0931,0.2534,0.0000,0.0000,0.0000,4.08,1.74,71.28,35.23,150,150,1.00000,1.00000,1.00000,1.00000,3,3,1,24.84041,0.00202,1.06339,-0.0071,-0.0931,0.0966,0.0000,0.0000,0.0000,-4.08,-11.57,176.33,1,1,1,150,222,170,170,170,0,0,60.00,170,3306,0,0,0,0,0,249.88,0.00,2,2310,0.0000,0.0000,0.0000,0.0000,0.0000
2026-04-20T17:54:25.579,2.665,1,-0.02,-0.62,-0.00,-0.00,1,0.0070,0.0931,0.2532,0.0000,0.0000,0.0000,4.07,0.28,34.83,57.22,151,151,1.00000,1.00000,1.00000,1.00000,3,3,1,24.81105,0.00200,1.06369,-0.0070,-0.0931,0.0968,0.0000,0.0000,0.0000,-4.07,-11.26,176.31,1,1,1,151,222,170,170,170,0,0,60.00,170,3306,0,0,0,0,0,249.88,0.00,2,2310,0.0000,0.0000,0.0000,0.0000,0.0000
2026-04-20T17:54:25.601,2.686,1,-0.02,-0.62,-0.00,-0.00,1,0.0072,0.0930,0.2533,0.0000,0.0000,0.0000,4.04,1.46,27.57,27.38,152,152,1.00000,1.00000,1.00000,1.00000,3,3,1,24.81379,0.00212,1.06803,-0.0072,-0.0930,0.0967,0.0000,0.0000,0.0000,-4.04,-11.48,176.20,1,1,1,152,221,170,170,170,0,0,60.00,170,3306,0,0,0,0,0,249.88,0.00,2,2310,0.0000,0.0000,0.0000,0.0000,0.0000
2026-04-20T17:54:25.616,2.702,1,-0.02,-0.62,-0.00,-0.00,1,0.0070,0.0931,0.2532,0.0000,0.0000,0.0000,4.08,-2.38,48.60,59.90,153,153,1.00000,1.00000,1.00000,1.00000,3,3,1,24.81929,0.00198,1.06454,-0.0070,-0.0931,0.0968,0.0000,0.0000,0.0000,-4.08,-11.27,176.26,1,1,1,153,222,170,170,170,0,0,60.00,170,3306,0,0,0,0,0,249.88,0.00,2,2310,0.0000,0.0000,0.0000,0.0000,0.0000
2026-04-20T17:54:25.631,2.717,1,-0.02,-0.62,-0.00,-0.00,1,0.0070,0.0932,0.2532,0.0000,0.0000,0.0000,4.08,0.00,63.23,63.65,154,154,1.00000,1.00000,1.00000,1.00000,3,3,1,24.77820,0.00200,1.06349,-0.0070,-0.0932,0.0968,0.0000,0.0000,0.0000,-4.08,-11.32,176.38,1,1,1,154,222,170,170,170,0,0,60.00,170,3306,0,0,0,0,0,249.88,0.00,2,2310,0.0000,0.0000,0.0000,0.0000,0.0000
2026-04-20T17:54:25.648,2.734,1,-0.02,-0.62,-0.00,-0.00,1,0.0072,0.0931,0.2533,0.0000,0.0000,0.0000,4.10,-1.09,67.62,64.95,155,155,1.00000,1.00000,1.00000,1.00000,3,3,1,24.77631,0.00212,1.06453,-0.0072,-0.0931,0.0967,0.0000,0.0000,0.0000,-4.10,-11.61,176.41,1,1,1,155,221,170,170,170,0,0,60.00,170,3306,0,0,0,0,0,249.88,0.00,2,2310,0.0000,0.0000,0.0000,0.0000,0.0000
2026-04-20T17:54:25.673,2.759,1,-0.02,-0.62,-0.00,-0.00,1,0.0072,0.0932,0.2533,0.0000,0.0000,0.0000,4.14,-1.84,55.20,49.71,156,156,1.00000,1.00000,1.00000,1.00000,3,3,1,24.80013,0.00213,1.06416,-0.0072,-0.0932,0.0967,0.0000,0.0000,0.0000,-4.14,-11.68,176.41,1,1,1,156,222,170,170,170,0,0,60.00,170,3306,0,0,0,0,0,249.88,0.00,2,2310,0.0000,0.0000,0.0000,0.0000,0.0000
2026-04-20T17:54:25.698,2.784,1,-0.02,-0.62,-0.00,-0.00,1,0.0072,0.0932,0.2533,0.0000,0.0000,0.0000,4.12,0.73,39.60,38.06,157,157,1.00000,1.00000,1.00000,1.00000,3,3,1,24.84954,0.00216,1.06335,-0.0072,-0.0932,0.0967,0.0000,0.0000,0.0000,-4.12,-11.72,176.31,1,1,1,157,222,170,170,170,0,0,60.00,170,3306,0,0,0,0,0,249.88,0.00,2,2310,0.0000,0.0000,0.0000,0.0000,0.0000
2026-04-20T17:54:25.719,2.804,1,-0.02,-0.62,-0.00,-0.00,1,0.0072,0.0932,0.2532,0.0000,0.0000,0.0000,4.16,-1.95,42.69,44.60,158,158,1.00000,1.00000,1.00000,1.00000,3,3,1,24.82300,0.00208,1.06356,-0.0072,-0.0932,0.0968,0.0000,0.0000,0.0000,-4.16,-11.76,176.42,1,1,1,158,222,170,170,170,0,0,60.00,170,3306,0,0,0,0,0,249.88,0.00,2,2310,0.0000,0.0000,0.0000,0.0000,0.0000
2026-04-20T17:54:25.742,2.827,1,-0.02,-0.62,-0.00,-0.00,1,0.0073,0.0931,0.2535,0.0000,0.0000,0.0000,4.08,3.24,48.52,45.25,159,159,1.00000,1.00000,1.00000,1.00000,3,3,1,24.85568,0.00222,1.06514,-0.0073,-0.0931,0.0965,0.0000,0.0000,0.0000,-4.08,-12.05,176.32,1,1,1,159,222,170,170,170,0,0,60.00,170,3306,0,0,0,0,0,249.88,0.00,2,2310,0.0000,0.0000,0.0000,0.0000,0.0000
2026-04-20T17:54:25.761,2.847,1,-0.02,-0.62,-0.00,-0.00,1,0.0072,0.0933,0.2532,0.0000,0.0000,0.0000,4.11,-1.62,41.51,44.23,160,160,1.00000,1.00000,1.00000,1.00000,3,3,1,24.84611,0.00204,1.06292,-0.0072,-0.0933,0.0968,0.0000,0.0000,0.0000,-4.11,-11.94,176.41,1,1,1,160,222,170,170,170,0,0,60.00,170,3306,0,0,0,0,0,249.88,0.00,2,2310,0.0000,0.0000,0.0000,0.0000,0.0000
2026-04-20T17:54:25.784,2.869,1,-0.02,-0.62,-0.00,-0.00,1,0.0070,0.0932,0.2533,0.0000,0.0000,0.0000,4.12,-0.47,51.15,52.48,161,161,1.00000,1.00000,1.00000,1.00000,3,3,1,24.85890,0.00208,1.06300,-0.0070,-0.0932,0.0967,0.0000,0.0000,0.0000,-4.12,-11.62,176.44,1,1,1,161,222,170,170,170,0,0,60.00,170,3306,0,0,0,0,0,249.88,0.00,2,2310,0.0000,0.0000,0.0000,0.0000,0.0000
2026-04-20T17:54:25.803,2.888,1,-0.02,-0.62,-0.00,-0.00,1,0.0070,0.0933,0.2532,0.0000,0.0000,0.0000,4.09,1.49,44.62,44.65,162,162,1.00000,1.00000,1.00000,1.00000,3,3,1,24.79366,0.00194,1.06388,-0.0070,-0.0933,0.0968,0.0000,0.0000,0.0000,-4.09,-11.43,176.46,1,1,1,162,222,170,170,170,0,0,60.00,170,3306,0,0,0,0,0,249.88,0.00,2,2310,0.0000,0.0000,0.0000,0.0000,0.0000
2026-04-20T17:54:25.817,2.903,1,-0.02,-0.62,-0.00,-0.00,1,0.0070,0.0933,0.2530,0.0000,0.0000,0.0000,4.09,0.00,55.36,55.34,163,163,1.00000,1.00000,1.00000,1.00000,3,3,1,24.84034,0.00195,1.06363,-0.0070,-0.0933,0.0970,0.0000,0.0000,0.0000,-4.09,-11.29,176.50,1,1,1,163,221,170,170,170,0,0,60.00,170,3306,0,0,0,0,0,249.88,0.00,2,2310,0.0000,0.0000,0.0000,0.0000,0.0000
