iso_time,elapsed_s,imu_ready,imu_pitch_deg,imu_roll_deg,imu_pitch_rate_deg_s,imu_roll_rate_deg_s,mocap_valid,mocap_x_error_m,mocap_y_error_m,mocap_z_error_m,mocap_vx_m_s,mocap_vy_m_s,mocap_vz_m_s,mocap_yaw_error_deg,mocap_yaw_rate_deg_s,backend_loop_hz,tracking_loop_hz,frames_processed,valid_pose_frames,pose_success_rate,full_marker_detection_rate,cam1_full_detection_rate,cam2_full_detection_rate,cam1_leds,cam2_leds,spatial_data_valid,mapping_error_px,model_fit_error_m,scale_factor,position_x_m,position_y_m,position_z_m,velocity_x_m_s,velocity_y_m_s,velocity_z_m_s,yaw_deg,pitch_deg,roll_deg,serial_connected,serial_send_enabled,serial_send_ok,serial_payload_seq,serial_payload_size_bytes,bridge_serial_frames_rx,bridge_espnow_tx_attempts,bridge_espnow_tx_ok,bridge_espnow_tx_fail,bridge_oversize_drops,bridge_tx_rate_hz,bridge_last_tx_seq,bridge_last_tx_latency_us,controller_rx_packets,controller_rx_missing_packets,controller_rx_duplicate_packets,controller_rx_out_of_order_packets,controller_last_rx_seq,controller_loop_hz,controller_control_hz,controller_command_age_ms,controller_apply_latency_us,controller_motor_imbalance,motor_1_output,motor_2_output,motor_3_output,motor_4_output
2026-04-20T18:11:34.318,0.015,1,0.02,-0.74,0.18,-0.11,1,-0.0225,0.1225,0.2994,0.0000,0.0000,0.0000,-14.90,0.57,54.28,62.07,1,1,1.00000,1.00000,1.00000,1.00000,3,3,1,25.37048,0.00214,1.07734,0.0225,-0.1225,0.0506,0.0000,0.0000,0.0000,14.90,-9.83,-7.64,1,1,1,1,216,0,0,0,0,0,0.00,0,2792,0,0,0,0,0,250.13,0.00,5,3888,0.0000,0.0000,0.0000,0.0000,0.0000
2026-04-20T18:11:34.333,0.030,1,0.02,-0.74,0.18,-0.11,1,-0.0221,0.1226,0.2990,0.0000,0.0000,0.0000,-14.87,-2.23,73.67,61.60,2,2,1.00000,1.00000,1.00000,1.00000,3,3,1,25.38062,0.00200,1.07576,0.0221,-0.1226,0.0510,0.0000,0.0000,0.0000,14.87,-9.30,-7.56,1,1,1,2,216,0,0,0,0,0,0.00,0,2792,0,0,0,0,0,250.13,0.00,5,3888,0.0000,0.0000,0.0000,0.0000,0.0000
2026-04-20T18:11:34.353,0.050,1,0.02,-0.74,0.18,-0.11,1,-0.0223,0.1226,0.2992,0.0000,0.0000,0.0000,-14.83,-1.95,66.66,57.01,3,3,1.00000,1.00000,1.00000,1.00000,3,3,1,25.39169,0.00217,1.07643,0.0223,-0.1226,0.0508,0.0000,0.0000,0.0000,14.83,-9.42,-7.65,1,1,1,3,217,115,115,115,0,0,60.00,0,3121,0,0,0,0,0,250.13,0.00,5,3888,0.0000,0.0000,0.0000,0.0000,0.0000
2026-04-20T18:11:34.366,0.063,1,0.02,-0.74,0.18,-0.11,1,-0.0222,0.1226,0.2992,0.0000,0.0000,0.0000,-14.86,2.08,50.12,61.37,4,4,1.00000,1.00000,1.00000,1.00000,3,3,1,25.37017,0.00208,1.07920,0.0222,-0.1226,0.0508,0.0000,0.0000,0.0000,14.86,-9.36,-7.70,1,1,1,4,216,115,115,115,0,0,60.00,0,3121,0,0,0,0,0,250.13,0.00,5,3888,0.0000,0.0000,0.0000,0.0000,0.0000
2026-04-20T18:11:34.386,0.083,1,0.02,-0.74,0.18,-0.11,1,-0.0220,0.1225,0.2992,0.0000,0.0000,0.0000,-14.87,0.55,70.34,60.73,5,5,1.00000,1.00000,1.00000,1.00000,3,3,1,25.39490,0.00197,1.07671,0.0220,-0.1225,0.0508,0.0000,0.0000,0.0000,14.87,-9.00,-7.55,1,1,1,5,214,115,115,115,0,0,60.00,0,3121,0,0,0,0,0,250.13,0.00,5,3888,0.0000,0.0000,0.0000,0.0000,0.0000
2026-04-20T18:11:34.401,0.098,1,0.02,-0.74,0.18,-0.11,1,-0.0223,0.1225,0.2992,0.0000,0.0000,0.0000,-14.84,-1.87,55.76,57.17,6,6,1.00000,1.00000,1.00000,1.00000,3,3,1,25.35549,0.00202,1.07577,0.0223,-0.1225,0.0508,0.0000,0.0000,0.0000,14.84,-9.32,-7.43,1,1,1,6,217,115,115,115,0,0,60.00,0,3121,0,0,0,0,0,250.13,0.00,5,3888,0.0000,0.0000,0.0000,0.0000,0.0000
2026-04-20T18:11:34.418,0.115,0,0.00,0.00,0.00,0.00,1,-0.0222,0.1227,0.2991,0.0000,0.0000,0.0000,-14.82,-1.20,63.20,62.51,7,7,1.00000,1.00000,1.00000,1.00000,3,3,1,25.39706,0.00216,1.07945,0.0222,-0.1227,0.0509,0.0000,0.0000,0.0000,14.82,-9.35,-7.57,1,1,1,7,217,115,115,115,0,0,60.00,0,3121,0,0,0,0,0,250.13,0.00,5,3888,0.0000,0.0000,0.0000,0.0000,0.0000
2026-04-20T18:11:34.434,0.131,0,0.00,0.00,0.00,0.00,1,-0.0222,0.1227,0.2992,0.0000,0.0000,0.0000,-14.85,1.87,59.18,60.10,8,8,1.00000,1.00000,1.00000,1.00000,3,3,1,25.39578,0.00206,1.07983,0.0222,-0.1227,0.0508,0.0000,0.0000,0.0000,14.85,-9.25,-7.65,1,1,1,8,217,115,115,115,0,0,60.00,0,3121,0,0,0,0,0,250.13,0.00,5,3888,0.0000,0.0000,0.0000,0.0000,0.0000
2026-04-20T18:11:34.451,0.148,0,0.00,0.00,0.00,0.00,1,-0.0223,0.1226,0.2992,0.0000,0.0000,0.0000,-14.88,1.78,61.22,61.44,9,9,1.00000,1.00000,1.00000,1.00000,3,3,1,25.38514,0.00208,1.07802,0.0223,-0.1226,0.0508,0.0000,0.0000,0.0000,14.88,-9.45,-7.57,1,1,1,9,217,115,115,115,0,0,60.00,0,3121,0,0,0,0,0,250.13,0.00,5,3888,0.0000,0.0000,0.0000,0.0000,0.0000
2026-04-20T18:11:34.473,0.170,0,0.00,0.00,0.00,0.00,1,-0.0221,0.1225,0.2991,0.0000,0.0000,0.0000,-14.84,-1.80,59.90,41.21,10,10,1.00000,1.00000,1.00000,1.00000,3,3,1,25.40687,0.00199,1.07691,0.0221,-0.1225,0.0509,0.0000,0.0000,0.0000,14.84,-9.14,-7.52,1,1,1,10,217,115,115,115,0,0,60.00,0,3121,0,0,0,0,0,250.13,0.00,5,3888,0.0000,0.0000,0.0000,0.0000,0.0000
2026-04-20T18:11:34.491,0.188,1,-0.12,-1.01,-0.84,0.99,1,-0.0222,0.1226,0.2992,0.0000,0.0000,0.0000,-14.85,0.59,45.30,73.59,11,11,1.00000,1.00000,1.00000,1.00000,3,3,1,25.34926,0.00204,1.07815,0.0222,-0.1226,0.0508,0.0000,0.0000,0.0000,14.85,-9.12,-7.52,1,1,1,11,217,115,115,115,0,0,60.00,0,3121,0,0,0,0,0,250.13,0.00,5,3888,0.0000,0.0000,0.0000,0.0000,0.0000
2026-04-20T18:11:34.506,0.203,1,-0.12,-1.01,-0.84,0.99,1,-0.0219,0.1225,0.2991,0.0000,0.0000,0.0000,-14.91,3.93,57.59,60.56,12,12,1.00000,1.00000,1.00000,1.00000,3,3,1,25.34823,0.00195,1.07630,0.0219,-0.1225,0.0509,0.0000,0.0000,0.0000,14.91,-8.76,-7.43,1,1,1,12,217,115,115,115,0,0,60.00,0,3121,0,0,0,0,0,250.13,0.00,5,3888,0.0000,0.0000,0.0000,0.0000,0.0000
2026-04-20T18:11:34.521,0.218,1,-0.12,-1.01,-0.84,0.99,1,-0.0223,0.1226,0.2991,0.0000,0.0000,0.0000,-15.11,13.63,66.94,60.98,13,13,1.00000,1.00000,1.00000,1.00000,3,3,1,25.44108,0.00209,1.07788,0.0223,-0.1226,0.0509,0.0000,0.0000,0.0000,15.11,-9.28,-7.60,1,1,1,13,216,115,115,115,0,0,60.00,0,3121,0,0,0,0,0,250.13,0.00,5,3888,0.0000,0.0000,0.0000,0.0000,0.0000
2026-04-20T18:11:34.536,0.233,1,-0.12,-1.01,-0.84,0.99,1,-0.0224,0.1229,0.2992,0.0000,0.0000,0.0000,-15.41,17.77,67.05,61.85,14,14,1.00000,1.00000,1.00000,1.00000,3,3,1,25.41631,0.00209,1.07974,0.0224,-0.1229,0.0508,0.0000,0.0000,0.0000,15.41,-9.55,-7.87,1,1,1,14,217,115,115,115,0,0,60.00,0,3121,0,0,0,0,0,250.13,0.00,5,3888,0.0000,0.0000,0.0000,0.0000,0.0000
2026-04-20T18:11:34.555,0.252,1,-0.12,-1.01,-0.84,0.99,1,-0.0225,0.1229,0.2992,0.0000,0.0000,0.0000,-15.70,17.02,62.39,57.45,15,15,1.00000,1.00000,1.00000,1.00000,3,3,1,25.43035,0.00206,1.07864,0.0225,-0.1229,0.0508,0.0000,0.0000,0.0000,15.70,-9.85,-7.91,1,1,1,15,216,115,115,115,0,0,60.00,0,3121,0,0,0,0,0,250.13,0.00,5,3888,0.0000,0.0000,0.0000,0.0000,0.0000
2026-04-20T18:11:34.570,0.267,1,-0.12,-1.01,-0.84,0.99,1,-0.0225,0.1230,0.2993,0.0000,0.0000,0.0000,-15.87,10.72,54.14,63.12,16,16,1.00000,1.00000,1.00000,1.00000,3,3,1,25.42825,0.00204,1.07924,0.0225,-0.1230,0.0507,0.0000,0.0000,0.0000,15.87,-9.72,-7.88,1,1,1,16,217,115,115,115,0,0,60.00,0,3121,0,0,0,0,0,250.13,0.00,5,3888,0.0000,0.0000,0.0000,0.0000,0.0000
2026-04-20T18:11:34.589,0.286,1,-0.12,-1.01,-0.84,0.99,1,-0.0225,0.1232,0.2990,0.0000,0.0000,0.0000,-15.90,1.60,66.78,61.19,17,17,1.00000,1.00000,1.00000,1.00000,3,3,1,25.46307,0.00204,1.07842,0.0225,-0.1232,0.0510,0.0000,0.0000,0.0000,15.90,-9.47,-7.81,1,1,1,17,216,115,115,115,0,0,60.00,0,3121,0,0,0,0,0,250.13,0.00,5,3888,0.0000,0.0000,0.0000,0.0000,0.0000
2026-04-20T18:11:34.606,0.303,1,-0.12,-1.01,-0.84,0.99,1,-0.0226,0.1233,0.2993,0.0000,0.0000,0.0000,-15.85,-2.98,52.86,56.16,18,18,1.00000,1.00000,1.00000,1.00000,3,3,1,25.41345,0.00208,1.08036,0.0226,-0.1233,0.0507,0.0000,0.0000,0.0000,15.85,-9.41,-7.98,1,1,1,18,217,115,115,115,0,0,60.00,0,3121,0,0,0,0,0,250.13,0.00,5,3888,0.0000,0.0000,0.0000,0.0000,0.0000
2026-04-20T18:11:34.622,0.319,1,-0.12,-1.01,-0.84,0.99,1,-0.0229,0.1235,0.2992,0.0000,0.0000,0.0000,-15.85,0.00,61.38,57.72,19,19,1.00000,1.00000,1.00000,1.00000,3,3,1,25.42110,0.00210,1.08182,0.0229,-0.1235,0.0508,0.0000,0.0000,0.0000,15.85,-9.70,-8.00,1,1,1,19,213,115,115,115,0,0,60.00,0,3121,0,0,0,0,0,250.13,0.00,5,3888,0.0000,0.0000,0.0000,0.0000,0.0000
2026-04-20T18:11:34.638,0.335,1,-0.12,-1.01,-0.84,0.99,1,-0.0231,0.1236,0.2994,0.0000,0.0000,0.0000,-15.92,4.70,60.23,66.26,20,20,1.00000,1.00000,1.00000,1.00000,3,3,1,25.42704,0.00221,1.08305,0.0231,-0.1236,0.0506,0.0000,0.0000,0.0000,15.92,-9.94,-8.16,1,1,1,20,217,115,115,115,0,0,60.00,0,3121,0,0,0,0,0,250.13,0.00,5,3888,0.0000,0.0000,0.0000,0.0000,0.0000
2026-04-20T18:11:34.655,0.352,1,0.33,-1.28,15.54,3.37,1,-0.0232,0.1237,0.2992,0.0000,0.0000,0.0000,-15.88,-2.43,61.02,55.98,21,21,1.00000,1.00000,1.00000,1.00000,3,3,1,25.48093,0.00225,1.08111,0.0232,-0.1237,0.0508,0.0000,0.0000,0.0000,15.88,-10.18,-8.22,1,1,1,21,218,115,115,115,0,0,60.00,0,3121,0,0,0,0,0,250.13,0.00,5,3888,0.0000,0.0000,0.0000,0.0000,0.0000
2026-04-20T18:11:34.668,0.365,1,0.33,-1.28,15.54,3.37,1,-0.0233,0.1237,0.2993,0.0000,0.0000,0.0000,-15.84,-2.85,60.97,64.62,22,22,1.00000,1.00000,1.00000,1.00000,3,3,1,25.45728,0.00226,1.08155,0.0233,-0.1237,0.0507,0.0000,0.0000,0.0000,15.84,-10.42,-8.13,1,1,1,22,218,115,115,115,0,0,60.00,0,3121,0,0,0,0,0,250.13,0.00,5,3888,0.0000,0.0000,0.0000,0.0000,0.0000
2026-04-20T18:11:34.689,0.386,1,0.33,-1.28,15.54,3.37,1,-0.0232,0.1239,0.2992,0.0000,0.0000,0.0000,-15.77,-3.41,73.69,54.84,23,23,1.00000,1.00000,1.00000,1.00000,3,3,1,25.50240,0.00223,1.07846,0.0232,-0.1239,0.0508,0.0000,0.0000,0.0000,15.77,-10.24,-8.03,1,1,1,23,218,115,115,115,0,0,60.00,0,3121,0,0,0,0,0,250.13,0.00,5,3888,0.0000,0.0000,0.0000,0.0000,0.0000
2026-04-20T18:11:34.704,0.401,1,0.36,-1.84,12.81,-5.26,1,-0.0232,0.1241,0.2992,0.0000,0.0000,0.0000,-15.81,2.76,48.83,65.36,24,24,1.00000,1.00000,1.00000,1.00000,3,3,1,25.46671,0.00234,1.07998,0.0232,-0.1241,0.0508,0.0000,0.0000,0.0000,15.81,-10.27,-8.04,1,1,1,24,218,115,115,115,0,0,60.00,0,3121,0,0,0,0,0,0.00,250.00,3,3505,0.1779,0.5960,0.5730,0.7200,0.5420
2026-04-20T18:11:34.720,0.417,1,0.36,-1.84,12.81,-5.26,1,-0.0227,0.1242,0.2990,0.0000,0.0000,0.0000,-15.85,2.42,64.20,56.56,25,25,1.00000,1.00000,1.00000,1.00000,3,3,1,25.53747,0.00216,1.07740,0.0227,-0.1242,0.0510,0.0000,0.0000,0.0000,15.85,-9.73,-7.95,1,1,1,25,217,115,115,115,0,0,60.00,0,3121,0,0,0,0,0,0.00,250.00,3,3505,0.1779,0.5960,0.5730,0.7200,0.5420
2026-04-20T18:11:34.735,0.432,1,0.36,-1.84,12.81,-5.26,1,-0.0227,0.1243,0.2992,0.0000,0.0000,0.0000,-15.78,-4.40,64.73,64.44,26,26,1.00000,1.00000,1.00000,1.00000,3,3,1,25.51844,0.00228,1.07901,0.0227,-0.1243,0.0508,0.0000,0.0000,0.0000,15.78,-9.84,-7.81,1,1,1,26,217,115,115,115,0,0,60.00,0,3121,0,0,0,0,0,0.00,250.00,3,3505,0.1779,0.5960,0.5730,0.7200,0.5420
2026-04-20T18:11:34.755,0.452,1,0.36,-1.74,-7.57,-6.22,1,-0.0225,0.1246,0.2991,0.0000,0.0000,0.0000,-15.74,-2.16,62.66,58.94,27,27,1.00000,1.00000,1.00000,1.00000,3,3,1,25.54254,0.00218,1.07720,0.0225,-0.1246,0.0509,0.0000,0.0000,0.0000,15.74,-9.90,-7.71,1,1,1,27,216,115,115,115,0,0,60.00,0,3121,0,0,0,0,0,0.00,250.00,3,3505,0.1779,0.5960,0.5730,0.7200,0.5420
2026-04-20T18:11:34.769,0.466,1,0.36,-1.74,-7.57,-6.22,1,-0.0222,0.1249,0.2989,0.0000,0.0000,0.0000,-15.72,-1.34,52.81,59.95,28,28,1.00000,1.00000,1.00000,1.00000,3,3,1,25.48234,0.00209,1.07973,0.0222,-0.1249,0.0511,0.0000,0.0000,0.0000,15.72,-9.75,-7.67,1,1,1,28,217,115,115,115,0,0,60.00,0,3121,0,0,0,0,0,0.00,250.00,3,3505,0.1779,0.5960,0.5730,0.7200,0.5420
2026-04-20T18:11:34.788,0.485,1,0.36,-1.74,-7.57,-6.22,1,-0.0218,0.1254,0.2988,0.0000,-0.0133,0.0000,-15.70,-1.07,64.69,57.43,29,29,1.00000,1.00000,1.00000,1.00000,3,3,1,25.58151,0.00216,1.08095,0.0218,-0.1254,0.0512,0.0000,-0.0133,0.0000,15.70,-9.57,-7.96,1,1,1,29,221,115,115,115,0,0,60.00,0,3121,0,0,0,0,0,0.00,250.00,3,3505,0.1779,0.5960,0.5730,0.7200,0.5420
2026-04-20T18:11:34.804,0.501,1,0.36,-1.74,-7.57,-6.22,1,-0.0216,0.1254,0.2990,0.0000,-0.0104,0.0000,-15.66,-2.33,54.98,61.06,30,30,1.00000,1.00000,1.00000,1.00000,3,3,1,25.61128,0.00204,1.07498,0.0216,-0.1254,0.0510,0.0000,-0.0104,0.0000,15.66,-9.71,-7.51,1,1,1,30,221,115,115,115,0,0,60.00,0,3121,0,0,0,0,0,0.00,250.00,3,3505,0.1779,0.5960,0.5730,0.7200,0.5420
2026-04-20T18:11:34.819,0.516,1,0.36,-1.74,-7.57,-6.22,1,-0.0211,0.1258,0.2987,-0.0121,-0.0129,0.0000,-15.68,1.43,57.71,61.77,31,31,1.00000,1.00000,1.00000,1.00000,3,3,1,25.61030,0.00204,1.07513,0.0211,-0.1258,0.0513,-0.0121,-0.0129,0.0000,15.68,-9.80,-7.23,1,1,1,31,226,115,115,115,0,0,60.00,0,3121,0,0,0,0,0,0.00,250.00,3,3505,0.1779,0.5960,0.5730,0.7200,0.5420
2026-04-20T18:11:34.837,0.534,1,0.36,-1.74,-7.57,-6.22,1,-0.0208,0.1261,0.2989,-0.0130,-0.0140,0.0000,-15.66,-1.12,74.40,57.42,32,32,1.00000,1.00000,1.00000,1.00000,3,3,1,25.58614,0.00197,1.07946,0.0208,-0.1261,0.0511,-0.0130,-0.0140,0.0000,15.66,-9.80,-7.25,1,1,1,32,226,115,115,115,0,0,60.00,0,3121,0,0,0,0,0,0.00,250.00,3,3505,0.1779,0.5960,0.5730,0.7200,0.5420
2026-04-20T18:11:34.854,0.551,1,0.36,-1.74,-7.57,-6.22,1,-0.0202,0.1266,0.2986,-0.0160,-0.0158,0.0000,-15.72,3.57,54.09,63.88,33,33,1.00000,1.00000,1.00000,1.00000,3,3,1,25.65736,0.00197,1.07739,0.0202,-0.1266,0.0514,-0.0160,-0.0158,0.0000,15.72,-9.86,-7.07,1,1,1,33,226,115,115,115,0,0,60.00,0,3121,0,0,0,0,0,0.00,250.00,3,3505,0.1779,0.5960,0.5730,0.7200,0.5420
2026-04-20T18:11:34.871,0.568,1,0.36,-1.74,-7.57,-6.22,1,-0.0195,0.1272,0.2980,-0.0205,-0.0193,0.0000,-15.69,-1.76,61.59,57.11,34,34,1.00000,1.00000,1.00000,1.00000,3,3,1,25.71960,0.00183,1.07532,0.0195,-0.1272,0.0520,-0.0205,-0.0193,0.0000,15.69,-9.50,-6.88,1,1,1,34,226,115,115,115,0,0,60.00,0,3121,0,0,0,0,0,0.00,250.00,3,3505,0.1779,0.5960,0.5730,0.7200,0.5420
2026-04-20T18:11:34.886,0.583,1,0.36,-1.74,-7.57,-6.22,1,-0.0191,0.1276,0.2977,-0.0204,-0.0203,0.0108,-15.79,6.73,57.38,61.32,35,35,1.00000,1.00000,1.00000,1.00000,3,3,1,25.70772,0.00197,1.07388,0.0191,-0.1276,0.0523,-0.0204,-0.0203,0.0108,15.79,-9.86,-6.55,1,1,1,35,229,115,115,115,0,0,60.00,0,3121,0,0,0,0,0,0.00,250.00,3,3505,0.1779,0.5960,0.5730,0.7200,0.5420
2026-04-20T18:11:34.904,0.601,1,0.36,-1.74,-7.57,-6.22,1,-0.0184,0.1281,0.2970,-0.0241,-0.0213,0.0153,-15.79,0.00,74.52,62.47,36,36,1.00000,1.00000,1.00000,1.00000,3,3,1,25.69259,0.00173,1.07333,0.0184,-0.1281,0.0530,-0.0241,-0.0213,0.0153,15.79,-9.85,-6.08,1,1,1,36,231,115,115,115,0,0,60.00,0,3121,0,0,0,0,0,0.00,250.00,3,3505,0.1779,0.5960,0.5730,0.7200,0.5420
2026-04-20T18:11:34.922,0.619,1,0.36,-1.74,-7.57,-6.22,1,-0.0177,0.1288,0.2965,-0.0259,-0.0248,0.0182,-15.65,-7.37,50.25,57.65,37,37,1.00000,1.00000,1.00000,1.00000,3,3,1,25.66434,0.00192,1.07555,0.0177,-0.1288,0.0535,-0.0259,-0.0248,0.0182,15.65,-10.04,-5.71,1,1,1,37,232,115,115,115,0,0,60.00,0,3121,0,0,0,0,0,0.00,250.00,3,3505,0.1779,0.5960,0.5730,0.7200,0.5420
2026-04-20T18:11:34.940,0.637,1,0.36,-1.74,-7.57,-6.22,1,-0.0171,0.1298,0.2956,-0.0273,-0.0302,0.0230,-15.66,0.59,56.11,58.78,38,38,1.00000,1.00000,1.00000,1.00000,3,3,1,25.73975,0.00201,1.07794,0.0171,-0.1298,0.0544,-0.0273,-0.0302,0.0230,15.66,-10.33,-5.60,1,1,1,38,229,115,115,115,0,0,60.00,0,3121,0,0,0,0,0,0.00,250.00,3,3505,0.1779,0.5960,0.5730,0.7200,0.5420
2026-04-20T18:11:34.954,0.651,1,0.36,-1.74,-7.57,-6.22,1,-0.0165,0.1307,0.2947,-0.0284,-0.0344,0.0286,-15.68,1.51,54.97,60.58,39,39,1.00000,1.00000,1.00000,1.00000,3,3,1,25.79231,0.00175,1.07839,0.0165,-0.1307,0.0553,-0.0284,-0.0344,0.0286,15.68,-10.84,-5.47,1,1,1,39,232,115,115,115,0,0,60.00,0,3121,0,0,0,0,0,0.00,250.00,3,3505,0.1779,0.5960,0.5730,0.7200,0.5420
2026-04-20T18:11:34.971,0.668,1,0.36,-1.74,-7.57,-6.22,1,-0.0152,0.1322,0.2934,-0.0368,-0.0438,0.0362,-15.81,7.35,76.25,63.90,40,40,1.00000,1.00000,1.00000,1.00000,3,3,1,25.91866,0.00194,1.07994,0.0152,-0.1322,0.0566,-0.0368,-0.0438,0.0362,15.81,-10.41,-5.81,1,1,1,40,232,115,115,115,0,0,60.00,0,3121,0,0,0,0,0,0.00,250.00,3,3505,0.1779,0.5960,0.5730,0.7200,0.5420
2026-04-20T18:11:34.989,0.686,1,0.36,-1.74,-7.57,-6.22,1,-0.0143,0.1336,0.2926,-0.0375,-0.0489,0.0371,-16.01,10.90,57.64,53.97,41,41,1.00000,1.00000,1.00000,1.00000,3,3,1,25.85937,0.00205,1.07971,0.0143,-0.1336,0.0574,-0.0375,-0.0489,0.0371,16.01,-10.29,-6.39,1,1,1,41,232,115,115,115,0,0,60.00,0,3121,0,0,0,0,0,0.00,250.00,3,3505,0.1779,0.5960,0.5730,0.7200,0.5420
2026-04-20T18:11:35.003,0.700,1,0.36,-1.74,-7.57,-6.22,1,-0.0128,0.1353,0.2909,-0.0474,-0.0588,0.0483,-16.17,11.30,54.67,63.01,42,42,1.00000,1.00000,1.00000,1.00000,3,3,1,25.85466,0.00192,1.07557,0.0128,-0.1353,0.0591,-0.0474,-0.0588,0.0483,16.17,-9.23,-7.01,1,1,1,42,228,115,115,115,0,0,60.00,0,3121,0,0,0,0,0,0.00,250.00,3,3505,0.1779,0.5960,0.5730,0.7200,0.5420
2026-04-20T18:11:35.021,0.718,1,-2.11,-5.19,-57.10,-116.60,1,-0.0120,0.1375,0.2896,-0.0465,-0.0700,0.0529,-16.42,13.99,68.48,60.24,43,43,1.00000,1.00000,1.00000,1.00000,3,3,1,26.03255,0.00232,1.08273,0.0120,-0.1375,0.0604,-0.0465,-0.0700,0.0529,16.42,-9.17,-8.32,1,1,1,43,229,115,115,115,0,0,60.00,0,3121,0,0,0,0,0,0.00,250.00,3,3505,0.1779,0.5960,0.5730,0.7200,0.5420
2026-04-20T18:11:35.036,0.733,1,-2.11,-5.19,-57.10,-116.60,1,-0.0104,0.1395,0.2876,-0.0551,-0.0789,0.0644,-16.58,11.19,57.59,61.21,44,44,1.00000,1.00000,1.00000,1.00000,3,3,1,26.02756,0.00243,1.08157,0.0104,-0.1395,0.0624,-0.0551,-0.0789,0.0644,16.58,-8.26,-9.75,1,1,1,44,229,115,115,115,0,0,60.00,0,3121,0,0,0,0,0,0.00,250.00,3,3505,0.1779,0.5960,0.5730,0.7200,0.5420
2026-04-20T18:11:35.056,0.753,1,-2.11,-5.19,-57.10,-116.60,1,-0.0090,0.1416,0.2860,-0.0586,-0.0840,0.0679,-16.79,10.48,68.78,58.03,45,45,1.00000,1.00000,1.00000,1.00000,3,3,1,26.02469,0.00266,1.08804,0.0090,-0.1416,0.0640,-0.0586,-0.0840,0.0679,16.79,-7.40,-11.45,1,1,1,45,231,115,115,115,0,0,60.00,0,3121,0,0,0,0,0,0.00,250.00,3,3505,0.1779,0.5960,0.5730,0.7200,0.5420
2026-04-20T18:11:35.070,0.767,1,-2.11,-5.19,-57.10,-116.60,1,-0.0078,0.1432,0.2839,-0.0616,-0.0863,0.0781,-16.93,9.34,49.62,61.71,46,46,1.00000,1.00000,1.00000,1.00000,3,3,1,26.02360,0.00255,1.08784,0.0078,-0.1432,0.0661,-0.0616,-0.0863,0.0781,16.93,-6.67,-12.87,1,1,1,46,232,115,115,115,0,0,60.00,0,3121,0,0,0,0,0,0.00,250.00,3,3505,0.1779,0.5960,0.5730,0.7200,0.5420
2026-04-20T18:11:35.086,0.783,1,-2.11,-5.19,-57.10,-116.60,1,-0.0067,0.1442,0.2822,-0.0614,-0.0798,0.0804,-17.15,13.76,73.36,62.73,47,47,1.00000,1.00000,1.00000,1.00000,3,3,1,26.05137,0.00294,1.08858,0.0067,-0.1442,0.0678,-0.0614,-0.0798,0.0804,17.15,-6.90,-13.63,1,1,1,47,229,115,115,115,0,0,60.00,0,3121,0,0,0,0,0,0.00,250.00,3,3505,0.1779,0.5960,0.5730,0.7200,0.5420
2026-04-20T18:11:35.104,0.801,1,-2.11,-5.19,-57.10,-116.60,1,-0.0052,0.1447,0.2806,-0.0649,-0.0691,0.0817,-17.28,7.59,61.06,59.19,48,48,1.00000,1.00000,1.00000,1.00000,3,3,1,25.92276,0.00267,1.08741,0.0052,-0.1447,0.0694,-0.0649,-0.0691,0.0817,17.28,-6.68,-13.61,1,1,1,48,232,115,115,115,0,0,60.00,0,3121,0,0,0,0,0,0.00,250.00,3,3505,0.1779,0.5960,0.5730,0.7200,0.5420
2026-04-20T18:11:35.121,0.818,1,-2.11,-5.19,-57.10,-116.60,1,-0.0044,0.1447,0.2786,-0.0609,-0.0553,0.0860,-17.49,12.09,55.87,57.33,49,49,1.00000,1.00000,1.00000,1.00000,3,3,1,25.92665,0.00255,1.08832,0.0044,-0.1447,0.0714,-0.0609,-0.0553,0.0860,17.49,-7.90,-12.57,1,1,1,49,231,115,115,115,0,0,60.00,0,3121,0,0,0,0,0,0.00,250.00,3,3505,0.1779,0.5960,0.5730,0.7200,0.5420
2026-04-20T18:11:35.136,0.833,1,-2.11,-5.19,-57.10,-116.60,1,-0.0033,0.1438,0.2767,-0.0627,-0.0358,0.0913,-17.64,10.46,56.68,63.82,50,50,1.00000,1.00000,1.00000,1.00000,3,3,1,25.83879,0.00217,1.08767,0.0033,-0.1438,0.0733,-0.0627,-0.0358,0.0913,17.64,-9.29,-10.59,1,1,1,50,232,115,115,115,0,0,60.00,0,3121,0,0,0,0,0,0.00,250.00,3,3505,0.1779,0.5960,0.5730,0.7200,0.5420
2026-04-20T18:11:35.151,0.848,1,-2.11,-5.19,-57.10,-116.60,1,-0.0023,0.1426,0.2746,-0.0624,-0.0180,0.0983,-17.62,-1.28,68.55,58.97,51,51,1.00000,1.00000,1.00000,1.00000,3,3,1,25.72626,0.00161,1.08104,0.0023,-0.1426,0.0754,-0.0624,-0.0180,0.0983,17.62,-10.99,-7.65,1,1,1,51,232,115,115,115,0,0,60.00,0,3121,0,0,0,0,0,0.00,250.00,3,3505,0.1779,0.5960,0.5730,0.7200,0.5420
2026-04-20T18:11:35.171,0.868,1,-2.11,-5.19,-57.10,-116.60,1,-0.0011,0.1415,0.2724,-0.0616,0.0000,0.1002,-17.49,-6.52,66.00,59.02,52,52,1.00000,1.00000,1.00000,1.00000,3,3,1,25.73141,0.00137,1.07590,0.0011,-0.1415,0.0776,-0.0616,0.0000,0.1002,17.49,-13.07,-4.10,1,1,1,52,220,115,115,115,0,0,60.00,0,3121,0,0,0,0,0,0.00,250.00,3,3505,0.1779,0.5960,0.5730,0.7200,0.5420
2026-04-20T18:11:35.185,0.882,1,-2.11,-5.19,-57.10,-116.60,1,0.0000,0.1408,0.2702,-0.0634,0.0000,0.1061,-17.41,-5.16,49.85,58.74,53,53,1.00000,1.00000,1.00000,1.00000,3,3,1,25.75996,0.00114,1.07440,0.0000,-0.1408,0.0798,-0.0634,0.0000,0.1061,17.41,-15.16,-1.03,1,1,1,53,222,115,115,115,0,0,60.00,0,3121,0,0,0,0,0,0.00,250.00,3,3505,0.1779,0.5960,0.5730,0.7200,0.5420
2026-04-20T18:11:35.202,0.899,1,-2.11,-5.19,-57.10,-116.60,1,0.0015,0.1408,0.2678,-0.0685,0.0000,0.1122,-17.37,-2.45,69.82,62.14,54,54,1.00000,1.00000,1.00000,1.00000,3,3,1,25.84630,0.00112,1.07123,-0.0015,-0.1408,0.0822,-0.0685,0.0000,0.1122,17.37,-16.87,1.33,1,1,1,54,227,115,115,115,0,0,60.00,0,3121,0,0,0,0,0,0.00,250.00,3,3505,0.1779,0.5960,0.5730,0.7200,0.5420
2026-04-20T18:11:35.221,0.918,1,-2.11,-5.19,-57.10,-116.60,1,0.0030,0.1417,0.2654,-0.0711,-0.0140,0.1154,-17.53,8.84,58.35,57.25,55,55,1.00000,1.00000,1.00000,1.00000,3,3,1,25.96917,0.00119,1.07355,-0.0030,-0.1417,0.0846,-0.0711,-0.0140,0.1154,17.53,-18.56,2.55,1,1,1,55,232,115,115,115,0,0,60.00,0,3121,0,0,0,0,0,0.00,250.00,3,3505,0.1779,0.5960,0.5730,0.7200,0.5420
2026-04-20T18:11:35.238,0.935,1,7.66,7.68,-17.22,-121.48,1,0.0050,0.1439,0.2631,-0.0799,-0.0374,0.1186,-17.98,27.78,52.35,62.78,56,56,1.00000,1.00000,1.00000,1.00000,3,3,1,26.13676,0.00121,1.07701,-0.0050,-0.1439,0.0869,-0.0799,-0.0374,0.1186,17.98,-19.34,2.29,1,1,1,56,231,115,115,115,0,0,60.00,0,3121,0,0,0,0,0,0.00,250.00,3,3505,0.1779,0.5960,0.5730,0.7200,0.5420
2026-04-20T18:11:35.252,0.949,1,7.66,7.68,-17.22,-121.48,1,0.0079,0.1472,0.2610,-0.0998,-0.0691,0.1206,-18.58,39.55,61.76,58.68,57,57,1.00000,1.00000,1.00000,1.00000,3,3,1,26.31699,0.00135,1.08292,-0.0079,-0.1472,0.0890,-0.0998,-0.0691,0.1206,18.58,-18.71,1.27,1,1,1,57,230,115,115,115,0,0,60.00,0,3121,0,0,0,0,0,0.00,250.00,3,3505,0.1779,0.5960,0.5730,0.7200,0.5420
2026-04-20T18:11:35.270,0.967,1,7.66,7.68,-17.22,-121.48,1,0.0104,0.1508,0.2591,-0.1067,-0.0945,0.1178,-19.22,35.95,70.58,61.89,58,58,1.00000,1.00000,1.00000,1.00000,3,3,1,26.53461,0.00157,1.08939,-0.0104,-0.1508,0.0909,-0.1067,-0.0945,0.1178,19.22,-18.65,-0.57,1,1,1,58,232,115,115,115,0,0,60.00,0,3121,0,0,0,0,0,0.00,250.00,3,3505,0.1779,0.5960,0.5730,0.7200,0.5420
2026-04-20T18:11:35.287,0.984,1,7.66,7.68,-17.22,-121.48,1,0.0137,0.1554,0.2572,-0.1229,-0.1269,0.1174,-19.83,35.74,56.10,58.88,59,59,1.00000,1.00000,1.00000,1.00000,3,3,1,26.77653,0.00168,1.09599,-0.0137,-0.1554,0.0928,-0.1229,-0.1269,0.1174,19.83,-18.03,-2.90,1,1,1,59,232,115,115,115,0,0,60.00,0,3121,0,0,0,0,0,0.00,250.00,3,3505,0.1779,0.5960,0.5730,0.7200,0.5420
2026-04-20T18:11:35.302,0.999,1,7.66,7.68,-17.22,-121.48,1,0.0174,0.1604,0.2556,-0.1415,-0.1573,0.1148,-20.29,31.41,56.89,60.89,60,60,1.00000,1.00000,1.00000,1.00000,3,3,1,27.01997,0.00191,1.10028,-0.0174,-0.1604,0.0944,-0.1415,-0.1573,0.1148,20.29,-17.16,-5.21,1,1,1,60,232,115,115,115,0,0,60.00,0,3121,0,0,0,0,0,0.00,250.00,3,3505,0.1779,0.5960,0.5730,0.7200,0.5420
2026-04-20T18:11:35.322,1.019,1,7.66,7.68,-17.22,-121.48,1,0.0212,0.1659,0.2535,-0.1519,-0.1802,0.1144,-20.81,26.20,70.81,57.10,61,61,1.00000,1.00000,1.00000,1.00000,3,3,1,27.31973,0.00222,1.10615,-0.0212,-0.1659,0.0965,-0.1519,-0.1802,0.1144,20.81,-16.76,-7.50,1,1,1,61,231,115,115,115,0,0,60.00,0,3121,0,0,0,0,0,0.00,250.00,3,3505,0.1779,0.5960,0.5730,0.7200,0.5420
2026-04-20T18:11:35.339,1.036,1,3.23,-2.16,-59.94,-169.03,1,0.0258,0.1714,0.2515,-0.1713,-0.2008,0.1147,-21.19,21.44,50.38,62.70,62,62,1.00000,1.00000,1.00000,1.00000,3,3,1,27.54791,0.00209,1.10939,-0.0258,-0.1714,0.0985,-0.1713,-0.2008,0.1147,21.19,-16.08,-9.07,1,1,1,62,233,115,115,115,0,0,60.00,0,3121,0,0,0,0,0,0.00,250.00,3,3505,0.1779,0.5960,0.5730,0.7200,0.5420
2026-04-20T18:11:35.353,1.050,1,3.23,-2.16,-59.94,-169.03,1,0.0310,0.1768,0.2502,-0.1975,-0.2218,0.1103,-21.42,16.92,56.16,57.77,63,63,1.00000,1.00000,1.00000,1.00000,3,3,1,27.83836,0.00204,1.11291,-0.0310,-0.1768,0.0998,-0.1975,-0.2218,0.1103,21.42,-15.18,-9.99,1,1,1,63,230,175,175,175,0,0,60.00,0,3230,0,0,0,0,0,0.00,250.00,3,3505,0.1779,0.5960,0.5730,0.7200,0.5420
2026-04-20T18:11:35.369,1.066,1,3.23,-2.16,-59.94,-169.03,1,0.0365,0.1825,0.2486,-0.2191,-0.2395,0.1092,-21.69,15.91,69.29,62.22,64,64,1.00000,1.00000,1.00000,1.00000,3,3,1,28.09100,0.00220,1.11397,-0.0365,-0.1825,0.1014,-0.2191,-0.2395,0.1092,21.69,-14.42,-10.67,1,1,1,64,234,175,175,175,0,0,60.00,0,3230,0,0,0,0,0,0.00,250.00,3,3505,0.1779,0.5960,0.5730,0.7200,0.5420
2026-04-20T18:11:35.388,1.085,1,3.23,-2.16,-59.94,-169.03,1,0.0424,0.1881,0.2470,-0.2352,-0.2463,0.1053,-21.86,9.62,62.29,61.08,65,65,1.00000,1.00000,1.00000,1.00000,3,3,1,28.40607,0.00193,1.11822,-0.0424,-0.1881,0.1030,-0.2352,-0.2463,0.1053,21.86,-13.92,-10.56,1,1,1,65,234,175,175,175,0,0,60.00,0,3230,0,0,0,0,0,0.00,250.00,3,3505,0.1779,0.5960,0.5730,0.7200,0.5420
2026-04-20T18:11:35.403,1.100,1,3.23,-2.16,-59.94,-169.03,1,0.0485,0.1933,0.2456,-0.2588,-0.2567,0.1042,-22.02,10.19,56.02,56.83,66,66,1.00000,1.00000,1.00000,1.00000,3,3,1,28.66989,0.00193,1.11595,-0.0485,-0.1933,0.1044,-0.2588,-0.2567,0.1042,22.02,-13.71,-9.93,1,1,1,66,233,175,175,175,0,0,60.00,0,3230,0,0,0,0,0,0.00,250.00,3,3505,0.1779,0.5960,0.5730,0.7200,0.5420
2026-04-20T18:11:35.420,1.117,1,3.23,-2.16,-59.94,-169.03,1,0.0547,0.1986,0.2446,-0.2748,-0.2639,0.0970,-22.17,8.35,60.46,65.28,67,67,1.00000,1.00000,1.00000,1.00000,3,3,1,28.94720,0.00190,1.11828,-0.0547,-0.1986,0.1054,-0.2748,-0.2639,0.0970,22.17,-14.35,-9.14,1,1,1,67,233,175,175,175,0,0,60.00,0,3230,0,0,0,0,0,0.00,250.00,3,3505,0.1779,0.5960,0.5730,0.7200,0.5420
2026-04-20T18:11:35.438,1.135,1,3.23,-2.16,-59.94,-169.03,1,0.0616,0.2044,0.2435,-0.2918,-0.2711,0.0924,-22.28,6.86,58.31,57.88,68,68,1.00000,1.00000,1.00000,1.00000,3,3,1,29.25484,0.00174,1.11680,-0.0616,-0.2044,0.1065,-0.2918,-0.2711,0.0924,22.28,-14.58,-8.26,1,1,1,68,233,175,175,175,0,0,60.00,0,3230,0,0,0,0,0,0.00,250.00,3,3505,0.1779,0.5960,0.5730,0.7200,0.5420
2026-04-20T18:11:35.456,1.153,1,3.23,-2.16,-59.94,-169.03,1,0.0688,0.2102,0.2425,-0.3098,-0.2790,0.0877,-22.42,7.55,59.41,60.24,69,69,1.00000,1.00000,1.00000,1.00000,3,3,1,29.61344,0.00153,1.11800,-0.0688,-0.2102,0.1075,-0.3098,-0.2790,0.0877,22.42,-14.97,-7.22,1,1,1,69,231,175,175,175,0,0,60.00,0,3230,0,0,0,0,0,0.00,250.00,3,3505,0.1779,0.5960,0.5730,0.7200,0.5420
2026-04-20T18:11:35.477,1.174,1,3.23,-2.16,-59.94,-169.03,1,0.0765,0.2167,0.2415,-0.3197,-0.2838,0.0813,-22.62,9.48,57.72,42.08,70,70,1.00000,1.00000,1.00000,1.00000,3,3,1,30.09464,0.00157,1.11938,-0.0765,-0.2167,0.1085,-0.3197,-0.2838,0.0813,22.62,-15.46,-6.27,1,1,1,70,232,175,175,175,0,0,60.00,0,3230,0,0,0,0,0,0.00,250.00,3,3505,0.1779,0.5960,0.5730,0.7200,0.5420
2026-04-20T18:11:35.489,1.186,1,3.23,-2.16,-59.94,-169.03,1,0.0839,0.2229,0.2412,-0.3494,-0.3068,0.0745,-22.80,14.76,48.01,83.38,71,71,1.00000,1.00000,1.00000,1.00000,3,3,1,30.48902,0.00165,1.12102,-0.0839,-0.2229,0.1088,-0.3494,-0.3068,0.0745,22.80,-16.20,-5.44,1,1,1,71,231,175,175,175,0,0,60.00,0,3230,0,0,0,0,0,0.00,250.00,3,3505,0.1779,0.5960,0.5730,0.7200,0.5420
2026-04-20T18:11:35.504,1.201,1,3.23,-2.16,-59.94,-169.03,1,0.0917,0.2292,0.2410,-0.3755,-0.3255,0.0670,-22.94,9.13,74.59,66.74,72,72,1.00000,1.00000,1.00000,1.00000,3,3,1,31.03441,0.00156,1.12089,-0.0917,-0.2292,0.1090,-0.3755,-0.3255,0.0670,22.94,-17.25,-4.36,1,1,1,72,233,175,175,175,0,0,60.00,0,3230,0,0,0,0,0,0.00,250.00,3,3505,0.1779,0.5960,0.5730,0.7200,0.5420
2026-04-20T18:11:35.520,1.217,1,3.23,-2.16,-59.94,-169.03,1,0.0998,0.2364,0.2408,-0.3975,-0.3480,0.0609,-23.21,17.43,68.36,61.61,73,73,1.00000,1.00000,1.00000,1.00000,3,3,1,31.66846,0.00169,1.12682,-0.0998,-0.2364,0.1092,-0.3975,-0.3480,0.0609,23.21,-18.15,-3.91,1,1,1,73,231,175,175,175,0,0,60.00,0,3230,0,0,0,0,0,0.00,250.00,3,3505,0.1779,0.5960,0.5730,0.7200,0.5420
2026-04-20T18:11:35.537,1.234,1,3.23,-2.16,-59.94,-169.03,1,0.1089,0.2443,0.2407,-0.4143,-0.3619,0.0524,-23.43,12.32,63.29,61.40,74,74,1.00000,1.00000,1.00000,1.00000,3,3,1,32.22650,0.00184,1.12408,-0.1089,-0.2443,0.1093,-0.4143,-0.3619,0.0524,23.43,-18.75,-3.15,1,1,1,74,233,175,175,175,0,0,60.00,0,3230,0,0,0,0,0,0.00,250.00,3,3505,0.1779,0.5960,0.5730,0.7200,0.5420
2026-04-20T18:11:35.553,1.250,1,3.23,-2.16,-59.94,-169.03,1,0.1177,0.2523,0.2414,-0.4395,-0.3889,0.0390,-23.69,16.11,60.03,60.82,75,75,1.00000,1.00000,1.00000,1.00000,3,3,1,33.04028,0.00186,1.12873,-0.1177,-0.2523,0.1086,-0.4395,-0.3889,0.0390,23.69,-19.74,-2.62,1,1,1,75,232,175,175,175,0,0,60.00,0,3230,0,0,0,0,0,0.00,250.00,3,3505,0.1779,0.5960,0.5730,0.7200,0.5420
2026-04-20T18:11:35.568,1.265,1,3.23,-2.16,-59.94,-169.03,1,0.1270,0.2611,0.2422,-0.4591,-0.4129,0.0253,-23.95,17.42,59.01,61.59,76,76,1.00000,1.00000,1.00000,1.00000,3,3,1,33.78572,0.00207,1.13588,-0.1270,-0.2611,0.1078,-0.4591,-0.4129,0.0253,23.95,-21.10,-2.19,1,1,1,76,232,175,175,175,0,0,60.00,0,3230,0,0,0,0,0,0.00,250.00,3,3505,0.1779,0.5960,0.5730,0.7200,0.5420
2026-04-20T18:11:35.586,1.283,1,3.23,-2.16,-59.94,-169.03,1,0.1369,0.2708,0.2434,-0.4786,-0.4395,0.0111,-24.18,13.71,71.41,57.29,77,77,1.00000,1.00000,1.00000,1.00000,3,3,1,34.72951,0.00245,1.13972,-0.1369,-0.2708,0.1066,-0.4786,-0.4395,0.0111,24.18,-22.36,-2.10,1,1,1,77,231,175,175,175,0,0,60.00,0,3230,0,0,0,0,0,0.00,250.00,3,3505,0.1779,0.5960,0.5730,0.7200,0.5420
2026-04-20T18:11:35.601,1.298,1,3.23,-2.16,-59.94,-169.03,1,0.1474,0.2810,0.2447,-0.5035,-0.4686,0.0000,-24.57,23.63,56.13,57.79,78,78,1.00000,1.00000,1.00000,1.00000,3,3,1,35.65373,0.00250,1.14226,-0.1474,-0.2810,0.1053,-0.5035,-0.4686,0.0000,24.57,-23.72,-1.84,1,1,1,78,229,175,175,175,0,0,60.00,0,3230,0,0,0,0,0,0.00,250.00,3,3505,0.1779,0.5960,0.5730,0.7200,0.5420
2026-04-20T18:11:35.620,1.317,1,3.23,-2.16,-59.94,-169.03,1,0.1588,0.2920,0.2467,-0.5275,-0.4953,-0.0191,-24.84,15.40,64.67,64.45,79,79,1.00000,1.00000,1.00000,1.00000,3,3,1,36.83039,0.00265,1.14329,-0.1588,-0.2920,0.1033,-0.5275,-0.4953,-0.0191,24.84,-24.81,-1.47,1,1,1,79,234,175,175,175,0,0,60.00,0,3230,0,0,0,0,0,0.00,250.00,3,3505,0.1779,0.5960,0.5730,0.7200,0.5420
2026-04-20T18:11:35.635,1.332,1,3.23,-2.16,-59.94,-169.03,1,0.1707,0.3038,0.2493,-0.5650,-0.5360,-0.0401,-25.14,20.74,52.37,58.15,80,80,1.00000,1.00000,1.00000,1.00000,3,3,1,37.95506,0.00292,1.14984,-0.1707,-0.3038,0.1007,-0.5650,-0.5360,-0.0401,25.14,-25.73,-0.84,1,1,1,80,233,175,175,175,0,0,60.00,0,3230,0,0,0,0,0,0.00,250.00,3,3505,0.1779,0.5960,0.5730,0.7200,0.5420
2026-04-20T18:11:35.654,1.351,1,3.23,-2.16,-59.94,-169.03,1,0.1841,0.3171,0.2521,-0.5870,-0.5627,-0.0561,-25.42,14.42,69.27,57.73,81,81,1.00000,1.00000,1.00000,1.00000,3,3,1,39.26806,0.00313,1.14831,-0.1841,-0.3171,0.0979,-0.5870,-0.5627,-0.0561,25.42,-26.31,-0.19,1,1,1,81,234,175,175,175,0,0,60.00,0,3230,0,0,0,0,0,0.00,250.00,3,3505,0.1779,0.5960,0.5730,0.7200,0.5420
2026-04-20T18:11:35.670,1.367,1,3.23,-2.16,-59.94,-169.03,1,0.1977,0.3307,0.2555,-0.6288,-0.6085,-0.0781,-25.66,14.73,52.50,59.37,82,82,1.00000,1.00000,1.00000,1.00000,3,3,1,40.84680,0.00328,1.15072,-0.1977,-0.3307,0.0945,-0.6288,-0.6085,-0.0781,25.66,-26.86,0.70,1,1,1,82,232,175,175,175,0,0,60.00,0,3230,0,0,0,0,0,0.00,250.00,3,3505,0.1779,0.5960,0.5730,0.7200,0.5420
2026-04-20T18:11:35.687,1.384,1,3.23,-2.16,-59.94,-169.03,1,0.2122,0.3461,0.2595,-0.6657,-0.6580,-0.1016,-26.14,27.56,61.98,63.77,83,83,1.00000,1.00000,1.00000,1.00000,3,3,1,42.45464,0.00349,1.15509,-0.2122,-0.3461,0.0905,-0.6657,-0.6580,-0.1016,26.14,-27.01,0.87,1,1,1,83,232,175,175,175,0,0,60.00,0,3230,0,0,0,0,0,0.00,250.00,3,3505,0.1779,0.5960,0.5730,0.7200,0.5420
2026-04-20T18:11:35.695,1.392,1,3.23,-2.16,-59.94,-169.03,0,0.0000,0.0000,0.3500,0.0000,0.0000,0.0000,0.00,0.00,57.31,60.82,84,83,0.98810,0.98810,0.98810,1.00000,2,3,0,0.00000,0.00000,1.00000,0.0000,0.0000,0.0000,0.0000,0.0000,0.0000,0.00,0.00,0.00,1,1,1,84,192,175,175,175,0,0,60.00,0,3230,0,0,0,0,0,0.00,250.00,3,3505,0.1779,0.5960,0.5730,0.7200,0.5420
2026-04-20T18:11:35.712,1.409,1,3.23,-2.16,-59.94,-169.03,0,0.0000,0.0000,0.3500,0.0000,0.0000,0.0000,0.00,0.00,116.95,60.92,85,83,0.97647,0.97647,0.97647,1.00000,2,3,0,0.00000,0.00000,1.00000,0.0000,0.0000,0.0000,0.0000,0.0000,0.0000,0.00,0.00,0.00,1,1,1,85,192,175,175,175,0,0,60.00,0,3230,90,0,0,90,0,250.13,250.13,7,1842,0.3528,0.8440,0.5740,0.7970,0.4910
2026-04-20T18:11:35.729,1.426,1,3.23,-2.16,-59.94,-169.03,0,0.0000,0.0000,0.3500,0.0000,0.0000,0.0000,0.00,0.00,60.68,57.08,86,83,0.96512,0.96512,0.96512,1.00000,1,3,0,0.00000,0.00000,1.00000,0.0000,0.0000,0.0000,0.0000,0.0000,0.0000,0.00,0.00,0.00,1,1,1,86,192,175,175,175,0,0,60.00,0,3230,90,0,0,90,0,250.13,250.13,7,1842,0.3528,0.8440,0.5740,0.7970,0.4910
2026-04-20T18:11:35.746,1.443,1,3.23,-2.16,-59.94,-169.03,0,0.0000,0.0000,0.3500,0.0000,0.0000,0.0000,0.00,0.00,62.06,61.50,87,83,0.95402,0.95402,0.95402,1.00000,0,3,0,0.00000,0.00000,1.00000,0.0000,0.0000,0.0000,0.0000,0.0000,0.0000,0.00,0.00,0.00,1,1,1,87,192,175,175,175,0,0,60.00,0,3230,90,0,0,90,0,250.13,250.13,7,1842,0.3528,0.8440,0.5740,0.7970,0.4910
2026-04-20T18:11:35.763,1.460,1,3.23,-2.16,-59.94,-169.03,0,0.0000,0.0000,0.3500,0.0000,0.0000,0.0000,0.00,0.00,58.15,58.88,88,83,0.94318,0.94318,0.94318,1.00000,0,3,0,0.00000,0.00000,1.00000,0.0000,0.0000,0.0000,0.0000,0.0000,0.0000,0.00,0.00,0.00,1,1,1,88,192,175,175,175,0,0,60.00,0,3230,90,0,0,90,0,250.13,250.13,7,1842,0.3528,0.8440,0.5740,0.7970,0.4910
2026-04-20T18:11:35.779,1.476,1,3.23,-2.16,-59.94,-169.03,0,0.0000,0.0000,0.3500,0.0000,0.0000,0.0000,0.00,0.00,59.13,58.97,89,83,0.93258,0.93258,0.93258,1.00000,0,3,0,0.00000,0.00000,1.00000,0.0000,0.0000,0.0000,0.0000,0.0000,0.0000,0.00,0.00,0.00,1,1,1,89,192,175,175,175,0,0,60.00,0,3230,90,0,0,90,0,250.13,250.13,7,1842,0.3528,0.8440,0.5740,0.7970,0.4910
2026-04-20T18:11:35.796,1.493,1,3.23,-2.16,-59.94,-169.03,0,0.0000,0.0000,0.3500,0.0000,0.0000,0.0000,0.00,0.00,61.37,61.67,90,83,0.92222,0.92222,0.92222,1.00000,0,3,0,0.00000,0.00000,1.00000,0.0000,0.0000,0.0000,0.0000,0.0000,0.0000,0.00,0.00,0.00,1,1,1,90,192,175,175,175,0,0,60.00,0,3230,90,0,0,90,0,250.13,250.13,7,1842,0.3528,0.8440,0.5740,0.7970,0.4910
2026-04-20T18:11:35.812,1.509,1,26.89,28.83,193.19,500.26,0,0.0000,0.0000,0.3500,0.0000,0.0000,0.0000,0.00,0.00,58.45,63.55,91,83,0.91209,0.91209,0.91209,1.00000,0,3,0,0.00000,0.00000,1.00000,0.0000,0.0000,0.0000,0.0000,0.0000,0.0000,0.00,0.00,0.00,1,1,1,91,192,175,175,175,0,0,60.00,0,3230,90,0,0,90,0,250.13,250.13,7,1842,0.3528,0.8440,0.5740,0.7970,0.4910
2026-04-20T18:11:35.828,1.525,1,26.89,28.83,193.19,500.26,0,0.0000,0.0000,0.3500,0.0000,0.0000,0.0000,0.00,0.00,61.79,57.17,92,83,0.90217,0.90217,0.90217,1.00000,0,3,0,0.00000,0.00000,1.00000,0.0000,0.0000,0.0000,0.0000,0.0000,0.0000,0.00,0.00,0.00,1,1,1,92,192,175,175,175,0,0,60.00,0,3230,90,0,0,90,0,250.13,250.13,7,1842,0.3528,0.8440,0.5740,0.7970,0.4910
2026-04-20T18:11:35.845,1.542,1,26.89,28.83,193.19,500.26,0,0.0000,0.0000,0.3500,0.0000,0.0000,0.0000,0.00,0.00,61.58,63.64,93,83,0.89247,0.89247,0.89247,1.00000,0,3,0,0.00000,0.00000,1.00000,0.0000,0.0000,0.0000,0.0000,0.0000,0.0000,0.00,0.00,0.00,1,1,1,93,192,175,175,175,0,0,60.00,0,3230,90,0,0,90,0,250.13,250.13,7,1842,0.3528,0.8440,0.5740,0.7970,0.4910
2026-04-20T18:11:35.861,1.558,1,26.89,28.83,193.19,500.26,0,0.0000,0.0000,0.3500,0.0000,0.0000,0.0000,0.00,0.00,60.06,59.66,94,83,0.88298,0.88298,0.88298,0.98936,0,2,0,0.00000,0.00000,1.00000,0.0000,0.0000,0.0000,0.0000,0.0000,0.0000,0.00,0.00,0.00,1,1,1,94,192,175,175,175,0,0,60.00,0,3230,90,0,0,90,0,250.13,250.13,7,1842,0.3528,0.8440,0.5740,0.7970,0.4910
2026-04-20T18:11:35.878,1.575,1,26.89,28.83,193.19,500.26,0,0.0000,0.0000,0.3500,0.0000,0.0000,0.0000,0.00,0.00,60.97,59.28,95,83,0.87368,0.87368,0.87368,0.97895,0,2,0,0.00000,0.00000,1.00000,0.0000,0.0000,0.0000,0.0000,0.0000,0.0000,0.00,0.00,0.00,1,1,1,95,192,175,175,175,0,0,60.00,0,3230,90,0,0,90,0,250.13,250.13,7,1842,0.3528,0.8440,0.5740,0.7970,0.4910
2026-04-20T18:11:35.896,1.593,1,26.89,28.83,193.19,500.26,0,0.0000,0.0000,0.3500,0.0000,0.0000,0.0000,0.00,0.00,59.29,63.13,96,83,0.86458,0.86458,0.86458,0.96875,0,2,0,0.00000,0.00000,1.00000,0.0000,0.0000,0.0000,0.0000,0.0000,0.0000,0.00,0.00,0.00,1,1,1,96,192,175,175,175,0,0,60.00,0,3230,90,0,0,90,0,250.13,250.13,7,1842,0.3528,0.8440,0.5740,0.7970,0.4910
2026-04-20T18:11:35.912,1.609,1,26.89,28.83,193.19,500.26,0,0.0000,0.0000,0.3500,0.0000,0.0000,0.0000,0.00,0.00,57.12,57.74,97,83,0.85567,0.85567,0.85567,0.95876,0,2,0,0.00000,0.00000,1.00000,0.0000,0.0000,0.0000,0.0000,0.0000,0.0000,0.00,0.00,0.00,1,1,1,97,192,175,175,175,0,0,60.00,0,3230,90,0,0,90,0,250.13,250.13,7,1842,0.3528,0.8440,0.5740,0.7970,0.4910
2026-04-20T18:11:35.928,1.625,1,26.89,28.83,193.19,500.26,0,0.0000,0.0000,0.3500,0.0000,0.0000,0.0000,0.00,0.00,66.02,57.79,98,83,0.84694,0.84694,0.84694,0.94898,0,2,0,0.00000,0.00000,1.00000,0.0000,0.0000,0.0000,0.0000,0.0000,0.0000,0.00,0.00,0.00,1,1,1,98,192,175,175,175,0,0,60.00,0,3230,90,0,0,90,0,250.13,250.13,7,1842,0.3528,0.8440,0.5740,0.7970,0.4910
2026-04-20T18:11:35.944,1.641,1,26.89,28.83,193.19,500.26,0,0.0000,0.0000,0.3500,0.0000,0.0000,0.0000,0.00,0.00,59.47,66.10,99,83,0.83838,0.83838,0.83838,0.93939,0,2,0,0.00000,0.00000,1.00000,0.0000,0.0000,0.0000,0.0000,0.0000,0.0000,0.00,0.00,0.00,1,1,1,99,192,175,175,175,0,0,60.00,0,3230,90,0,0,90,0,250.13,250.13,7,1842,0.3528,0.8440,0.5740,0.7970,0.4910
2026-04-20T18:11:35.961,1.658,1,26.89,28.83,193.19,500.26,0,0.0000,0.0000,0.3500,0.0000,0.0000,0.0000,0.00,0.00,58.40,56.94,100,83,0.83000,0.83000,0.83000,0.93000,0,2,0,0.00000,0.00000,1.00000,0.0000,0.0000,0.0000,0.0000,0.0000,0.0000,0.00,0.00,0.00,1,1,1,100,192,175,175,175,0,0,60.00,0,3230,90,0,0,90,0,250.13,250.13,7,1842,0.3528,0.8440,0.5740,0.7970,0.4910
2026-04-20T18:11:35.977,1.674,1,26.89,28.83,193.19,500.26,0,0.0000,0.0000,0.3500,0.0000,0.0000,0.0000,0.00,0.00,56.15,59.89,101,83,0.82178,0.82178,0.82178,0.92079,0,2,0,0.00000,0.00000,1.00000,0.0000,0.0000,0.0000,0.0000,0.0000,0.0000,0.00,0.00,0.00,1,1,1,101,192,175,175,175,0,0,60.00,0,3230,90,0,0,90,0,250.13,250.13,7,1842,0.3528,0.8440,0.5740,0.7970,0.4910
2026-04-20T18:11:35.995,1.692,1,26.89,28.83,193.19,500.26,0,0.0000,0.0000,0.3500,0.0000,0.0000,0.0000,0.00,0.00,67.01,60.44,102,83,0.81373,0.81373,0.81373,0.91176,0,2,0,0.00000,0.00000,1.00000,0.0000,0.0000,0.0000,0.0000,0.0000,0.0000,0.00,0.00,0.00,1,1,1,102,192,175,175,175,0,0,60.00,0,3230,90,0,0,90,0,250.13,250.13,7,1842,0.3528,0.8440,0.5740,0.7970,0.4910
2026-04-20T18:11:36.012,1.709,1,26.89,28.83,193.19,500.26,0,0.0000,0.0000,0.3500,0.0000,0.0000,0.0000,0.00,0.00,60.37,59.51,103,83,0.80583,0.80583,0.80583,0.90291,0,2,0,0.00000,0.00000,1.00000,0.0000,0.0000,0.0000,0.0000,0.0000,0.0000,0.00,0.00,0.00,1,1,1,103,192,175,175,175,0,0,60.00,0,3230,90,0,0,90,0,250.13,250.13,7,1842,0.3528,0.8440,0.5740,0.7970,0.4910
2026-04-20T18:11:36.028,1.725,1,26.89,28.83,193.19,500.26,0,0.0000,0.0000,0.3500,0.0000,0.0000,0.0000,0.00,0.00,55.59,60.53,104,83,0.79808,0.79808,0.79808,0.89423,0,2,0,0.00000,0.00000,1.00000,0.0000,0.0000,0.0000,0.0000,0.0000,0.0000,0.00,0.00,0.00,1,1,1,104,192,175,175,175,0,0,60.00,0,3230,90,0,0,90,0,250.13,250.13,7,1842,0.3528,0.8440,0.5740,0.7970,0.4910
