iso_time,elapsed_s,imu_ready,imu_pitch_deg,imu_roll_deg,imu_pitch_rate_deg_s,imu_roll_rate_deg_s,mocap_valid,mocap_x_error_m,mocap_y_error_m,mocap_z_error_m,mocap_vx_m_s,mocap_vy_m_s,mocap_vz_m_s,mocap_yaw_error_deg,mocap_yaw_rate_deg_s,backend_loop_hz,tracking_loop_hz,frames_processed,valid_pose_frames,pose_success_rate,full_marker_detection_rate,cam1_full_detection_rate,cam2_full_detection_rate,cam1_leds,cam2_leds,spatial_data_valid,mapping_error_px,model_fit_error_m,scale_factor,position_x_m,position_y_m,position_z_m,velocity_x_m_s,velocity_y_m_s,velocity_z_m_s,yaw_deg,pitch_deg,roll_deg,serial_connected,serial_send_enabled,serial_send_ok,serial_payload_seq,serial_payload_size_bytes,bridge_serial_frames_rx,bridge_espnow_tx_attempts,bridge_espnow_tx_ok,bridge_espnow_tx_fail,bridge_oversize_drops,bridge_tx_rate_hz,bridge_last_tx_seq,bridge_last_tx_latency_us,controller_rx_packets,controller_rx_missing_packets,controller_rx_duplicate_packets,controller_rx_out_of_order_packets,controller_last_rx_seq,controller_loop_hz,controller_control_hz,controller_command_age_ms,controller_apply_latency_us,controller_motor_imbalance,motor_1_output,motor_2_output,motor_3_output,motor_4_output
2026-04-20T19:12:33.969,0.018,0,0.00,0.00,0.00,0.00,0,0.0000,0.0000,0.3500,0.0000,0.0000,0.0000,0.00,0.00,76.57,54.59,1,0,0.00000,0.00000,0.00000,0.00000,0,0,0,0.00000,0.00000,1.00000,0.0000,0.0000,0.0000,0.0000,0.0000,0.0000,0.00,0.00,0.00,1,1,1,1,193,0,0,0,0,0,0.00,0,0,0,0,0,0,0,0.00,0.00,0,0,0.0000,0.0000,0.0000,0.0000,0.0000
2026-04-20T19:12:33.987,0.036,0,0.00,0.00,0.00,0.00,0,0.0000,0.0000,0.3500,0.0000,0.0000,0.0000,0.00,0.00,51.11,61.23,2,0,0.00000,0.00000,0.00000,0.00000,0,0,0,0.00000,0.00000,1.00000,0.0000,0.0000,0.0000,0.0000,0.0000,0.0000,0.00,0.00,0.00,1,1,1,2,193,0,0,0,0,0,0.00,0,0,0,0,0,0,0,0.00,0.00,0,0,0.0000,0.0000,0.0000,0.0000,0.0000
2026-04-20T19:12:34.003,0.052,0,0.00,0.00,0.00,0.00,0,0.0000,0.0000,0.3500,0.0000,0.0000,0.0000,0.00,0.00,57.45,58.80,3,0,0.00000,0.00000,0.00000,0.00000,0,0,0,0.00000,0.00000,1.00000,0.0000,0.0000,0.0000,0.0000,0.0000,0.0000,0.00,0.00,0.00,1,1,1,3,193,0,0,0,0,0,0.00,0,0,0,0,0,0,0,0.00,0.00,0,0,0.0000,0.0000,0.0000,0.0000,0.0000
2026-04-20T19:12:34.011,0.061,0,0.00,0.00,0.00,0.00,0,0.0000,0.0000,0.3500,0.0000,0.0000,0.0000,0.00,0.00,68.11,112.09,4,0,0.00000,0.00000,0.00000,0.00000,0,0,0,0.00000,0.00000,1.00000,0.0000,0.0000,0.0000,0.0000,0.0000,0.0000,0.00,0.00,0.00,1,1,1,4,193,0,0,0,0,0,0.00,0,0,0,0,0,0,0,0.00,0.00,0,0,0.0000,0.0000,0.0000,0.0000,0.0000
2026-04-20T19:12:34.036,0.085,0,0.00,0.00,0.00,0.00,0,0.0000,0.0000,0.3500,0.0000,0.0000,0.0000,0.00,0.00,112.09,41.88,5,0,0.00000,0.00000,0.00000,0.00000,0,0,0,0.00000,0.00000,1.00000,0.0000,0.0000,0.0000,0.0000,0.0000,0.0000,0.00,0.00,0.00,1,1,1,5,193,0,0,0,0,0,0.00,0,0,0,0,0,0,0,0.00,0.00,0,0,0.0000,0.0000,0.0000,0.0000,0.0000
2026-04-20T19:12:34.053,0.102,0,0.00,0.00,0.00,0.00,0,0.0000,0.0000,0.3500,0.0000,0.0000,0.0000,0.00,0.00,37.84,59.08,6,0,0.00000,0.00000,0.00000,0.00000,0,0,0,0.00000,0.00000,1.00000,0.0000,0.0000,0.0000,0.0000,0.0000,0.0000,0.00,0.00,0.00,1,1,1,6,193,0,0,0,0,0,0.00,0,0,0,0,0,0,0,0.00,0.00,0,0,0.0000,0.0000,0.0000,0.0000,0.0000
2026-04-20T19:12:34.069,0.119,0,0.00,0.00,0.00,0.00,0,0.0000,0.0000,0.3500,0.0000,0.0000,0.0000,0.00,0.00,60.65,61.59,7,0,0.00000,0.00000,0.00000,0.00000,0,0,0,0.00000,0.00000,1.00000,0.0000,0.0000,0.0000,0.0000,0.0000,0.0000,0.00,0.00,0.00,1,1,1,7,193,0,0,0,0,0,0.00,0,0,0,0,0,0,0,0.00,0.00,0,0,0.0000,0.0000,0.0000,0.0000,0.0000
2026-04-20T19:12:34.084,0.133,0,0.00,0.00,0.00,0.00,0,0.0000,0.0000,0.3500,0.0000,0.0000,0.0000,0.00,0.00,61.97,63.11,8,0,0.00000,0.00000,0.00000,0.00000,0,0,0,0.00000,0.00000,1.00000,0.0000,0.0000,0.0000,0.0000,0.0000,0.0000,0.00,0.00,0.00,1,1,1,8,193,0,0,0,0,0,0.00,0,0,0,0,0,0,0,0.00,0.00,0,0,0.0000,0.0000,0.0000,0.0000,0.0000
2026-04-20T19:12:34.103,0.152,0,0.00,0.00,0.00,0.00,0,0.0000,0.0000,0.3500,0.0000,0.0000,0.0000,0.00,0.00,72.26,56.36,9,0,0.00000,0.00000,0.00000,0.00000,0,0,0,0.00000,0.00000,1.00000,0.0000,0.0000,0.0000,0.0000,0.0000,0.0000,0.00,0.00,0.00,1,1,1,9,193,0,0,0,0,0,0.00,0,0,0,0,0,0,0,0.00,0.00,0,0,0.0000,0.0000,0.0000,0.0000,0.0000
2026-04-20T19:12:34.121,0.170,0,0.00,0.00,0.00,0.00,0,0.0000,0.0000,0.3500,0.0000,0.0000,0.0000,0.00,0.00,53.34,61.95,10,0,0.00000,0.00000,0.00000,0.00000,0,0,0,0.00000,0.00000,1.00000,0.0000,0.0000,0.0000,0.0000,0.0000,0.0000,0.00,0.00,0.00,1,1,1,10,193,0,0,0,0,0,0.00,0,0,0,0,0,0,0,0.00,0.00,0,0,0.0000,0.0000,0.0000,0.0000,0.0000
2026-04-20T19:12:34.136,0.185,0,0.00,0.00,0.00,0.00,0,0.0000,0.0000,0.3500,0.0000,0.0000,0.0000,0.00,0.00,57.21,58.45,11,0,0.00000,0.00000,0.00000,0.00000,0,0,0,0.00000,0.00000,1.00000,0.0000,0.0000,0.0000,0.0000,0.0000,0.0000,0.00,0.00,0.00,1,1,1,11,193,0,0,0,0,0,0.00,0,0,0,0,0,0,0,0.00,0.00,0,0,0.0000,0.0000,0.0000,0.0000,0.0000
2026-04-20T19:12:34.153,0.202,0,0.00,0.00,0.00,0.00,0,0.0000,0.0000,0.3500,0.0000,0.0000,0.0000,0.00,0.00,63.40,61.53,12,0,0.00000,0.00000,0.00000,0.00000,0,0,0,0.00000,0.00000,1.00000,0.0000,0.0000,0.0000,0.0000,0.0000,0.0000,0.00,0.00,0.00,1,1,1,12,193,0,0,0,0,0,0.00,0,0,0,0,0,0,0,0.00,0.00,0,0,0.0000,0.0000,0.0000,0.0000,0.0000
2026-04-20T19:12:34.170,0.219,0,0.00,0.00,0.00,0.00,0,0.0000,0.0000,0.3500,0.0000,0.0000,0.0000,0.00,0.00,57.17,58.38,13,0,0.00000,0.00000,0.00000,0.00000,0,0,0,0.00000,0.00000,1.00000,0.0000,0.0000,0.0000,0.0000,0.0000,0.0000,0.00,0.00,0.00,1,1,1,13,193,0,0,0,0,0,0.00,0,0,0,0,0,0,0,0.00,0.00,0,0,0.0000,0.0000,0.0000,0.0000,0.0000
2026-04-20T19:12:34.186,0.236,0,0.00,0.00,0.00,0.00,0,0.0000,0.0000,0.3500,0.0000,0.0000,0.0000,0.00,0.00,62.95,59.80,14,0,0.00000,0.00000,0.00000,0.00000,0,0,0,0.00000,0.00000,1.00000,0.0000,0.0000,0.0000,0.0000,0.0000,0.0000,0.00,0.00,0.00,1,1,1,14,193,0,0,0,0,0,0.00,0,0,0,0,0,0,0,0.00,0.00,0,0,0.0000,0.0000,0.0000,0.0000,0.0000
2026-04-20T19:12:34.203,0.253,0,0.00,0.00,0.00,0.00,0,0.0000,0.0000,0.3500,0.0000,0.0000,0.0000,0.00,0.00,59.75,58.69,15,0,0.00000,0.00000,0.00000,0.00000,0,0,0,0.00000,0.00000,1.00000,0.0000,0.0000,0.0000,0.0000,0.0000,0.0000,0.00,0.00,0.00,1,1,1,15,193,0,0,0,0,0,0.00,0,0,0,0,0,0,0,0.00,0.00,0,0,0.0000,0.0000,0.0000,0.0000,0.0000
2026-04-20T19:12:34.220,0.269,0,0.00,0.00,0.00,0.00,0,0.0000,0.0000,0.3500,0.0000,0.0000,0.0000,0.00,0.00,58.73,60.88,16,0,0.00000,0.00000,0.00000,0.00000,0,0,0,0.00000,0.00000,1.00000,0.0000,0.0000,0.0000,0.0000,0.0000,0.0000,0.00,0.00,0.00,1,1,1,16,193,0,0,0,0,0,0.00,0,0,0,0,0,0,0,0.00,0.00,0,0,0.0000,0.0000,0.0000,0.0000,0.0000
2026-04-20T19:12:34.228,0.278,0,0.00,0.00,0.00,0.00,0,0.0000,0.0000,0.3500,0.0000,0.0000,0.0000,0.00,0.00,57.38,105.02,17,0,0.00000,0.00000,0.00000,0.00000,0,0,0,0.00000,0.00000,1.00000,0.0000,0.0000,0.0000,0.0000,0.0000,0.0000,0.00,0.00,0.00,1,1,1,17,193,0,0,0,0,0,0.00,0,0,0,0,0,0,0,0.00,0.00,0,0,0.0000,0.0000,0.0000,0.0000,0.0000
2026-04-20T19:12:34.246,0.296,0,0.00,0.00,0.00,0.00,0,0.0000,0.0000,0.3500,0.0000,0.0000,0.0000,0.00,0.00,133.00,55.46,18,0,0.00000,0.00000,0.00000,0.00000,0,0,0,0.00000,0.00000,1.00000,0.0000,0.0000,0.0000,0.0000,0.0000,0.0000,0.00,0.00,0.00,1,1,1,18,193,0,0,0,0,0,0.00,0,0,0,0,0,0,0,0.00,0.00,0,0,0.0000,0.0000,0.0000,0.0000,0.0000
2026-04-20T19:12:34.264,0.313,0,0.00,0.00,0.00,0.00,0,0.0000,0.0000,0.3500,0.0000,0.0000,0.0000,0.00,0.00,55.46,56.72,19,0,0.00000,0.00000,0.00000,0.00000,0,0,0,0.00000,0.00000,1.00000,0.0000,0.0000,0.0000,0.0000,0.0000,0.0000,0.00,0.00,0.00,1,1,1,19,193,0,0,0,0,0,0.00,0,0,0,0,0,0,0,0.00,0.00,0,0,0.0000,0.0000,0.0000,0.0000,0.0000
2026-04-20T19:12:34.288,0.337,0,0.00,0.00,0.00,0.00,0,0.0000,0.0000,0.3500,0.0000,0.0000,0.0000,0.00,0.00,56.72,55.41,20,0,0.00000,0.00000,0.00000,0.00000,0,0,0,0.00000,0.00000,1.00000,0.0000,0.0000,0.0000,0.0000,0.0000,0.0000,0.00,0.00,0.00,1,1,1,20,193,0,0,0,0,0,0.00,0,0,0,0,0,0,0,0.00,0.00,0,0,0.0000,0.0000,0.0000,0.0000,0.0000
2026-04-20T19:12:34.302,0.351,0,0.00,0.00,0.00,0.00,0,0.0000,0.0000,0.3500,0.0000,0.0000,0.0000,0.00,0.00,40.90,49.75,21,0,0.00000,0.00000,0.00000,0.00000,0,0,0,0.00000,0.00000,1.00000,0.0000,0.0000,0.0000,0.0000,0.0000,0.0000,0.00,0.00,0.00,1,1,1,21,193,0,0,0,0,0,0.00,0,0,0,0,0,0,0,0.00,0.00,0,0,0.0000,0.0000,0.0000,0.0000,0.0000
2026-04-20T19:12:34.313,0.362,0,0.00,0.00,0.00,0.00,0,0.0000,0.0000,0.3500,0.0000,0.0000,0.0000,0.00,0.00,67.83,91.93,22,0,0.00000,0.00000,0.00000,0.00000,0,0,0,0.00000,0.00000,1.00000,0.0000,0.0000,0.0000,0.0000,0.0000,0.0000,0.00,0.00,0.00,1,1,1,22,193,0,0,0,0,0,0.00,0,0,0,0,0,0,0,0.00,0.00,0,0,0.0000,0.0000,0.0000,0.0000,0.0000
2026-04-20T19:12:34.339,0.388,0,0.00,0.00,0.00,0.00,0,0.0000,0.0000,0.3500,0.0000,0.0000,0.0000,0.00,0.00,53.68,63.99,23,0,0.00000,0.00000,0.00000,0.00000,0,0,0,0.00000,0.00000,1.00000,0.0000,0.0000,0.0000,0.0000,0.0000,0.0000,0.00,0.00,0.00,1,1,1,23,193,0,0,0,0,0,0.00,0,0,0,0,0,0,0,0.00,0.00,0,0,0.0000,0.0000,0.0000,0.0000,0.0000
2026-04-20T19:12:34.353,0.402,0,0.00,0.00,0.00,0.00,0,0.0000,0.0000,0.3500,0.0000,0.0000,0.0000,0.00,0.00,59.03,42.82,24,0,0.00000,0.00000,0.00000,0.00000,0,0,0,0.00000,0.00000,1.00000,0.0000,0.0000,0.0000,0.0000,0.0000,0.0000,0.00,0.00,0.00,1,1,1,24,193,0,0,0,0,0,0.00,0,0,0,0,0,0,0,0.00,0.00,0,0,0.0000,0.0000,0.0000,0.0000,0.0000
2026-04-20T19:12:34.371,0.420,0,0.00,0.00,0.00,0.00,0,0.0000,0.0000,0.3500,0.0000,0.0000,0.0000,0.00,0.00,65.58,63.13,25,0,0.00000,0.00000,0.00000,0.00000,0,0,0,0.00000,0.00000,1.00000,0.0000,0.0000,0.0000,0.0000,0.0000,0.0000,0.00,0.00,0.00,1,1,1,25,193,0,0,0,0,0,0.00,0,0,0,0,0,0,0,0.00,0.00,0,0,0.0000,0.0000,0.0000,0.0000,0.0000
2026-04-20T19:12:34.378,0.427,0,0.00,0.00,0.00,0.00,0,0.0000,0.0000,0.3500,0.0000,0.0000,0.0000,0.00,0.00,55.45,101.52,26,0,0.00000,0.00000,0.00000,0.00000,0,0,0,0.00000,0.00000,1.00000,0.0000,0.0000,0.0000,0.0000,0.0000,0.0000,0.00,0.00,0.00,1,1,1,26,193,0,0,0,0,0,0.00,0,0,0,0,0,0,0,0.00,0.00,0,0,0.0000,0.0000,0.0000,0.0000,0.0000
2026-04-20T19:12:34.395,0.444,0,0.00,0.00,0.00,0.00,0,0.0000,0.0000,0.3500,0.0000,0.0000,0.0000,0.00,0.00,62.66,59.72,27,0,0.00000,0.00000,0.00000,0.00000,0,0,0,0.00000,0.00000,1.00000,0.0000,0.0000,0.0000,0.0000,0.0000,0.0000,0.00,0.00,0.00,1,1,1,27,193,0,0,0,0,0,0.00,0,0,0,0,0,0,0,0.00,0.00,0,0,0.0000,0.0000,0.0000,0.0000,0.0000
2026-04-20T19:12:34.419,0.468,0,0.00,0.00,0.00,0.00,0,0.0000,0.0000,0.3500,0.0000,0.0000,0.0000,0.00,0.00,57.85,41.40,28,0,0.00000,0.00000,0.00000,0.00000,0,0,0,0.00000,0.00000,1.00000,0.0000,0.0000,0.0000,0.0000,0.0000,0.0000,0.00,0.00,0.00,1,1,1,28,193,0,0,0,0,0,0.00,0,0,0,0,0,0,0,0.00,0.00,0,0,0.0000,0.0000,0.0000,0.0000,0.0000
