iso_time,elapsed_s,imu_ready,imu_pitch_deg,imu_roll_deg,imu_pitch_rate_deg_s,imu_roll_rate_deg_s,mocap_valid,mocap_x_error_m,mocap_y_error_m,mocap_z_error_m,mocap_vx_m_s,mocap_vy_m_s,mocap_vz_m_s,mocap_yaw_error_deg,mocap_yaw_rate_deg_s,backend_loop_hz,tracking_loop_hz,frames_processed,valid_pose_frames,pose_success_rate,full_marker_detection_rate,cam1_full_detection_rate,cam2_full_detection_rate,cam1_leds,cam2_leds,spatial_data_valid,mapping_error_px,model_fit_error_m,scale_factor,position_x_m,position_y_m,position_z_m,velocity_x_m_s,velocity_y_m_s,velocity_z_m_s,yaw_deg,pitch_deg,roll_deg,serial_connected,serial_send_enabled,serial_send_ok,serial_payload_seq,serial_payload_size_bytes,bridge_serial_frames_rx,bridge_espnow_tx_attempts,bridge_espnow_tx_ok,bridge_espnow_tx_fail,bridge_oversize_drops,bridge_tx_rate_hz,bridge_last_tx_seq,bridge_last_tx_latency_us,controller_rx_packets,controller_rx_missing_packets,controller_rx_duplicate_packets,controller_rx_out_of_order_packets,controller_last_rx_seq,controller_loop_hz,controller_control_hz,controller_command_age_ms,controller_apply_latency_us,controller_motor_imbalance,motor_1_output,motor_2_output,motor_3_output,motor_4_output
2026-04-20T20:04:31.588,0.011,1,-0.27,-0.37,0.17,0.08,1,0.0361,0.0648,0.3169,0.0000,0.0000,0.0000,-44.83,0.00,59.44,61.51,1,1,1.00000,1.00000,1.00000,1.00000,3,3,1,23.39648,0.00245,1.10435,-0.0361,-0.0648,0.0331,0.0000,0.0000,0.0000,44.83,-4.57,-10.89,1,1,1,1,220,84490,84490,64264,20225,0,60.00,2225,3072,0,0,0,0,0,0.00,0.00,0,0,0.0000,0.0000,0.0000,0.0000,0.0000
2026-04-20T20:04:31.604,0.027,1,-0.27,-0.37,0.17,0.08,1,0.0361,0.0649,0.3169,0.0000,0.0000,0.0000,-44.79,-2.65,85.14,57.76,2,2,1.00000,1.00000,1.00000,1.00000,3,3,1,23.39284,0.00241,1.10635,-0.0361,-0.0649,0.0331,0.0000,0.0000,0.0000,44.79,-4.36,-10.96,1,1,1,2,220,84490,84490,64264,20225,0,60.00,2225,3072,0,0,0,0,0,0.00,0.00,0,0,0.0000,0.0000,0.0000,0.0000,0.0000
2026-04-20T20:04:31.621,0.045,1,-0.25,-0.37,0.22,0.05,1,0.0361,0.0649,0.3169,0.0000,0.0000,0.0000,-44.77,-1.16,66.72,64.50,3,3,1.00000,1.00000,1.00000,1.00000,3,3,1,23.38015,0.00239,1.10607,-0.0361,-0.0649,0.0331,0.0000,0.0000,0.0000,44.77,-4.37,-10.96,1,1,1,3,220,84490,84490,64264,20225,0,60.00,2225,3072,0,0,0,0,0,0.00,0.00,0,0,0.0000,0.0000,0.0000,0.0000,0.0000
2026-04-20T20:04:31.637,0.061,1,-0.25,-0.37,0.22,0.05,1,0.0360,0.0649,0.3169,0.0000,0.0000,0.0000,-44.77,0.00,59.60,58.23,4,4,1.00000,1.00000,1.00000,1.00000,3,3,1,23.41118,0.00251,1.10365,-0.0360,-0.0649,0.0331,0.0000,0.0000,0.0000,44.77,-4.50,-10.83,1,1,1,4,219,84490,84490,64264,20225,0,60.00,2225,3072,0,0,0,0,0,0.00,0.00,0,0,0.0000,0.0000,0.0000,0.0000,0.0000
2026-04-20T20:04:31.653,0.076,1,-0.25,-0.37,0.22,0.05,1,0.0358,0.0647,0.3170,0.0000,0.0000,0.0000,-44.76,-0.69,58.15,61.29,5,5,1.00000,1.00000,1.00000,1.00000,3,3,1,23.42336,0.00276,1.10662,-0.0358,-0.0647,0.0330,0.0000,0.0000,0.0000,44.76,-5.10,-10.97,1,1,1,5,219,84490,84490,64264,20225,0,60.00,2225,3072,0,0,0,0,0,0.00,0.00,0,0,0.0000,0.0000,0.0000,0.0000,0.0000
2026-04-20T20:04:31.669,0.093,1,-0.26,-0.37,0.17,0.05,1,0.0359,0.0648,0.3169,0.0000,0.0000,0.0000,-44.77,0.58,64.17,59.00,6,6,1.00000,1.00000,1.00000,1.00000,3,3,1,23.40861,0.00251,1.10404,-0.0359,-0.0648,0.0331,0.0000,0.0000,0.0000,44.77,-5.12,-10.94,1,1,1,6,220,84490,84490,64264,20225,0,60.00,2225,3072,0,0,0,0,0,0.00,0.00,0,0,0.0000,0.0000,0.0000,0.0000,0.0000
2026-04-20T20:04:31.689,0.112,1,-0.26,-0.37,0.17,0.05,1,0.0359,0.0649,0.3167,0.0000,0.0000,0.0000,-44.71,-3.21,60.66,59.87,7,7,1.00000,1.00000,1.00000,1.00000,3,3,1,23.46911,0.00245,1.10412,-0.0359,-0.0649,0.0333,0.0000,0.0000,0.0000,44.71,-4.99,-10.94,1,1,1,7,220,84490,84490,64264,20225,0,60.00,2225,3072,0,0,0,0,0,0.00,0.00,0,0,0.0000,0.0000,0.0000,0.0000,0.0000
2026-04-20T20:04:31.703,0.126,1,-0.26,-0.37,0.17,0.05,1,0.0359,0.0648,0.3169,0.0000,0.0000,0.0000,-44.70,-0.70,51.70,59.48,8,8,1.00000,1.00000,1.00000,1.00000,3,3,1,23.39953,0.00256,1.10523,-0.0359,-0.0648,0.0331,0.0000,0.0000,0.0000,44.70,-5.00,-10.94,1,1,1,8,216,84490,84490,64264,20225,0,60.00,2225,3072,0,0,0,0,0,0.00,0.00,0,0,0.0000,0.0000,0.0000,0.0000,0.0000
2026-04-20T20:04:31.720,0.143,1,-0.26,-0.37,0.17,0.05,1,0.0359,0.0648,0.3170,0.0000,0.0000,0.0000,-44.73,1.81,72.28,60.99,9,9,1.00000,1.00000,1.00000,1.00000,3,3,1,23.42880,0.00255,1.10620,-0.0359,-0.0648,0.0330,0.0000,0.0000,0.0000,44.73,-4.97,-11.00,1,1,1,9,217,84490,84490,64264,20225,0,60.00,2225,3072,0,0,0,0,0,0.00,0.00,0,0,0.0000,0.0000,0.0000,0.0000,0.0000
2026-04-20T20:04:31.741,0.164,1,-0.26,-0.37,0.17,0.05,1,0.0360,0.0648,0.3171,0.0000,0.0000,0.0000,-44.75,0.99,57.94,69.34,10,10,1.00000,1.00000,1.00000,1.00000,3,3,1,23.37447,0.00257,1.10646,-0.0360,-0.0648,0.0329,0.0000,0.0000,0.0000,44.75,-4.81,-10.98,1,1,1,10,220,84490,84490,64264,20225,0,60.00,2225,3072,0,0,0,0,0,0.00,0.00,0,0,0.0000,0.0000,0.0000,0.0000,0.0000
2026-04-20T20:04:31.753,0.176,1,-0.26,-0.37,0.17,0.05,1,0.0360,0.0648,0.3169,0.0000,0.0000,0.0000,-44.77,1.53,47.52,54.48,11,11,1.00000,1.00000,1.00000,1.00000,3,3,1,23.41845,0.00241,1.10362,-0.0360,-0.0648,0.0331,0.0000,0.0000,0.0000,44.77,-4.70,-10.83,1,1,1,11,219,84490,84490,64264,20225,0,60.00,2225,3072,0,0,0,0,0,0.00,0.00,0,0,0.0000,0.0000,0.0000,0.0000,0.0000
2026-04-20T20:04:31.772,0.195,1,-0.27,-0.35,0.16,0.06,1,0.0360,0.0648,0.3169,0.0000,0.0000,0.0000,-44.83,3.19,76.29,58.83,12,12,1.00000,1.00000,1.00000,1.00000,3,3,1,23.39800,0.00250,1.10486,-0.0360,-0.0648,0.0331,0.0000,0.0000,0.0000,44.83,-4.52,-10.86,1,1,1,12,220,84490,84490,64264,20225,0,60.00,2225,3072,0,0,0,0,0,0.00,0.00,0,0,0.0000,0.0000,0.0000,0.0000,0.0000
2026-04-20T20:04:31.788,0.211,1,-0.27,-0.35,0.16,0.06,1,0.0359,0.0648,0.3169,0.0000,0.0000,0.0000,-44.80,-1.76,53.05,57.75,13,13,1.00000,1.00000,1.00000,1.00000,3,3,1,23.42238,0.00253,1.10529,-0.0359,-0.0648,0.0331,0.0000,0.0000,0.0000,44.80,-4.78,-10.92,1,1,1,13,219,84490,84490,64264,20225,0,60.00,2225,3072,0,0,0,0,0,0.00,0.00,0,0,0.0000,0.0000,0.0000,0.0000,0.0000
2026-04-20T20:04:31.806,0.229,1,-0.27,-0.35,0.16,0.06,1,0.0361,0.0649,0.3169,0.0000,0.0000,0.0000,-44.75,-2.94,62.32,62.29,14,14,1.00000,1.00000,1.00000,1.00000,3,3,1,23.39418,0.00255,1.10712,-0.0361,-0.0649,0.0331,0.0000,0.0000,0.0000,44.75,-4.61,-11.05,1,1,1,14,220,84490,84490,64264,20225,0,60.00,2225,3072,0,0,0,0,0,0.00,0.00,0,0,0.0000,0.0000,0.0000,0.0000,0.0000
2026-04-20T20:04:31.822,0.245,1,-0.27,-0.35,0.16,0.06,1,0.0358,0.0647,0.3168,0.0000,0.0000,0.0000,-44.79,2.53,55.45,60.49,15,15,1.00000,1.00000,1.00000,1.00000,3,3,1,23.39845,0.00246,1.10301,-0.0358,-0.0647,0.0332,0.0000,0.0000,0.0000,44.79,-4.93,-10.92,1,1,1,15,220,84490,84490,64264,20225,0,60.00,2225,3072,0,0,0,0,0,0.00,0.00,0,0,0.0000,0.0000,0.0000,0.0000,0.0000
2026-04-20T20:04:31.839,0.262,1,-0.27,-0.35,0.16,0.06,1,0.0358,0.0647,0.3169,0.0000,0.0000,0.0000,-44.82,1.74,63.29,61.38,16,16,1.00000,1.00000,1.00000,1.00000,3,3,1,23.39721,0.00240,1.10326,-0.0358,-0.0647,0.0331,0.0000,0.0000,0.0000,44.82,-5.14,-10.80,1,1,1,16,219,84490,84490,64264,20225,0,60.00,2225,3072,0,0,0,0,0,0.00,0.00,0,0,0.0000,0.0000,0.0000,0.0000,0.0000
2026-04-20T20:04:31.858,0.281,1,-0.27,-0.35,0.16,0.06,1,0.0360,0.0648,0.3170,0.0000,0.0000,0.0000,-44.83,0.54,59.46,57.17,17,17,1.00000,1.00000,1.00000,1.00000,3,3,1,23.43095,0.00259,1.10685,-0.0360,-0.0648,0.0330,0.0000,0.0000,0.0000,44.83,-4.81,-10.92,1,1,1,17,220,84490,84490,64264,20225,0,60.00,2225,3072,0,0,0,0,0,0.00,0.00,0,0,0.0000,0.0000,0.0000,0.0000,0.0000
2026-04-20T20:04:31.874,0.298,1,-0.28,-0.36,0.16,0.00,1,0.0359,0.0647,0.3170,0.0000,0.0000,0.0000,-44.80,-1.79,52.80,59.58,18,18,1.00000,1.00000,1.00000,1.00000,3,3,1,23.38233,0.00251,1.10471,-0.0359,-0.0647,0.0330,0.0000,0.0000,0.0000,44.80,-4.91,-10.87,1,1,1,18,219,84490,84490,64264,20225,0,60.00,2225,3072,0,0,0,0,0,0.00,0.00,0,0,0.0000,0.0000,0.0000,0.0000,0.0000
2026-04-20T20:04:31.888,0.311,1,-0.28,-0.36,0.16,0.00,1,0.0359,0.0648,0.3168,0.0000,0.0000,0.0000,-44.81,0.74,63.34,59.90,19,19,1.00000,1.00000,1.00000,1.00000,3,3,1,23.41343,0.00253,1.10345,-0.0359,-0.0648,0.0332,0.0000,0.0000,0.0000,44.81,-4.95,-10.85,1,1,1,19,220,84490,84490,64264,20225,0,60.00,2225,3072,0,0,0,0,0,0.00,0.00,0,0,0.0000,0.0000,0.0000,0.0000,0.0000
2026-04-20T20:04:31.904,0.328,1,-0.28,-0.36,0.16,0.00,1,0.0358,0.0647,0.3168,0.0000,0.0000,0.0000,-44.79,-1.21,69.15,62.32,20,20,1.00000,1.00000,1.00000,1.00000,3,3,1,23.43797,0.00266,1.10374,-0.0358,-0.0647,0.0332,0.0000,0.0000,0.0000,44.79,-5.19,-10.89,1,1,1,20,220,84490,84490,64264,20225,0,60.00,2225,3072,0,0,0,0,0,0.00,0.00,0,0,0.0000,0.0000,0.0000,0.0000,0.0000
2026-04-20T20:04:31.918,0.341,1,-0.28,-0.36,0.13,0.06,1,0.0360,0.0648,0.3170,0.0000,0.0000,0.0000,-44.81,1.36,60.51,55.40,21,21,1.00000,1.00000,1.00000,1.00000,3,3,1,23.38361,0.00251,1.10646,-0.0360,-0.0648,0.0330,0.0000,0.0000,0.0000,44.81,-4.84,-10.93,1,1,1,21,220,84490,84490,64264,20225,0,60.00,2225,3072,0,0,0,0,0,0.00,0.00,0,0,0.0000,0.0000,0.0000,0.0000,0.0000
2026-04-20T20:04:31.940,0.363,1,-0.28,-0.36,0.13,0.06,1,0.0359,0.0648,0.3169,0.0000,0.0000,0.0000,-44.75,-2.92,85.75,82.15,22,22,1.00000,1.00000,1.00000,1.00000,3,3,1,23.43323,0.00259,1.10538,-0.0359,-0.0648,0.0331,0.0000,0.0000,0.0000,44.75,-5.00,-10.97,1,1,1,22,217,84490,84490,64264,20225,0,60.00,2225,3072,0,0,0,0,0,0.00,0.00,0,0,0.0000,0.0000,0.0000,0.0000,0.0000
2026-04-20T20:04:31.954,0.378,1,-0.28,-0.36,0.13,0.06,1,0.0357,0.0647,0.3169,0.0000,0.0000,0.0000,-44.77,1.35,44.40,51.00,23,23,1.00000,1.00000,1.00000,1.00000,3,3,1,23.40726,0.00260,1.10450,-0.0357,-0.0647,0.0331,0.0000,0.0000,0.0000,44.77,-5.33,-10.95,1,1,1,23,220,84490,84490,64264,20225,0,60.00,2225,3072,0,0,0,0,0,0.00,0.00,0,0,0.0000,0.0000,0.0000,0.0000,0.0000
2026-04-20T20:04:31.972,0.396,1,-0.28,-0.36,0.13,0.06,1,0.0360,0.0648,0.3169,0.0000,0.0000,0.0000,-44.77,0.00,67.62,58.22,24,24,1.00000,1.00000,1.00000,1.00000,3,3,1,23.39466,0.00249,1.10495,-0.0360,-0.0648,0.0331,0.0000,0.0000,0.0000,44.77,-4.87,-10.94,1,1,1,24,220,84490,84490,64264,20225,0,60.00,2225,3072,0,0,0,0,0,0.00,0.00,0,0,0.0000,0.0000,0.0000,0.0000,0.0000
2026-04-20T20:04:31.987,0.410,1,-0.28,-0.36,0.13,0.06,1,0.0357,0.0645,0.3171,0.0000,0.0000,0.0000,-44.82,3.45,56.09,61.27,25,25,1.00000,1.00000,1.00000,1.00000,3,3,1,23.41636,0.00259,1.10496,-0.0357,-0.0645,0.0329,0.0000,0.0000,0.0000,44.82,-5.32,-10.83,1,1,1,25,220,84490,84490,64264,20225,0,60.00,2225,3072,0,0,0,0,0,0.00,0.00,0,0,0.0000,0.0000,0.0000,0.0000,0.0000
2026-04-20T20:04:32.005,0.428,1,-0.28,-0.36,0.13,0.06,1,0.0359,0.0648,0.3169,0.0000,0.0000,0.0000,-44.79,-1.56,67.66,57.08,26,26,1.00000,1.00000,1.00000,1.00000,3,3,1,23.41349,0.00258,1.10449,-0.0359,-0.0648,0.0331,0.0000,0.0000,0.0000,44.79,-5.09,-10.92,1,1,1,26,220,84490,84490,64264,20225,0,60.00,2225,3072,0,0,0,0,0,0.00,0.00,0,0,0.0000,0.0000,0.0000,0.0000,0.0000
2026-04-20T20:04:32.021,0.444,1,-0.28,-0.36,0.13,0.06,1,0.0360,0.0649,0.3168,0.0000,0.0000,0.0000,-44.77,-1.34,55.74,63.71,27,27,1.00000,1.00000,1.00000,1.00000,3,3,1,23.43170,0.00247,1.10449,-0.0360,-0.0649,0.0332,0.0000,0.0000,0.0000,44.77,-4.67,-10.95,1,1,1,27,220,84490,84490,64264,20225,0,60.00,2225,3072,0,0,0,0,0,0.00,0.00,0,0,0.0000,0.0000,0.0000,0.0000,0.0000
2026-04-20T20:04:32.038,0.461,1,-0.28,-0.36,0.13,0.06,1,0.0360,0.0648,0.3169,0.0000,0.0000,0.0000,-44.80,1.80,62.80,71.95,28,28,1.00000,1.00000,1.00000,1.00000,3,3,1,23.39333,0.00245,1.10434,-0.0360,-0.0648,0.0331,0.0000,0.0000,0.0000,44.80,-4.53,-10.89,1,1,1,28,219,84490,84490,64264,20225,0,60.00,2225,3072,0,0,0,0,0,0.00,0.00,0,0,0.0000,0.0000,0.0000,0.0000,0.0000
2026-04-20T20:04:32.054,0.477,1,-0.28,-0.36,0.13,0.06,1,0.0359,0.0647,0.3169,0.0000,0.0000,0.0000,-44.82,1.23,58.38,51.59,29,29,1.00000,1.00000,1.00000,1.00000,3,3,1,23.36424,0.00242,1.10553,-0.0359,-0.0647,0.0331,0.0000,0.0000,0.0000,44.82,-4.61,-10.89,1,1,1,29,220,84490,84490,64264,20225,0,60.00,2225,3072,0,0,0,0,0,0.00,0.00,0,0,0.0000,0.0000,0.0000,0.0000,0.0000
2026-04-20T20:04:32.073,0.496,1,-0.26,-0.39,0.10,-0.06,1,0.0359,0.0647,0.3169,0.0000,0.0000,0.0000,-44.81,-0.53,63.60,56.46,30,30,1.00000,1.00000,1.00000,1.00000,3,3,1,23.37830,0.00249,1.10491,-0.0359,-0.0647,0.0331,0.0000,0.0000,0.0000,44.81,-4.79,-10.86,1,1,1,30,220,84490,84490,64264,20225,0,60.00,2225,3072,0,0,0,0,0,0.00,0.00,0,0,0.0000,0.0000,0.0000,0.0000,0.0000
2026-04-20T20:04:32.087,0.511,1,-0.26,-0.39,0.10,-0.06,1,0.0358,0.0647,0.3170,0.0000,0.0000,0.0000,-44.80,-0.71,51.89,60.12,31,31,1.00000,1.00000,1.00000,1.00000,3,3,1,23.41233,0.00266,1.10680,-0.0358,-0.0647,0.0330,0.0000,0.0000,0.0000,44.80,-5.02,-10.98,1,1,1,31,219,84490,84490,64264,20225,0,60.00,2225,3072,0,0,0,0,0,0.00,0.00,0,0,0.0000,0.0000,0.0000,0.0000,0.0000
2026-04-20T20:04:32.102,0.526,1,-0.26,-0.39,0.10,-0.06,1,0.0360,0.0648,0.3170,0.0000,0.0000,0.0000,-44.80,0.00,75.65,63.85,32,32,1.00000,1.00000,1.00000,1.00000,3,3,1,23.42166,0.00251,1.10585,-0.0360,-0.0648,0.0330,0.0000,0.0000,0.0000,44.80,-4.61,-10.91,1,1,1,32,219,84490,84490,64264,20225,0,60.00,2225,3072,0,0,0,0,0,0.00,0.00,0,0,0.0000,0.0000,0.0000,0.0000,0.0000
2026-04-20T20:04:32.120,0.543,1,-0.26,-0.39,0.10,-0.06,1,0.0361,0.0647,0.3171,0.0000,0.0000,0.0000,-44.83,1.80,62.41,58.81,33,33,1.00000,1.00000,1.00000,1.00000,3,3,1,23.38614,0.00246,1.10308,-0.0361,-0.0647,0.0329,0.0000,0.0000,0.0000,44.83,-4.55,-10.74,1,1,1,33,220,84490,84490,64264,20225,0,60.00,2225,3072,0,0,0,0,0,0.00,0.00,0,0,0.0000,0.0000,0.0000,0.0000,0.0000
2026-04-20T20:04:32.138,0.561,1,-0.26,-0.39,0.10,-0.06,1,0.0357,0.0646,0.3171,0.0000,0.0000,0.0000,-44.84,0.57,55.13,59.78,34,34,1.00000,1.00000,1.00000,1.00000,3,3,1,23.40289,0.00263,1.10398,-0.0357,-0.0646,0.0329,0.0000,0.0000,0.0000,44.84,-5.25,-10.78,1,1,1,34,220,84490,84490,64264,20225,0,60.00,2225,3072,0,0,0,0,0,0.00,0.00,0,0,0.0000,0.0000,0.0000,0.0000,0.0000
2026-04-20T20:04:32.153,0.576,1,-0.26,-0.39,0.10,-0.06,1,0.0360,0.0647,0.3170,0.0000,0.0000,0.0000,-44.83,-0.65,61.82,61.53,35,35,1.00000,1.00000,1.00000,1.00000,3,3,1,23.36274,0.00248,1.10495,-0.0360,-0.0647,0.0330,0.0000,0.0000,0.0000,44.83,-5.04,-10.81,1,1,1,35,220,84490,84490,64264,20225,0,60.00,2225,3072,0,0,0,0,0,0.00,0.00,0,0,0.0000,0.0000,0.0000,0.0000,0.0000
2026-04-20T20:04:32.170,0.593,1,-0.26,-0.39,0.10,-0.06,1,0.0361,0.0648,0.3170,0.0000,0.0000,0.0000,-44.83,0.00,60.71,63.28,36,36,1.00000,1.00000,1.00000,1.00000,3,3,1,23.37105,0.00246,1.10520,-0.0361,-0.0648,0.0330,0.0000,0.0000,0.0000,44.83,-4.72,-10.82,1,1,1,36,220,84490,84490,64264,20225,0,60.00,2225,3072,0,0,0,0,0,0.00,0.00,0,0,0.0000,0.0000,0.0000,0.0000,0.0000
2026-04-20T20:04:32.189,0.612,1,-0.26,-0.39,0.10,-0.06,1,0.0360,0.0648,0.3168,0.0000,0.0000,0.0000,-44.75,-4.12,58.22,53.16,37,37,1.00000,1.00000,1.00000,1.00000,3,3,1,23.39811,0.00254,1.10467,-0.0360,-0.0648,0.0332,0.0000,0.0000,0.0000,44.75,-4.79,-10.92,1,1,1,37,220,84490,84490,64264,20225,0,60.00,2225,3072,0,0,0,0,0,0.00,0.00,0,0,0.0000,0.0000,0.0000,0.0000,0.0000
2026-04-20T20:04:32.205,0.628,1,-0.26,-0.39,0.10,-0.06,1,0.0360,0.0648,0.3168,0.0000,0.0000,0.0000,-44.75,0.00,53.02,61.93,38,38,1.00000,1.00000,1.00000,1.00000,3,3,1,23.37491,0.00244,1.10581,-0.0360,-0.0648,0.0332,0.0000,0.0000,0.0000,44.75,-4.89,-10.98,1,1,1,38,220,84490,84490,64264,20225,0,60.00,2225,3072,0,0,0,0,0,0.00,0.00,0,0,0.0000,0.0000,0.0000,0.0000,0.0000
2026-04-20T20:04:32.221,0.644,1,-0.26,-0.39,0.10,-0.06,1,0.0360,0.0648,0.3169,0.0000,0.0000,0.0000,-44.79,2.65,66.22,122.54,39,39,1.00000,1.00000,1.00000,1.00000,3,3,1,23.41603,0.00244,1.10612,-0.0360,-0.0648,0.0331,0.0000,0.0000,0.0000,44.79,-4.65,-10.95,1,1,1,39,220,84490,84490,64264,20225,0,60.00,2225,3072,0,0,0,0,0,0.00,0.00,0,0,0.0000,0.0000,0.0000,0.0000,0.0000
2026-04-20T20:04:32.238,0.661,1,-0.26,-0.37,0.16,-0.04,1,0.0361,0.0649,0.3168,0.0000,0.0000,0.0000,-44.83,2.21,59.01,41.53,40,40,1.00000,1.00000,1.00000,1.00000,3,3,1,23.42269,0.00245,1.10278,-0.0361,-0.0649,0.0332,0.0000,0.0000,0.0000,44.83,-4.47,-10.90,1,1,1,40,219,84490,84490,64264,20225,0,60.00,2225,3072,0,0,0,0,0,0.00,0.00,0,0,0.0000,0.0000,0.0000,0.0000,0.0000
2026-04-20T20:04:32.251,0.674,1,-0.26,-0.37,0.16,-0.04,1,0.0358,0.0647,0.3169,0.0000,0.0000,0.0000,-44.82,-0.80,54.13,58.00,41,41,1.00000,1.00000,1.00000,1.00000,3,3,1,23.39800,0.00257,1.10473,-0.0358,-0.0647,0.0331,0.0000,0.0000,0.0000,44.82,-4.99,-10.91,1,1,1,41,220,84490,84490,64264,20225,0,60.00,2225,3072,0,0,0,0,0,0.00,0.00,0,0,0.0000,0.0000,0.0000,0.0000,0.0000
2026-04-20T20:04:32.271,0.695,1,-0.26,-0.37,0.16,-0.04,1,0.0358,0.0647,0.3168,0.0000,0.0000,0.0000,-44.82,0.00,100.90,61.73,42,42,1.00000,1.00000,1.00000,1.00000,3,3,1,23.45823,0.00256,1.10396,-0.0358,-0.0647,0.0332,0.0000,0.0000,0.0000,44.82,-5.14,-10.92,1,1,1,42,220,84490,84490,64264,20225,0,60.00,2225,3072,0,0,0,0,0,0.00,0.00,0,0,0.0000,0.0000,0.0000,0.0000,0.0000
2026-04-20T20:04:32.290,0.713,1,-0.26,-0.37,0.16,-0.04,1,0.0359,0.0647,0.3169,0.0000,0.0000,0.0000,-44.84,1.04,42.07,58.35,43,43,1.00000,1.00000,1.00000,1.00000,3,3,1,23.40006,0.00243,1.10544,-0.0359,-0.0647,0.0331,0.0000,0.0000,0.0000,44.84,-5.00,-10.91,1,1,1,43,217,84490,84490,64264,20225,0,60.00,2225,3072,0,0,0,0,0,0.00,0.00,0,0,0.0000,0.0000,0.0000,0.0000,0.0000
2026-04-20T20:04:32.306,0.729,1,-0.26,-0.37,0.16,-0.04,1,0.0359,0.0648,0.3168,0.0000,0.0000,0.0000,-44.84,0.00,54.33,77.83,44,44,1.00000,1.00000,1.00000,1.00000,3,3,1,23.40847,0.00242,1.10590,-0.0359,-0.0648,0.0332,0.0000,0.0000,0.0000,44.84,-4.89,-10.90,1,1,1,44,219,84490,84490,64264,20225,0,60.00,2225,3072,0,0,0,0,0,0.00,0.00,0,0,0.0000,0.0000,0.0000,0.0000,0.0000
2026-04-20T20:04:32.323,0.746,1,-0.26,-0.37,0.16,-0.04,1,0.0360,0.0648,0.3169,0.0000,0.0000,0.0000,-44.85,0.59,69.33,48.74,45,45,1.00000,1.00000,1.00000,1.00000,3,3,1,23.45540,0.00250,1.10535,-0.0360,-0.0648,0.0331,0.0000,0.0000,0.0000,44.85,-4.68,-10.91,1,1,1,45,220,84490,84490,64264,20225,0,60.00,2225,3072,0,0,0,0,0,0.00,0.00,0,0,0.0000,0.0000,0.0000,0.0000,0.0000
2026-04-20T20:04:32.339,0.762,1,-0.26,-0.38,0.11,0.00,1,0.0359,0.0647,0.3169,0.0000,0.0000,0.0000,-44.87,1.25,55.21,56.92,46,46,1.00000,1.00000,1.00000,1.00000,3,3,1,23.39832,0.00246,1.10407,-0.0359,-0.0647,0.0331,0.0000,0.0000,0.0000,44.87,-4.81,-10.85,1,1,1,46,220,84490,84490,64264,20225,0,60.00,2225,3072,0,0,0,0,0,0.00,0.00,0,0,0.0000,0.0000,0.0000,0.0000,0.0000
2026-04-20T20:04:32.355,0.778,1,-0.26,-0.38,0.11,0.00,1,0.0358,0.0648,0.3169,0.0000,0.0000,0.0000,-44.81,-3.75,67.18,76.06,47,47,1.00000,1.00000,1.00000,1.00000,3,3,1,23.41558,0.00260,1.10405,-0.0358,-0.0648,0.0331,0.0000,0.0000,0.0000,44.81,-5.12,-10.87,1,1,1,47,220,84490,84490,64264,20225,0,60.00,2225,3072,0,0,0,0,0,0.00,0.00,0,0,0.0000,0.0000,0.0000,0.0000,0.0000
2026-04-20T20:04:32.372,0.796,1,-0.26,-0.38,0.11,0.00,1,0.0361,0.0649,0.3168,0.0000,0.0000,0.0000,-44.79,-1.15,60.52,61.45,48,48,1.00000,1.00000,1.00000,1.00000,3,3,1,23.37874,0.00251,1.10455,-0.0361,-0.0649,0.0332,0.0000,0.0000,0.0000,44.79,-4.70,-10.93,1,1,1,48,219,84490,84490,64264,20225,0,60.00,2225,3072,0,0,0,0,0,0.00,0.00,0,0,0.0000,0.0000,0.0000,0.0000,0.0000
2026-04-20T20:04:32.390,0.813,1,-0.26,-0.39,0.13,0.05,1,0.0358,0.0648,0.3169,0.0000,0.0000,0.0000,-44.78,-0.60,59.23,49.60,49,49,1.00000,1.00000,1.00000,1.00000,3,3,1,23.44660,0.00268,1.10583,-0.0358,-0.0648,0.0331,0.0000,0.0000,0.0000,44.78,-5.08,-10.98,1,1,1,49,220,84490,84490,64264,20225,0,60.00,2225,3072,0,0,0,0,0,0.00,0.00,0,0,0.0000,0.0000,0.0000,0.0000,0.0000
2026-04-20T20:04:32.405,0.829,1,-0.26,-0.39,0.13,0.05,1,0.0361,0.0649,0.3169,0.0000,0.0000,0.0000,-44.76,-1.24,58.58,61.80,50,50,1.00000,1.00000,1.00000,1.00000,3,3,1,23.37318,0.00239,1.10617,-0.0361,-0.0649,0.0331,0.0000,0.0000,0.0000,44.76,-4.72,-10.99,1,1,1,50,220,84490,84490,64264,20225,0,60.00,2225,3072,0,0,0,0,0,0.00,0.00,0,0,0.0000,0.0000,0.0000,0.0000,0.0000
2026-04-20T20:04:32.422,0.845,1,-0.26,-0.39,0.13,0.05,1,0.0359,0.0648,0.3169,0.0000,0.0000,0.0000,-44.79,1.81,63.06,57.30,51,51,1.00000,1.00000,1.00000,1.00000,3,3,1,23.40893,0.00250,1.10509,-0.0359,-0.0648,0.0331,0.0000,0.0000,0.0000,44.79,-5.01,-10.94,1,1,1,51,217,84490,84490,64264,20225,0,60.00,2225,3072,0,0,0,0,0,0.00,0.00,0,0,0.0000,0.0000,0.0000,0.0000,0.0000
2026-04-20T20:04:32.438,0.862,1,-0.26,-0.39,0.13,0.05,1,0.0361,0.0649,0.3169,0.0000,0.0000,0.0000,-44.77,-1.22,56.71,61.43,52,52,1.00000,1.00000,1.00000,1.00000,3,3,1,23.35589,0.00233,1.10607,-0.0361,-0.0649,0.0331,0.0000,0.0000,0.0000,44.77,-4.67,-10.91,1,1,1,52,220,84490,84490,64264,20225,0,60.00,2225,3072,0,0,0,0,0,0.00,0.00,0,0,0.0000,0.0000,0.0000,0.0000,0.0000
2026-04-20T20:04:32.453,0.876,1,-0.26,-0.39,0.13,0.05,1,0.0361,0.0649,0.3169,0.0000,0.0000,0.0000,-44.76,-0.68,65.20,66.83,53,53,1.00000,1.00000,1.00000,1.00000,3,3,1,23.38305,0.00248,1.10513,-0.0361,-0.0649,0.0331,0.0000,0.0000,0.0000,44.76,-4.56,-10.91,1,1,1,53,220,84490,84490,64264,20225,0,60.00,2225,3072,0,0,0,0,0,0.00,0.00,0,0,0.0000,0.0000,0.0000,0.0000,0.0000
2026-04-20T20:04:32.472,0.895,1,-0.26,-0.39,0.13,0.05,1,0.0360,0.0649,0.3168,0.0000,0.0000,0.0000,-44.73,-1.63,67.75,84.05,54,54,1.00000,1.00000,1.00000,1.00000,3,3,1,23.41235,0.00255,1.10374,-0.0360,-0.0649,0.0332,0.0000,0.0000,0.0000,44.73,-4.85,-10.93,1,1,1,54,220,84490,84490,64264,20225,0,60.00,2225,3072,0,0,0,0,0,0.00,0.00,0,0,0.0000,0.0000,0.0000,0.0000,0.0000
2026-04-20T20:04:32.488,0.911,1,-0.26,-0.39,0.13,0.05,1,0.0362,0.0649,0.3169,0.0000,0.0000,0.0000,-44.74,0.63,51.47,44.18,55,55,1.00000,1.00000,1.00000,1.00000,3,3,1,23.40433,0.00252,1.10516,-0.0362,-0.0649,0.0331,0.0000,0.0000,0.0000,44.74,-4.62,-10.97,1,1,1,55,220,84490,84490,64264,20225,0,60.00,2225,3072,0,0,0,0,0,0.00,0.00,0,0,0.0000,0.0000,0.0000,0.0000,0.0000
2026-04-20T20:04:32.504,0.927,1,-0.26,-0.39,0.13,0.05,1,0.0359,0.0649,0.3169,0.0000,0.0000,0.0000,-44.76,1.24,67.03,61.13,56,56,1.00000,1.00000,1.00000,1.00000,3,3,1,23.42073,0.00264,1.10402,-0.0359,-0.0649,0.0331,0.0000,0.0000,0.0000,44.76,-5.02,-10.93,1,1,1,56,220,84490,84490,64264,20225,0,60.00,2225,3072,0,0,0,0,0,0.00,0.00,0,0,0.0000,0.0000,0.0000,0.0000,0.0000
2026-04-20T20:04:32.520,0.943,1,-0.26,-0.39,0.13,0.05,1,0.0359,0.0648,0.3168,0.0000,0.0000,0.0000,-44.79,1.85,58.70,59.95,57,57,1.00000,1.00000,1.00000,1.00000,3,3,1,23.44605,0.00255,1.10418,-0.0359,-0.0648,0.0332,0.0000,0.0000,0.0000,44.79,-5.17,-10.92,1,1,1,57,220,84490,84490,64264,20225,0,60.00,2225,3072,0,0,0,0,0,0.00,0.00,0,0,0.0000,0.0000,0.0000,0.0000,0.0000
2026-04-20T20:04:32.536,0.959,1,-0.25,-0.40,0.08,0.03,1,0.0359,0.0649,0.3168,0.0000,0.0000,0.0000,-44.84,3.11,63.18,60.23,58,58,1.00000,1.00000,1.00000,1.00000,3,3,1,23.38729,0.00244,1.10323,-0.0359,-0.0649,0.0332,0.0000,0.0000,0.0000,44.84,-5.18,-10.89,1,1,1,58,220,84490,84490,64264,20225,0,60.00,2225,3072,0,0,0,0,0,0.00,0.00,0,0,0.0000,0.0000,0.0000,0.0000,0.0000
2026-04-20T20:04:32.553,0.977,1,-0.25,-0.40,0.08,0.03,1,0.0361,0.0650,0.3167,0.0000,0.0000,0.0000,-44.83,-0.57,63.82,59.01,59,59,1.00000,1.00000,1.00000,1.00000,3,3,1,23.37007,0.00237,1.10421,-0.0361,-0.0650,0.0333,0.0000,0.0000,0.0000,44.83,-4.88,-10.93,1,1,1,59,220,84490,84490,64264,20225,0,60.00,2225,3072,0,0,0,0,0,0.00,0.00,0,0,0.0000,0.0000,0.0000,0.0000,0.0000
2026-04-20T20:04:32.572,0.995,1,-0.25,-0.40,0.08,0.03,1,0.0359,0.0648,0.3168,0.0000,0.0000,0.0000,-44.80,-1.70,53.61,60.57,60,60,1.00000,1.00000,1.00000,1.00000,3,3,1,23.40895,0.00260,1.10369,-0.0359,-0.0648,0.0332,0.0000,0.0000,0.0000,44.80,-5.08,-10.89,1,1,1,60,219,84490,84490,64264,20225,0,60.00,2225,3072,0,0,0,0,0,0.00,0.00,0,0,0.0000,0.0000,0.0000,0.0000,0.0000
2026-04-20T20:04:32.586,1.009,1,-0.25,-0.40,0.08,0.03,1,0.0359,0.0647,0.3170,0.0000,0.0000,0.0000,-44.83,1.96,54.39,59.49,61,61,1.00000,1.00000,1.00000,1.00000,3,3,1,23.41343,0.00254,1.10595,-0.0359,-0.0647,0.0330,0.0000,0.0000,0.0000,44.83,-5.16,-10.90,1,1,1,61,219,84490,84490,64264,20225,0,60.00,2225,3072,0,0,0,0,0,0.00,0.00,0,0,0.0000,0.0000,0.0000,0.0000,0.0000
2026-04-20T20:04:32.604,1.027,1,-0.25,-0.40,0.08,0.03,1,0.0359,0.0647,0.3169,0.0000,0.0000,0.0000,-44.81,-1.11,79.37,60.43,62,62,1.00000,1.00000,1.00000,1.00000,3,3,1,23.42481,0.00253,1.10289,-0.0359,-0.0647,0.0331,0.0000,0.0000,0.0000,44.81,-5.25,-10.83,1,1,1,62,220,84490,84490,64264,20225,0,60.00,2225,3072,0,0,0,0,0,0.00,0.00,0,0,0.0000,0.0000,0.0000,0.0000,0.0000
2026-04-20T20:04:32.621,1.044,1,-0.25,-0.40,0.08,0.03,1,0.0361,0.0649,0.3170,0.0000,0.0000,0.0000,-44.79,-1.22,55.11,73.56,63,63,1.00000,1.00000,1.00000,1.00000,3,3,1,23.39378,0.00248,1.10618,-0.0361,-0.0649,0.0330,0.0000,0.0000,0.0000,44.79,-4.83,-10.94,1,1,1,63,220,84490,84490,64264,20225,0,60.00,2225,3072,0,0,0,0,0,0.00,0.00,0,0,0.0000,0.0000,0.0000,0.0000,0.0000
2026-04-20T20:04:32.636,1.060,1,-0.25,-0.40,0.08,0.03,1,0.0361,0.0649,0.3169,0.0000,0.0000,0.0000,-44.72,-4.24,58.33,47.94,64,64,1.00000,1.00000,1.00000,1.00000,3,3,1,23.38409,0.00247,1.10737,-0.0361,-0.0649,0.0331,0.0000,0.0000,0.0000,44.72,-4.64,-11.04,1,1,1,64,220,84490,84490,64264,20225,0,60.00,2225,3072,0,0,0,0,0,0.00,0.00,0,0,0.0000,0.0000,0.0000,0.0000,0.0000
2026-04-20T20:04:32.652,1.075,1,-0.25,-0.40,0.08,0.03,1,0.0363,0.0650,0.3168,0.0000,0.0000,0.0000,-44.73,0.70,64.55,64.42,65,65,1.00000,1.00000,1.00000,1.00000,3,3,1,23.39576,0.00234,1.10459,-0.0363,-0.0650,0.0332,0.0000,0.0000,0.0000,44.73,-4.19,-10.97,1,1,1,65,220,84490,84490,64264,20225,0,60.00,2225,3072,0,0,0,0,0,0.00,0.00,0,0,0.0000,0.0000,0.0000,0.0000,0.0000
2026-04-20T20:04:32.669,1.093,1,-0.25,-0.40,0.08,0.03,1,0.0359,0.0648,0.3169,0.0000,0.0000,0.0000,-44.81,4.60,64.84,60.94,66,66,1.00000,1.00000,1.00000,1.00000,3,3,1,23.46739,0.00263,1.10308,-0.0359,-0.0648,0.0331,0.0000,0.0000,0.0000,44.81,-4.90,-10.87,1,1,1,66,219,84490,84490,64264,20225,0,60.00,2225,3072,0,0,0,0,0,0.00,0.00,0,0,0.0000,0.0000,0.0000,0.0000,0.0000
2026-04-20T20:04:32.687,1.111,1,-0.25,-0.40,0.08,0.03,1,0.0360,0.0648,0.3169,0.0000,0.0000,0.0000,-44.81,0.00,57.12,60.63,67,67,1.00000,1.00000,1.00000,1.00000,3,3,1,23.38886,0.00245,1.10561,-0.0360,-0.0648,0.0331,0.0000,0.0000,0.0000,44.81,-4.88,-10.86,1,1,1,67,220,84490,84490,64264,20225,0,60.00,2225,3072,0,0,0,0,0,0.00,0.00,0,0,0.0000,0.0000,0.0000,0.0000,0.0000
2026-04-20T20:04:32.702,1.126,1,-0.25,-0.40,0.08,0.03,1,0.0362,0.0649,0.3169,0.0000,0.0000,0.0000,-44.83,1.33,53.60,60.43,68,68,1.00000,1.00000,1.00000,1.00000,3,3,1,23.40513,0.00243,1.10545,-0.0362,-0.0649,0.0331,0.0000,0.0000,0.0000,44.83,-4.63,-10.88,1,1,1,68,220,84490,84490,64264,20225,0,60.00,2225,3072,0,0,0,0,0,0.00,0.00,0,0,0.0000,0.0000,0.0000,0.0000,0.0000
2026-04-20T20:04:32.720,1.144,1,-0.25,-0.40,0.08,0.03,1,0.0362,0.0649,0.3169,0.0000,0.0000,0.0000,-44.79,-2.27,74.88,60.26,69,69,1.00000,1.00000,1.00000,1.00000,3,3,1,23.39967,0.00245,1.10505,-0.0362,-0.0649,0.0331,0.0000,0.0000,0.0000,44.79,-4.36,-10.88,1,1,1,69,220,84490,84490,64264,20225,0,60.00,2225,3072,0,0,0,0,0,0.00,0.00,0,0,0.0000,0.0000,0.0000,0.0000,0.0000
2026-04-20T20:04:32.740,1.164,1,-0.25,-0.40,0.08,0.03,1,0.0362,0.0649,0.3169,0.0000,0.0000,0.0000,-44.80,0.49,52.47,52.41,70,70,1.00000,1.00000,1.00000,1.00000,3,3,1,23.40632,0.00249,1.10391,-0.0362,-0.0649,0.0331,0.0000,0.0000,0.0000,44.80,-4.44,-10.85,1,1,1,70,219,84490,84490,64264,20225,0,60.00,2225,3072,0,0,0,0,0,0.00,0.00,0,0,0.0000,0.0000,0.0000,0.0000,0.0000
2026-04-20T20:04:32.754,1.177,1,-0.28,-0.38,0.19,0.00,1,0.0361,0.0650,0.3168,0.0000,0.0000,0.0000,-44.77,-2.31,50.01,65.95,71,71,1.00000,1.00000,1.00000,1.00000,3,3,1,23.43160,0.00249,1.10511,-0.0361,-0.0650,0.0332,0.0000,0.0000,0.0000,44.77,-4.49,-10.88,1,1,1,71,220,84610,84610,64384,20225,0,60.00,2345,7359,0,0,0,0,0,0.00,0.00,0,0,0.0000,0.0000,0.0000,0.0000,0.0000
2026-04-20T20:04:32.772,1.195,1,-0.28,-0.38,0.19,0.00,1,0.0361,0.0649,0.3168,0.0000,0.0000,0.0000,-44.80,1.62,74.48,56.90,72,72,1.00000,1.00000,1.00000,1.00000,3,3,1,23.39545,0.00252,1.10496,-0.0361,-0.0649,0.0332,0.0000,0.0000,0.0000,44.80,-4.67,-10.91,1,1,1,72,219,84610,84610,64384,20225,0,60.00,2345,7359,0,0,0,0,0,0.00,0.00,0,0,0.0000,0.0000,0.0000,0.0000,0.0000
2026-04-20T20:04:32.789,1.212,1,-0.28,-0.38,0.19,0.00,1,0.0362,0.0650,0.3169,0.0000,0.0000,0.0000,-44.75,-2.93,54.02,60.84,73,73,1.00000,1.00000,1.00000,1.00000,3,3,1,23.41712,0.00248,1.10631,-0.0362,-0.0650,0.0331,0.0000,0.0000,0.0000,44.75,-4.57,-11.01,1,1,1,73,217,84610,84610,64384,20225,0,60.00,2345,7359,0,0,0,0,0,0.00,0.00,0,0,0.0000,0.0000,0.0000,0.0000,0.0000
2026-04-20T20:04:32.807,1.231,1,-0.27,-0.37,0.16,0.05,1,0.0361,0.0650,0.3168,0.0000,0.0000,0.0000,-44.79,2.25,62.97,63.38,74,74,1.00000,1.00000,1.00000,1.00000,3,3,1,23.38975,0.00241,1.10382,-0.0361,-0.0650,0.0332,0.0000,0.0000,0.0000,44.79,-4.67,-10.95,1,1,1,74,220,84610,84610,64384,20225,0,60.00,2345,7359,0,0,0,0,0,0.00,0.00,0,0,0.0000,0.0000,0.0000,0.0000,0.0000
2026-04-20T20:04:32.822,1.245,1,-0.27,-0.37,0.16,0.05,1,0.0362,0.0650,0.3168,0.0000,0.0000,0.0000,-44.81,1.25,52.52,57.62,75,75,1.00000,1.00000,1.00000,1.00000,3,3,1,23.43039,0.00245,1.10623,-0.0362,-0.0650,0.0332,0.0000,0.0000,0.0000,44.81,-4.49,-10.96,1,1,1,75,220,84610,84610,64384,20225,0,60.00,2345,7359,0,0,0,0,0,0.00,0.00,0,0,0.0000,0.0000,0.0000,0.0000,0.0000
2026-04-20T20:04:32.838,1.261,1,-0.27,-0.37,0.16,0.05,1,0.0361,0.0649,0.3169,0.0000,0.0000,0.0000,-44.83,1.29,67.21,59.85,76,76,1.00000,1.00000,1.00000,1.00000,3,3,1,23.37649,0.00246,1.10510,-0.0361,-0.0649,0.0331,0.0000,0.0000,0.0000,44.83,-4.67,-10.91,1,1,1,76,220,84610,84610,64384,20225,0,60.00,2345,7359,0,0,0,0,0,0.00,0.00,0,0,0.0000,0.0000,0.0000,0.0000,0.0000
2026-04-20T20:04:32.850,1.274,1,-0.27,-0.37,0.16,0.05,1,0.0362,0.0650,0.3170,0.0000,0.0000,0.0000,-44.84,0.76,65.57,63.93,77,77,1.00000,1.00000,1.00000,1.00000,3,3,1,23.38617,0.00252,1.10623,-0.0362,-0.0650,0.0330,0.0000,0.0000,0.0000,44.84,-4.61,-10.95,1,1,1,77,220,84610,84610,64384,20225,0,60.00,2345,7359,0,0,0,0,0,0.00,0.00,0,0,0.0000,0.0000,0.0000,0.0000,0.0000
2026-04-20T20:04:32.872,1.296,1,-0.27,-0.37,0.16,0.05,1,0.0362,0.0650,0.3168,0.0000,0.0000,0.0000,-44.81,-1.40,57.87,58.02,78,78,1.00000,1.00000,1.00000,1.00000,3,3,1,23.41596,0.00253,1.10512,-0.0362,-0.0650,0.0332,0.0000,0.0000,0.0000,44.81,-4.47,-10.97,1,1,1,78,220,84610,84610,64384,20225,0,60.00,2345,7359,0,0,0,0,0,0.00,0.00,0,0,0.0000,0.0000,0.0000,0.0000,0.0000
2026-04-20T20:04:32.888,1.312,1,-0.27,-0.37,0.16,0.05,1,0.0363,0.0651,0.3169,0.0000,0.0000,0.0000,-44.76,-3.28,53.63,63.73,79,79,1.00000,1.00000,1.00000,1.00000,3,3,1,23.40894,0.00244,1.10546,-0.0363,-0.0651,0.0331,0.0000,0.0000,0.0000,44.76,-4.23,-10.98,1,1,1,79,220,84610,84610,64384,20225,0,60.00,2345,7359,0,0,0,0,0,0.00,0.00,0,0,0.0000,0.0000,0.0000,0.0000,0.0000
2026-04-20T20:04:32.906,1.330,1,-0.24,-0.38,0.17,0.02,1,0.0361,0.0649,0.3169,0.0000,0.0000,0.0000,-44.77,0.55,71.48,61.61,80,80,1.00000,1.00000,1.00000,1.00000,3,3,1,23.43676,0.00265,1.10475,-0.0361,-0.0649,0.0331,0.0000,0.0000,0.0000,44.77,-4.60,-10.99,1,1,1,80,219,84610,84610,64384,20225,0,60.00,2345,7359,0,0,0,0,0,0.00,0.00,0,0,0.0000,0.0000,0.0000,0.0000,0.0000
2026-04-20T20:04:32.921,1.344,1,-0.24,-0.38,0.17,0.02,1,0.0361,0.0650,0.3169,0.0000,0.0000,0.0000,-44.75,-1.37,50.38,58.46,81,81,1.00000,1.00000,1.00000,1.00000,3,3,1,23.44103,0.00262,1.10661,-0.0361,-0.0650,0.0331,0.0000,0.0000,0.0000,44.75,-4.74,-11.06,1,1,1,81,220,84610,84610,64384,20225,0,60.00,2345,7359,0,0,0,0,0,0.00,0.00,0,0,0.0000,0.0000,0.0000,0.0000,0.0000
2026-04-20T20:04:32.938,1.361,1,-0.24,-0.38,0.17,0.02,1,0.0360,0.0649,0.3169,0.0000,0.0000,0.0000,-44.77,1.22,73.81,58.76,82,82,1.00000,1.00000,1.00000,1.00000,3,3,1,23.39032,0.00258,1.10574,-0.0360,-0.0649,0.0331,0.0000,0.0000,0.0000,44.77,-4.92,-11.08,1,1,1,82,220,84610,84610,64384,20225,0,60.00,2345,7359,0,0,0,0,0,0.00,0.00,0,0,0.0000,0.0000,0.0000,0.0000,0.0000
2026-04-20T20:04:32.954,1.378,1,-0.24,-0.38,0.17,0.02,1,0.0361,0.0650,0.3169,0.0000,0.0000,0.0000,-44.76,-0.58,55.54,58.60,83,83,1.00000,1.00000,1.00000,1.00000,3,3,1,23.42392,0.00252,1.10701,-0.0361,-0.0650,0.0331,0.0000,0.0000,0.0000,44.76,-4.66,-11.09,1,1,1,83,220,84610,84610,64384,20225,0,60.00,2345,7359,0,0,0,0,0,0.00,0.00,0,0,0.0000,0.0000,0.0000,0.0000,0.0000
2026-04-20T20:04:32.973,1.396,1,-0.24,-0.38,0.17,0.02,1,0.0362,0.0649,0.3170,0.0000,0.0000,0.0000,-44.82,3.25,64.64,59.67,84,84,1.00000,1.00000,1.00000,1.00000,3,3,1,23.40204,0.00244,1.10455,-0.0362,-0.0649,0.0330,0.0000,0.0000,0.0000,44.82,-4.39,-10.92,1,1,1,84,220,84610,84610,64384,20225,0,60.00,2345,7359,0,0,0,0,0,0.00,0.00,0,0,0.0000,0.0000,0.0000,0.0000,0.0000
2026-04-20T20:04:32.986,1.410,1,-0.24,-0.38,0.17,0.02,1,0.0361,0.0650,0.3169,0.0000,0.0000,0.0000,-44.81,-0.68,53.37,60.87,85,85,1.00000,1.00000,1.00000,1.00000,3,3,1,23.41563,0.00252,1.10551,-0.0361,-0.0650,0.0331,0.0000,0.0000,0.0000,44.81,-4.41,-10.92,1,1,1,85,220,84610,84610,64384,20225,0,60.00,2345,7359,0,0,0,0,0,0.00,0.00,0,0,0.0000,0.0000,0.0000,0.0000,0.0000
2026-04-20T20:04:33.005,1.428,1,-0.24,-0.38,0.17,0.02,1,0.0361,0.0649,0.3170,0.0000,0.0000,0.0000,-44.79,-1.07,80.49,58.32,86,86,1.00000,1.00000,1.00000,1.00000,3,3,1,23.37833,0.00241,1.10557,-0.0361,-0.0649,0.0330,0.0000,0.0000,0.0000,44.79,-4.46,-10.90,1,1,1,86,219,84610,84610,64384,20225,0,60.00,2345,7359,0,0,0,0,0,0.00,0.00,0,0,0.0000,0.0000,0.0000,0.0000,0.0000
2026-04-20T20:04:33.019,1.442,1,-0.25,-0.38,0.16,0.00,1,0.0360,0.0648,0.3170,0.0000,0.0000,0.0000,-44.84,3.71,47.22,62.70,87,87,1.00000,1.00000,1.00000,1.00000,3,3,1,23.38525,0.00248,1.10466,-0.0360,-0.0648,0.0330,0.0000,0.0000,0.0000,44.84,-4.68,-10.85,1,1,1,87,220,84610,84610,64384,20225,0,60.00,2345,7359,0,0,0,0,0,0.00,0.00,0,0,0.0000,0.0000,0.0000,0.0000,0.0000
2026-04-20T20:04:33.038,1.461,1,-0.25,-0.38,0.16,0.00,1,0.0361,0.0649,0.3169,0.0000,0.0000,0.0000,-44.83,-0.54,91.12,59.94,88,88,1.00000,1.00000,1.00000,1.00000,3,3,1,23.41319,0.00246,1.10279,-0.0361,-0.0649,0.0331,0.0000,0.0000,0.0000,44.83,-4.54,-10.82,1,1,1,88,220,84610,84610,64384,20225,0,60.00,2345,7359,0,0,0,0,0,0.00,0.00,0,0,0.0000,0.0000,0.0000,0.0000,0.0000
2026-04-20T20:04:33.054,1.478,1,-0.25,-0.38,0.16,0.00,1,0.0359,0.0649,0.3167,0.0000,0.0000,0.0000,-44.81,-1.24,49.12,58.81,89,89,1.00000,1.00000,1.00000,1.00000,3,3,1,23.43697,0.00251,1.10230,-0.0359,-0.0649,0.0333,0.0000,0.0000,0.0000,44.81,-4.78,-10.78,1,1,1,89,220,84610,84610,64384,20225,0,60.00,2345,7359,0,0,0,0,0,0.00,0.00,0,0,0.0000,0.0000,0.0000,0.0000,0.0000
2026-04-20T20:04:33.070,1.494,1,-0.25,-0.38,0.10,0.02,1,0.0360,0.0649,0.3168,0.0000,0.0000,0.0000,-44.81,0.00,60.56,60.21,90,90,1.00000,1.00000,1.00000,1.00000,3,3,1,23.41337,0.00249,1.10385,-0.0360,-0.0649,0.0332,0.0000,0.0000,0.0000,44.81,-4.63,-10.82,1,1,1,90,220,84610,84610,64384,20225,0,60.00,2345,7359,0,0,0,0,0,0.00,0.00,0,0,0.0000,0.0000,0.0000,0.0000,0.0000
2026-04-20T20:04:33.089,1.512,1,-0.25,-0.38,0.10,0.02,1,0.0359,0.0649,0.3168,0.0000,0.0000,0.0000,-44.81,0.00,66.79,66.14,91,91,1.00000,1.00000,1.00000,1.00000,3,3,1,23.39601,0.00252,1.10452,-0.0359,-0.0649,0.0332,0.0000,0.0000,0.0000,44.81,-4.81,-10.91,1,1,1,91,220,84610,84610,64384,20225,0,60.00,2345,7359,0,0,0,0,0,0.00,0.00,0,0,0.0000,0.0000,0.0000,0.0000,0.0000
2026-04-20T20:04:33.104,1.527,1,-0.25,-0.38,0.10,0.02,1,0.0361,0.0649,0.3168,0.0000,0.0000,0.0000,-44.82,0.67,50.36,54.48,92,92,1.00000,1.00000,1.00000,1.00000,3,3,1,23.42468,0.00251,1.10406,-0.0361,-0.0649,0.0332,0.0000,0.0000,0.0000,44.82,-4.46,-10.93,1,1,1,92,220,84610,84610,64384,20225,0,60.00,2345,7359,0,0,0,0,0,0.00,0.00,0,0,0.0000,0.0000,0.0000,0.0000,0.0000
2026-04-20T20:04:33.121,1.544,1,-0.26,-0.39,0.14,0.06,1,0.0361,0.0650,0.3166,0.0000,0.0000,0.0000,-44.83,0.60,67.11,60.11,93,93,1.00000,1.00000,1.00000,1.00000,3,3,1,23.41215,0.00237,1.10121,-0.0361,-0.0650,0.0334,0.0000,0.0000,0.0000,44.83,-4.31,-10.86,1,1,1,93,220,84610,84610,64384,20225,0,60.00,2345,7359,0,0,0,0,0,0.00,0.00,0,0,0.0000,0.0000,0.0000,0.0000,0.0000
2026-04-20T20:04:33.136,1.559,1,-0.26,-0.39,0.14,0.06,1,0.0360,0.0649,0.3166,0.0000,0.0000,0.0000,-44.77,-3.77,56.20,61.79,94,94,1.00000,1.00000,1.00000,1.00000,3,3,1,23.39650,0.00255,1.10460,-0.0360,-0.0649,0.0334,0.0000,0.0000,0.0000,44.77,-4.49,-10.91,1,1,1,94,220,84610,84610,64384,20225,0,60.00,2345,7359,0,0,0,0,0,0.00,0.00,0,0,0.0000,0.0000,0.0000,0.0000,0.0000
2026-04-20T20:04:33.154,1.577,1,-0.26,-0.39,0.14,0.06,1,0.0361,0.0649,0.3167,0.0000,0.0000,0.0000,-44.77,0.00,72.76,56.67,95,95,1.00000,1.00000,1.00000,1.00000,3,3,1,23.36149,0.00239,1.10588,-0.0361,-0.0649,0.0333,0.0000,0.0000,0.0000,44.77,-4.38,-10.90,1,1,1,95,219,84610,84610,64384,20225,0,60.00,2345,7359,0,0,0,0,0,0.00,0.00,0,0,0.0000,0.0000,0.0000,0.0000,0.0000
2026-04-20T20:04:33.170,1.593,1,-0.26,-0.39,0.14,0.06,1,0.0361,0.0651,0.3167,0.0000,0.0000,0.0000,-44.77,0.00,54.30,62.33,96,96,1.00000,1.00000,1.00000,1.00000,3,3,1,23.39545,0.00257,1.10755,-0.0361,-0.0651,0.0333,0.0000,0.0000,0.0000,44.77,-4.36,-10.98,1,1,1,96,220,84610,84610,64384,20225,0,60.00,2345,7359,0,0,0,0,0,0.00,0.00,0,0,0.0000,0.0000,0.0000,0.0000,0.0000
2026-04-20T20:04:33.187,1.610,1,-0.26,-0.39,0.14,0.06,1,0.0361,0.0650,0.3166,0.0000,0.0000,0.0000,-44.77,0.00,63.43,61.36,97,97,1.00000,1.00000,1.00000,1.00000,3,3,1,23.42798,0.00246,1.10523,-0.0361,-0.0650,0.0334,0.0000,0.0000,0.0000,44.77,-4.37,-11.00,1,1,1,97,217,84610,84610,64384,20225,0,60.00,2345,7359,0,0,0,0,0,0.00,0.00,0,0,0.0000,0.0000,0.0000,0.0000,0.0000
2026-04-20T20:04:33.204,1.627,1,-0.26,-0.39,0.14,0.06,1,0.0358,0.0649,0.3167,0.0000,0.0000,0.0000,-44.78,0.62,54.50,58.12,98,98,1.00000,1.00000,1.00000,1.00000,3,3,1,23.43796,0.00263,1.10339,-0.0358,-0.0649,0.0333,0.0000,0.0000,0.0000,44.78,-4.90,-10.94,1,1,1,98,219,84610,84610,64384,20225,0,60.00,2345,7359,0,0,0,0,0,0.00,0.00,0,0,0.0000,0.0000,0.0000,0.0000,0.0000
2026-04-20T20:04:33.221,1.644,1,-0.26,-0.41,0.14,-0.04,1,0.0360,0.0650,0.3167,0.0000,0.0000,0.0000,-44.77,-0.61,63.12,57.21,99,99,1.00000,1.00000,1.00000,1.00000,3,3,1,23.37167,0.00238,1.10631,-0.0360,-0.0650,0.0333,0.0000,0.0000,0.0000,44.77,-4.59,-10.93,1,1,1,99,220,84610,84610,64384,20225,0,60.00,2345,7359,0,0,0,0,0,0.00,0.00,0,0,0.0000,0.0000,0.0000,0.0000,0.0000
2026-04-20T20:04:33.238,1.661,1,-0.26,-0.41,0.14,-0.04,1,0.0357,0.0648,0.3168,0.0000,0.0000,0.0000,-44.80,1.71,60.82,65.20,100,100,1.00000,1.00000,1.00000,1.00000,3,3,1,23.41155,0.00260,1.10569,-0.0357,-0.0648,0.0332,0.0000,0.0000,0.0000,44.80,-5.08,-10.98,1,1,1,100,219,84610,84610,64384,20225,0,60.00,2345,7359,0,0,0,0,0,0.00,0.00,0,0,0.0000,0.0000,0.0000,0.0000,0.0000
2026-04-20T20:04:33.252,1.676,1,-0.26,-0.41,0.14,-0.04,1,0.0357,0.0647,0.3168,0.0000,0.0000,0.0000,-44.81,0.64,58.25,59.46,101,101,1.00000,1.00000,1.00000,1.00000,3,3,1,23.43680,0.00253,1.10415,-0.0357,-0.0647,0.0332,0.0000,0.0000,0.0000,44.81,-5.13,-10.93,1,1,1,101,220,84610,84610,64384,20225,0,60.00,2345,7359,0,0,0,0,0,0.00,0.00,0,0,0.0000,0.0000,0.0000,0.0000,0.0000
2026-04-20T20:04:33.270,1.694,1,-0.25,-0.42,0.16,0.00,1,0.0358,0.0649,0.3168,0.0000,0.0000,0.0000,-44.80,-0.55,73.59,60.57,102,102,1.00000,1.00000,1.00000,1.00000,3,3,1,23.37900,0.00237,1.10680,-0.0358,-0.0649,0.0332,0.0000,0.0000,0.0000,44.80,-4.80,-11.00,1,1,1,102,215,84610,84610,64384,20225,0,60.00,2345,7359,0,0,0,0,0,0.00,0.00,0,0,0.0000,0.0000,0.0000,0.0000,0.0000
2026-04-20T20:04:33.288,1.712,1,-0.25,-0.42,0.16,0.00,1,0.0359,0.0648,0.3168,0.0000,0.0000,0.0000,-44.82,1.11,48.41,59.01,103,103,1.00000,1.00000,1.00000,1.00000,3,3,1,23.41146,0.00255,1.10437,-0.0359,-0.0648,0.0332,0.0000,0.0000,0.0000,44.82,-4.67,-10.93,1,1,1,103,220,84610,84610,64384,20225,0,60.00,2345,7359,0,0,0,0,0,0.00,0.00,0,0,0.0000,0.0000,0.0000,0.0000,0.0000
2026-04-20T20:04:33.303,1.727,1,-0.25,-0.42,0.16,0.00,1,0.0359,0.0649,0.3168,0.0000,0.0000,0.0000,-44.81,-0.66,55.88,57.57,104,104,1.00000,1.00000,1.00000,1.00000,3,3,1,23.39842,0.00253,1.10489,-0.0359,-0.0649,0.0332,0.0000,0.0000,0.0000,44.81,-4.58,-10.92,1,1,1,104,220,84610,84610,64384,20225,0,60.00,2345,7359,0,0,0,0,0,0.00,0.00,0,0,0.0000,0.0000,0.0000,0.0000,0.0000
2026-04-20T20:04:33.321,1.745,1,-0.25,-0.42,0.16,0.00,1,0.0360,0.0648,0.3169,0.0000,0.0000,0.0000,-44.80,-0.59,73.47,63.98,105,105,1.00000,1.00000,1.00000,1.00000,3,3,1,23.38563,0.00250,1.10454,-0.0360,-0.0648,0.0331,0.0000,0.0000,0.0000,44.80,-4.59,-10.87,1,1,1,105,219,84610,84610,64384,20225,0,60.00,2345,7359,0,0,0,0,0,0.00,0.00,0,0,0.0000,0.0000,0.0000,0.0000,0.0000
2026-04-20T20:04:33.335,1.759,1,-0.25,-0.42,0.16,0.00,1,0.0359,0.0648,0.3167,0.0000,0.0000,0.0000,-44.83,2.25,55.61,61.20,106,106,1.00000,1.00000,1.00000,1.00000,3,3,1,23.38454,0.00241,1.10363,-0.0359,-0.0648,0.0333,0.0000,0.0000,0.0000,44.83,-4.66,-10.81,1,1,1,106,220,84610,84610,64384,20225,0,60.00,2345,7359,0,0,0,0,0,0.00,0.00,0,0,0.0000,0.0000,0.0000,0.0000,0.0000
2026-04-20T20:04:33.352,1.775,1,-0.25,-0.42,0.16,0.00,1,0.0359,0.0648,0.3168,0.0000,0.0000,0.0000,-44.85,1.11,72.44,59.05,107,107,1.00000,1.00000,1.00000,1.00000,3,3,1,23.41536,0.00252,1.10381,-0.0359,-0.0648,0.0332,0.0000,0.0000,0.0000,44.85,-4.59,-10.82,1,1,1,107,220,84610,84610,64384,20225,0,60.00,2345,7359,0,0,0,0,0,0.00,0.00,0,0,0.0000,0.0000,0.0000,0.0000,0.0000
2026-04-20T20:04:33.371,1.794,1,-0.25,-0.42,0.16,0.00,1,0.0360,0.0648,0.3168,0.0000,0.0000,0.0000,-44.85,0.00,60.46,60.04,108,108,1.00000,1.00000,1.00000,1.00000,3,3,1,23.41410,0.00246,1.10322,-0.0360,-0.0648,0.0332,0.0000,0.0000,0.0000,44.85,-4.53,-10.74,1,1,1,108,220,84610,84610,64384,20225,0,60.00,2345,7359,0,0,0,0,0,0.00,0.00,0,0,0.0000,0.0000,0.0000,0.0000,0.0000
2026-04-20T20:04:33.386,1.809,1,-0.26,-0.42,0.10,0.03,1,0.0359,0.0649,0.3167,0.0000,0.0000,0.0000,-44.79,-4.29,51.85,59.91,109,109,1.00000,1.00000,1.00000,1.00000,3,3,1,23.43953,0.00251,1.10312,-0.0359,-0.0649,0.0333,0.0000,0.0000,0.0000,44.79,-4.62,-10.79,1,1,1,109,220,84610,84610,64384,20225,0,60.00,2345,7359,0,0,0,0,0,0.00,0.00,0,0,0.0000,0.0000,0.0000,0.0000,0.0000
2026-04-20T20:04:33.402,1.825,1,-0.26,-0.42,0.10,0.03,1,0.0360,0.0649,0.3168,0.0000,0.0000,0.0000,-44.77,-1.20,69.01,59.95,110,110,1.00000,1.00000,1.00000,1.00000,3,3,1,23.41051,0.00255,1.10589,-0.0360,-0.0649,0.0332,0.0000,0.0000,0.0000,44.77,-4.57,-10.94,1,1,1,110,220,84610,84610,64384,20225,0,60.00,2345,7359,0,0,0,0,0,0.00,0.00,0,0,0.0000,0.0000,0.0000,0.0000,0.0000
2026-04-20T20:04:33.420,1.843,1,-0.26,-0.42,0.10,0.03,1,0.0361,0.0649,0.3167,0.0000,0.0000,0.0000,-44.74,-1.69,63.84,60.05,111,111,1.00000,1.00000,1.00000,1.00000,3,3,1,23.37955,0.00244,1.10554,-0.0361,-0.0649,0.0333,0.0000,0.0000,0.0000,44.74,-4.41,-10.98,1,1,1,111,220,84610,84610,64384,20225,0,60.00,2345,7359,0,0,0,0,0,0.00,0.00,0,0,0.0000,0.0000,0.0000,0.0000,0.0000
2026-04-20T20:04:33.436,1.859,1,-0.25,-0.43,0.16,0.03,1,0.0360,0.0649,0.3167,0.0000,0.0000,0.0000,-44.78,2.56,53.37,60.10,112,112,1.00000,1.00000,1.00000,1.00000,3,3,1,23.41605,0.00247,1.10256,-0.0360,-0.0649,0.0333,0.0000,0.0000,0.0000,44.78,-4.35,-10.88,1,1,1,112,220,84610,84610,64384,20225,0,60.00,2345,7359,0,0,0,0,0,0.00,0.00,0,0,0.0000,0.0000,0.0000,0.0000,0.0000
2026-04-20T20:04:33.452,1.876,1,-0.25,-0.43,0.16,0.03,1,0.0361,0.0649,0.3167,0.0000,0.0000,0.0000,-44.80,1.18,63.40,59.95,113,113,1.00000,1.00000,1.00000,1.00000,3,3,1,23.40563,0.00245,1.10323,-0.0361,-0.0649,0.0333,0.0000,0.0000,0.0000,44.80,-4.34,-10.84,1,1,1,113,219,84610,84610,64384,20225,0,60.00,2345,7359,0,0,0,0,0,0.00,0.00,0,0,0.0000,0.0000,0.0000,0.0000,0.0000
2026-04-20T20:04:33.470,1.894,1,-0.25,-0.43,0.16,0.03,1,0.0360,0.0649,0.3167,0.0000,0.0000,0.0000,-44.81,0.57,63.34,60.04,114,114,1.00000,1.00000,1.00000,1.00000,3,3,1,23.36614,0.00245,1.10589,-0.0360,-0.0649,0.0333,0.0000,0.0000,0.0000,44.81,-4.51,-10.93,1,1,1,114,220,84610,84610,64384,20225,0,60.00,2345,7359,0,0,0,0,0,0.00,0.00,0,0,0.0000,0.0000,0.0000,0.0000,0.0000
2026-04-20T20:04:33.485,1.908,1,-0.27,-0.43,0.11,0.03,1,0.0360,0.0649,0.3168,0.0000,0.0000,0.0000,-44.84,2.03,53.03,63.10,115,115,1.00000,1.00000,1.00000,1.00000,3,3,1,23.41083,0.00252,1.10404,-0.0360,-0.0649,0.0332,0.0000,0.0000,0.0000,44.84,-4.53,-10.87,1,1,1,115,220,84610,84610,64384,20225,0,60.00,2345,7359,0,0,0,0,0,0.00,0.00,0,0,0.0000,0.0000,0.0000,0.0000,0.0000
2026-04-20T20:04:33.500,1.924,1,-0.27,-0.43,0.11,0.03,1,0.0360,0.0649,0.3167,0.0000,0.0000,0.0000,-44.81,-1.82,67.31,56.94,116,116,1.00000,1.00000,1.00000,1.00000,3,3,1,23.38535,0.00239,1.10454,-0.0360,-0.0649,0.0333,0.0000,0.0000,0.0000,44.81,-4.59,-10.85,1,1,1,116,220,84610,84610,64384,20225,0,60.00,2345,7359,0,0,0,0,0,0.00,0.00,0,0,0.0000,0.0000,0.0000,0.0000,0.0000
2026-04-20T20:04:33.520,1.943,1,-0.27,-0.43,0.11,0.03,1,0.0360,0.0649,0.3168,0.0000,0.0000,0.0000,-44.84,1.63,58.03,61.73,117,117,1.00000,1.00000,1.00000,1.00000,3,3,1,23.41083,0.00252,1.10404,-0.0360,-0.0649,0.0332,0.0000,0.0000,0.0000,44.84,-4.57,-10.83,1,1,1,117,220,84610,84610,64384,20225,0,60.00,2345,7359,0,0,0,0,0,0.00,0.00,0,0,0.0000,0.0000,0.0000,0.0000,0.0000
2026-04-20T20:04:33.536,1.959,1,-0.27,-0.43,0.11,0.03,1,0.0361,0.0650,0.3167,0.0000,0.0000,0.0000,-44.80,-2.51,57.65,57.97,118,118,1.00000,1.00000,1.00000,1.00000,3,3,1,23.41862,0.00250,1.10470,-0.0361,-0.0650,0.0333,0.0000,0.0000,0.0000,44.80,-4.44,-10.93,1,1,1,118,219,84610,84610,64384,20225,0,60.00,2345,7359,0,0,0,0,0,0.00,0.00,0,0,0.0000,0.0000,0.0000,0.0000,0.0000
2026-04-20T20:04:33.552,1.975,1,-0.27,-0.43,0.11,0.03,1,0.0360,0.0649,0.3168,0.0000,0.0000,0.0000,-44.82,1.25,61.99,59.45,119,119,1.00000,1.00000,1.00000,1.00000,3,3,1,23.38580,0.00247,1.10586,-0.0360,-0.0649,0.0332,0.0000,0.0000,0.0000,44.82,-4.60,-10.93,1,1,1,119,219,84610,84610,64384,20225,0,60.00,2345,7359,0,0,0,0,0,0.00,0.00,0,0,0.0000,0.0000,0.0000,0.0000,0.0000
2026-04-20T20:04:33.572,1.996,1,-0.27,-0.43,0.11,0.03,1,0.0362,0.0650,0.3167,0.0000,0.0000,0.0000,-44.81,-0.48,63.43,59.28,120,120,1.00000,1.00000,1.00000,1.00000,3,3,1,23.42156,0.00243,1.10558,-0.0362,-0.0650,0.0333,0.0000,0.0000,0.0000,44.81,-4.29,-10.98,1,1,1,120,220,84610,84610,64384,20225,0,60.00,2345,7359,0,0,0,0,0,0.00,0.00,0,0,0.0000,0.0000,0.0000,0.0000,0.0000
2026-04-20T20:04:33.588,2.011,1,-0.27,-0.42,0.11,-0.06,1,0.0357,0.0648,0.3168,0.0000,0.0000,0.0000,-44.79,-1.32,47.70,55.58,121,121,1.00000,1.00000,1.00000,1.00000,3,3,1,23.40099,0.00260,1.10503,-0.0357,-0.0648,0.0332,0.0000,0.0000,0.0000,44.79,-4.99,-11.04,1,1,1,121,220,84610,84610,64384,20225,0,60.00,2345,7359,0,0,0,0,0,0.00,0.00,0,0,0.0000,0.0000,0.0000,0.0000,0.0000
2026-04-20T20:04:33.602,2.025,1,-0.27,-0.42,0.11,-0.06,1,0.0361,0.0649,0.3168,0.0000,0.0000,0.0000,-44.77,-1.33,61.64,66.10,122,122,1.00000,1.00000,1.00000,1.00000,3,3,1,23.40299,0.00250,1.10395,-0.0361,-0.0649,0.0332,0.0000,0.0000,0.0000,44.77,-4.68,-10.98,1,1,1,122,220,84610,84610,64384,20225,0,60.00,2345,7359,0,0,0,0,0,0.00,0.00,0,0,0.0000,0.0000,0.0000,0.0000,0.0000
2026-04-20T20:04:33.621,2.045,1,-0.27,-0.42,0.11,-0.06,1,0.0359,0.0648,0.3168,0.0000,0.0000,0.0000,-44.84,4.43,77.00,62.77,123,123,1.00000,1.00000,1.00000,1.00000,3,3,1,23.39258,0.00243,1.10320,-0.0359,-0.0648,0.0332,0.0000,0.0000,0.0000,44.84,-4.73,-10.84,1,1,1,123,220,84610,84610,64384,20225,0,60.00,2345,7359,0,0,0,0,0,0.00,0.00,0,0,0.0000,0.0000,0.0000,0.0000,0.0000
2026-04-20T20:04:33.638,2.062,1,-0.25,-0.42,0.17,0.11,1,0.0360,0.0648,0.3169,0.0000,0.0000,0.0000,-44.82,-0.95,54.12,67.37,124,124,1.00000,1.00000,1.00000,1.00000,3,3,1,23.41882,0.00253,1.10615,-0.0360,-0.0648,0.0331,0.0000,0.0000,0.0000,44.82,-4.67,-10.92,1,1,1,124,220,84610,84610,64384,20225,0,60.00,2345,7359,0,0,0,0,0,0.00,0.00,0,0,0.0000,0.0000,0.0000,0.0000,0.0000
2026-04-20T20:04:33.652,2.075,1,-0.25,-0.42,0.17,0.11,1,0.0357,0.0648,0.3167,0.0000,0.0000,0.0000,-44.81,-0.79,55.24,52.34,125,125,1.00000,1.00000,1.00000,1.00000,3,3,1,23.42940,0.00261,1.10526,-0.0357,-0.0648,0.0333,0.0000,0.0000,0.0000,44.81,-5.08,-10.96,1,1,1,125,220,84610,84610,64384,20225,0,60.00,2345,7359,0,0,0,0,0,0.00,0.00,0,0,0.0000,0.0000,0.0000,0.0000,0.0000
2026-04-20T20:04:33.670,2.093,1,-0.25,-0.42,0.17,0.11,1,0.0358,0.0648,0.3167,0.0000,0.0000,0.0000,-44.80,-0.53,73.16,61.83,126,126,1.00000,1.00000,1.00000,1.00000,3,3,1,23.45758,0.00259,1.10151,-0.0358,-0.0648,0.0333,0.0000,0.0000,0.0000,44.80,-5.21,-10.89,1,1,1,126,219,84610,84610,64384,20225,0,60.00,2345,7359,0,0,0,0,0,0.00,0.00,0,0,0.0000,0.0000,0.0000,0.0000,0.0000
2026-04-20T20:04:33.689,2.112,1,-0.25,-0.41,0.08,0.05,1,0.0359,0.0649,0.3168,0.0000,0.0000,0.0000,-44.74,-3.38,53.62,67.68,127,127,1.00000,1.00000,1.00000,1.00000,3,3,1,23.37525,0.00246,1.10731,-0.0359,-0.0649,0.0332,0.0000,0.0000,0.0000,44.74,-4.84,-11.01,1,1,1,127,217,84610,84610,64384,20225,0,60.00,2345,7359,0,0,0,0,0,0.00,0.00,0,0,0.0000,0.0000,0.0000,0.0000,0.0000
2026-04-20T20:04:33.705,2.128,1,-0.25,-0.41,0.08,0.05,1,0.0360,0.0649,0.3168,0.0000,0.0000,0.0000,-44.78,2.45,55.27,52.68,128,128,1.00000,1.00000,1.00000,1.00000,3,3,1,23.41283,0.00251,1.10440,-0.0360,-0.0649,0.0332,0.0000,0.0000,0.0000,44.78,-4.64,-10.96,1,1,1,128,220,84610,84610,64384,20225,0,60.00,2345,7359,0,0,0,0,0,0.00,0.00,0,0,0.0000,0.0000,0.0000,0.0000,0.0000
2026-04-20T20:04:33.720,2.143,1,-0.25,-0.41,0.08,0.05,1,0.0360,0.0649,0.3167,0.0000,0.0000,0.0000,-44.80,1.28,61.45,61.49,129,129,1.00000,1.00000,1.00000,1.00000,3,3,1,23.42442,0.00251,1.10424,-0.0360,-0.0649,0.0333,0.0000,0.0000,0.0000,44.80,-4.51,-10.96,1,1,1,129,219,84610,84610,64384,20225,0,60.00,2345,7359,0,0,0,0,0,0.00,0.00,0,0,0.0000,0.0000,0.0000,0.0000,0.0000
2026-04-20T20:04:33.738,2.162,1,-0.26,-0.40,0.07,0.00,1,0.0359,0.0648,0.3168,0.0000,0.0000,0.0000,-44.84,2.26,71.40,60.18,130,130,1.00000,1.00000,1.00000,1.00000,3,3,1,23.38595,0.00248,1.10465,-0.0359,-0.0648,0.0332,0.0000,0.0000,0.0000,44.84,-4.71,-10.88,1,1,1,130,220,84610,84610,64384,20225,0,60.00,2345,7359,0,0,0,0,0,0.00,0.00,0,0,0.0000,0.0000,0.0000,0.0000,0.0000
2026-04-20T20:04:33.752,2.175,1,-0.26,-0.40,0.07,0.00,1,0.0360,0.0649,0.3166,0.0000,0.0000,0.0000,-44.81,-2.11,48.21,43.81,131,131,1.00000,1.00000,1.00000,1.00000,3,3,1,23.39330,0.00236,1.10279,-0.0360,-0.0649,0.0334,0.0000,0.0000,0.0000,44.81,-4.59,-10.81,1,1,1,131,220,84670,84670,64444,20225,0,60.00,2405,11079,0,0,0,0,0,0.00,0.00,0,0,0.0000,0.0000,0.0000,0.0000,0.0000
2026-04-20T20:04:33.773,2.196,1,-0.26,-0.40,0.07,0.00,1,0.0360,0.0649,0.3167,0.0000,0.0000,0.0000,-44.82,0.49,93.27,43.81,132,132,1.00000,1.00000,1.00000,1.00000,3,3,1,23.41696,0.00251,1.10431,-0.0360,-0.0649,0.0333,0.0000,0.0000,0.0000,44.82,-4.51,-10.86,1,1,1,132,220,84670,84670,64444,20225,0,60.00,2405,11079,0,0,0,0,0,0.00,0.00,0,0,0.0000,0.0000,0.0000,0.0000,0.0000
2026-04-20T20:04:33.787,2.210,1,-0.26,-0.40,0.07,0.00,1,0.0360,0.0649,0.3168,0.0000,0.0000,0.0000,-44.84,1.45,44.11,36.55,133,133,1.00000,1.00000,1.00000,1.00000,3,3,1,23.38542,0.00248,1.10412,-0.0360,-0.0649,0.0332,0.0000,0.0000,0.0000,44.84,-4.52,-10.90,1,1,1,133,219,84670,84670,64444,20225,0,60.00,2405,11079,0,0,0,0,0,0.00,0.00,0,0,0.0000,0.0000,0.0000,0.0000,0.0000
2026-04-20T20:04:33.803,2.226,1,-0.26,-0.40,0.07,0.00,1,0.0361,0.0650,0.3167,0.0000,0.0000,0.0000,-44.78,-3.63,72.95,57.27,134,134,1.00000,1.00000,1.00000,1.00000,3,3,1,23.36926,0.00255,1.10536,-0.0361,-0.0650,0.0333,0.0000,0.0000,0.0000,44.78,-4.39,-10.96,1,1,1,134,220,84670,84670,64444,20225,0,60.00,2405,11079,0,0,0,0,0,0.00,0.00,0,0,0.0000,0.0000,0.0000,0.0000,0.0000
2026-04-20T20:04:33.820,2.243,1,-0.26,-0.40,0.07,0.00,1,0.0361,0.0649,0.3168,0.0000,0.0000,0.0000,-44.80,1.20,59.36,62.74,135,135,1.00000,1.00000,1.00000,1.00000,3,3,1,23.40546,0.00251,1.10448,-0.0361,-0.0649,0.0332,0.0000,0.0000,0.0000,44.80,-4.43,-10.92,1,1,1,135,219,84670,84670,64444,20225,0,60.00,2405,11079,0,0,0,0,0,0.00,0.00,0,0,0.0000,0.0000,0.0000,0.0000,0.0000
2026-04-20T20:04:33.836,2.259,1,-0.26,-0.40,0.07,0.00,1,0.0361,0.0649,0.3168,0.0000,0.0000,0.0000,-44.81,0.60,58.27,56.71,136,136,1.00000,1.00000,1.00000,1.00000,3,3,1,23.41932,0.00248,1.10509,-0.0361,-0.0649,0.0332,0.0000,0.0000,0.0000,44.81,-4.47,-10.92,1,1,1,136,220,84670,84670,64444,20225,0,60.00,2405,11079,0,0,0,0,0,0.00,0.00,0,0,0.0000,0.0000,0.0000,0.0000,0.0000
2026-04-20T20:04:33.854,2.277,1,-0.25,-0.37,0.17,-0.04,1,0.0359,0.0648,0.3169,0.0000,0.0000,0.0000,-44.82,0.58,68.77,72.66,137,137,1.00000,1.00000,1.00000,1.00000,3,3,1,23.38356,0.00252,1.10308,-0.0359,-0.0648,0.0331,0.0000,0.0000,0.0000,44.82,-4.86,-10.86,1,1,1,137,220,84670,84670,64444,20225,0,60.00,2405,11079,0,0,0,0,0,0.00,0.00,0,0,0.0000,0.0000,0.0000,0.0000,0.0000
2026-04-20T20:04:33.869,2.292,1,-0.25,-0.37,0.17,-0.04,1,0.0361,0.0649,0.3168,0.0000,0.0000,0.0000,-44.82,0.00,54.67,54.09,138,138,1.00000,1.00000,1.00000,1.00000,3,3,1,23.41814,0.00249,1.10381,-0.0361,-0.0649,0.0332,0.0000,0.0000,0.0000,44.82,-4.66,-10.87,1,1,1,138,220,84670,84670,64444,20225,0,60.00,2405,11079,0,0,0,0,0,0.00,0.00,0,0,0.0000,0.0000,0.0000,0.0000,0.0000
2026-04-20T20:04:33.887,2.310,1,-0.25,-0.37,0.17,-0.04,1,0.0359,0.0647,0.3169,0.0000,0.0000,0.0000,-44.85,1.67,64.81,61.74,139,139,1.00000,1.00000,1.00000,1.00000,3,3,1,23.41553,0.00256,1.10297,-0.0359,-0.0647,0.0331,0.0000,0.0000,0.0000,44.85,-4.97,-10.78,1,1,1,139,220,84670,84670,64444,20225,0,60.00,2405,11079,0,0,0,0,0,0.00,0.00,0,0,0.0000,0.0000,0.0000,0.0000,0.0000
2026-04-20T20:04:33.903,2.326,1,-0.26,-0.37,0.11,-0.06,1,0.0358,0.0648,0.3169,0.0000,0.0000,0.0000,-44.78,-4.27,57.09,56.59,140,140,1.00000,1.00000,1.00000,1.00000,3,3,1,23.42114,0.00268,1.10582,-0.0358,-0.0648,0.0331,0.0000,0.0000,0.0000,44.78,-5.24,-10.93,1,1,1,140,220,84670,84670,64444,20225,0,60.00,2405,11079,0,0,0,0,0,0.00,0.00,0,0,0.0000,0.0000,0.0000,0.0000,0.0000
2026-04-20T20:04:33.920,2.343,1,-0.26,-0.37,0.11,-0.06,1,0.0360,0.0649,0.3169,0.0000,0.0000,0.0000,-44.78,0.00,57.72,61.90,141,141,1.00000,1.00000,1.00000,1.00000,3,3,1,23.40632,0.00254,1.10597,-0.0360,-0.0649,0.0331,0.0000,0.0000,0.0000,44.78,-4.86,-10.93,1,1,1,141,220,84670,84670,64444,20225,0,60.00,2405,11079,0,0,0,0,0,0.00,0.00,0,0,0.0000,0.0000,0.0000,0.0000,0.0000
2026-04-20T20:04:33.938,2.361,1,-0.26,-0.37,0.11,-0.06,1,0.0361,0.0649,0.3168,0.0000,0.0000,0.0000,-44.79,0.59,63.49,60.15,142,142,1.00000,1.00000,1.00000,1.00000,3,3,1,23.40769,0.00252,1.10494,-0.0361,-0.0649,0.0332,0.0000,0.0000,0.0000,44.79,-4.60,-10.96,1,1,1,142,219,84670,84670,64444,20225,0,60.00,2405,11079,0,0,0,0,0,0.00,0.00,0,0,0.0000,0.0000,0.0000,0.0000,0.0000
2026-04-20T20:04:33.954,2.377,1,-0.26,-0.35,0.14,-0.03,1,0.0361,0.0649,0.3168,0.0000,0.0000,0.0000,-44.78,-0.61,54.56,56.30,143,143,1.00000,1.00000,1.00000,1.00000,3,3,1,23.40112,0.00252,1.10517,-0.0361,-0.0649,0.0332,0.0000,0.0000,0.0000,44.78,-4.50,-10.98,1,1,1,143,219,84670,84670,64444,20225,0,60.00,2405,11079,0,0,0,0,0,0.00,0.00,0,0,0.0000,0.0000,0.0000,0.0000,0.0000
2026-04-20T20:04:33.971,2.394,1,-0.26,-0.35,0.14,-0.03,1,0.0359,0.0647,0.3169,0.0000,0.0000,0.0000,-44.82,2.40,62.59,60.07,144,144,1.00000,1.00000,1.00000,1.00000,3,3,1,23.37977,0.00248,1.10449,-0.0359,-0.0647,0.0331,0.0000,0.0000,0.0000,44.82,-4.75,-10.88,1,1,1,144,220,84670,84670,64444,20225,0,60.00,2405,11079,0,0,0,0,0,0.00,0.00,0,0,0.0000,0.0000,0.0000,0.0000,0.0000
2026-04-20T20:04:33.987,2.410,1,-0.26,-0.35,0.14,-0.03,1,0.0360,0.0648,0.3169,0.0000,0.0000,0.0000,-44.85,1.73,60.04,58.54,145,145,1.00000,1.00000,1.00000,1.00000,3,3,1,23.41239,0.00251,1.10346,-0.0360,-0.0648,0.0331,0.0000,0.0000,0.0000,44.85,-4.68,-10.82,1,1,1,145,220,84670,84670,64444,20225,0,60.00,2405,11079,0,0,0,0,0,0.00,0.00,0,0,0.0000,0.0000,0.0000,0.0000,0.0000
2026-04-20T20:04:34.003,2.427,1,-0.26,-0.35,0.14,-0.03,1,0.0361,0.0649,0.3168,0.0000,0.0000,0.0000,-44.77,-5.24,65.06,65.68,146,146,1.00000,1.00000,1.00000,1.00000,3,3,1,23.39263,0.00253,1.10653,-0.0361,-0.0649,0.0332,0.0000,0.0000,0.0000,44.77,-4.54,-10.98,1,1,1,146,220,84670,84670,64444,20225,0,60.00,2405,11079,0,0,0,0,0,0.00,0.00,0,0,0.0000,0.0000,0.0000,0.0000,0.0000
2026-04-20T20:04:34.018,2.441,1,-0.26,-0.35,0.14,-0.03,1,0.0361,0.0649,0.3169,0.0000,0.0000,0.0000,-44.78,0.64,54.72,59.10,147,147,1.00000,1.00000,1.00000,1.00000,3,3,1,23.40547,0.00253,1.10483,-0.0361,-0.0649,0.0331,0.0000,0.0000,0.0000,44.78,-4.50,-10.96,1,1,1,147,219,84670,84670,64444,20225,0,60.00,2405,11079,0,0,0,0,0,0.00,0.00,0,0,0.0000,0.0000,0.0000,0.0000,0.0000
2026-04-20T20:04:34.038,2.461,1,-0.26,-0.35,0.14,-0.03,1,0.0360,0.0649,0.3169,0.0000,0.0000,0.0000,-44.84,3.22,79.03,61.06,148,148,1.00000,1.00000,1.00000,1.00000,3,3,1,23.37822,0.00248,1.10621,-0.0360,-0.0649,0.0331,0.0000,0.0000,0.0000,44.84,-4.65,-10.96,1,1,1,148,220,84670,84670,64444,20225,0,60.00,2405,11079,0,0,0,0,0,0.00,0.00,0,0,0.0000,0.0000,0.0000,0.0000,0.0000
2026-04-20T20:04:34.054,2.477,1,-0.26,-0.36,0.23,0.06,1,0.0361,0.0649,0.3169,0.0000,0.0000,0.0000,-44.84,0.00,48.35,60.34,149,149,1.00000,1.00000,1.00000,1.00000,3,3,1,23.40343,0.00254,1.10566,-0.0361,-0.0649,0.0331,0.0000,0.0000,0.0000,44.84,-4.55,-10.93,1,1,1,149,220,84670,84670,64444,20225,0,60.00,2405,11079,0,0,0,0,0,0.00,0.00,0,0,0.0000,0.0000,0.0000,0.0000,0.0000
2026-04-20T20:04:34.069,2.492,1,-0.26,-0.36,0.23,0.06,1,0.0360,0.0648,0.3169,0.0000,0.0000,0.0000,-44.87,1.82,62.87,56.43,150,150,1.00000,1.00000,1.00000,1.00000,3,3,1,23.38978,0.00248,1.10484,-0.0360,-0.0648,0.0331,0.0000,0.0000,0.0000,44.87,-4.73,-10.82,1,1,1,150,220,84670,84670,64444,20225,0,60.00,2405,11079,0,0,0,0,0,0.00,0.00,0,0,0.0000,0.0000,0.0000,0.0000,0.0000
2026-04-20T20:04:34.088,2.511,1,-0.26,-0.36,0.23,0.06,1,0.0361,0.0649,0.3169,0.0000,0.0000,0.0000,-44.82,-2.83,63.85,63.65,151,151,1.00000,1.00000,1.00000,1.00000,3,3,1,23.38132,0.00254,1.10472,-0.0361,-0.0649,0.0331,0.0000,0.0000,0.0000,44.82,-4.62,-10.84,1,1,1,151,220,84670,84670,64444,20225,0,60.00,2405,11079,0,0,0,0,0,0.00,0.00,0,0,0.0000,0.0000,0.0000,0.0000,0.0000
2026-04-20T20:04:34.102,2.526,1,-0.26,-0.36,0.16,0.02,1,0.0360,0.0649,0.3168,0.0000,0.0000,0.0000,-44.76,-4.19,54.14,58.61,152,152,1.00000,1.00000,1.00000,1.00000,3,3,1,23.37592,0.00248,1.10534,-0.0360,-0.0649,0.0332,0.0000,0.0000,0.0000,44.76,-4.74,-10.91,1,1,1,152,220,84670,84670,64444,20225,0,60.00,2405,11079,0,0,0,0,0,0.00,0.00,0,0,0.0000,0.0000,0.0000,0.0000,0.0000
2026-04-20T20:04:34.120,2.543,1,-0.26,-0.36,0.16,0.02,1,0.0363,0.0650,0.3166,0.0000,0.0000,0.0000,-44.76,0.00,68.57,61.75,153,153,1.00000,1.00000,1.00000,1.00000,3,3,1,23.42011,0.00239,1.10347,-0.0363,-0.0650,0.0334,0.0000,0.0000,0.0000,44.76,-4.33,-10.86,1,1,1,153,220,84670,84670,64444,20225,0,60.00,2405,11079,0,0,0,0,0,0.00,0.00,0,0,0.0000,0.0000,0.0000,0.0000,0.0000
2026-04-20T20:04:34.136,2.559,1,-0.26,-0.36,0.16,0.02,1,0.0361,0.0650,0.3168,0.0000,0.0000,0.0000,-44.75,-0.68,53.40,60.26,154,154,1.00000,1.00000,1.00000,1.00000,3,3,1,23.41281,0.00251,1.10677,-0.0361,-0.0650,0.0332,0.0000,0.0000,0.0000,44.75,-4.32,-10.95,1,1,1,154,220,84670,84670,64444,20225,0,60.00,2405,11079,0,0,0,0,0,0.00,0.00,0,0,0.0000,0.0000,0.0000,0.0000,0.0000
2026-04-20T20:04:34.153,2.576,1,-0.26,-0.36,0.16,0.02,1,0.0358,0.0648,0.3168,0.0000,0.0000,0.0000,-44.75,0.00,63.37,56.06,155,155,1.00000,1.00000,1.00000,1.00000,3,3,1,23.43037,0.00254,1.10461,-0.0358,-0.0648,0.0332,0.0000,0.0000,0.0000,44.75,-4.98,-10.96,1,1,1,155,220,84670,84670,64444,20225,0,60.00,2405,11079,0,0,0,0,0,0.00,0.00,0,0,0.0000,0.0000,0.0000,0.0000,0.0000
2026-04-20T20:04:34.170,2.593,1,-0.26,-0.36,0.16,0.02,1,0.0358,0.0648,0.3168,0.0000,0.0000,0.0000,-44.81,3.50,63.21,64.11,156,156,1.00000,1.00000,1.00000,1.00000,3,3,1,23.38484,0.00255,1.10430,-0.0358,-0.0648,0.0332,0.0000,0.0000,0.0000,44.81,-5.25,-10.83,1,1,1,156,220,84670,84670,64444,20225,0,60.00,2405,11079,0,0,0,0,0,0.00,0.00,0,0,0.0000,0.0000,0.0000,0.0000,0.0000
2026-04-20T20:04:34.185,2.609,1,-0.26,-0.36,0.16,0.02,1,0.0358,0.0648,0.3168,0.0000,0.0000,0.0000,-44.81,0.00,58.42,58.95,157,157,1.00000,1.00000,1.00000,1.00000,3,3,1,23.41429,0.00258,1.10408,-0.0358,-0.0648,0.0332,0.0000,0.0000,0.0000,44.81,-5.43,-10.86,1,1,1,157,220,84670,84670,64444,20225,0,60.00,2405,11079,0,0,0,0,0,0.00,0.00,0,0,0.0000,0.0000,0.0000,0.0000,0.0000
2026-04-20T20:04:34.206,2.629,1,-0.26,-0.36,0.16,0.02,1,0.0360,0.0649,0.3169,0.0000,0.0000,0.0000,-44.83,0.99,68.50,56.11,158,158,1.00000,1.00000,1.00000,1.00000,3,3,1,23.38688,0.00246,1.10868,-0.0360,-0.0649,0.0331,0.0000,0.0000,0.0000,44.83,-4.98,-10.97,1,1,1,158,220,84670,84670,64444,20225,0,60.00,2405,11079,0,0,0,0,0,0.00,0.00,0,0,0.0000,0.0000,0.0000,0.0000,0.0000
2026-04-20T20:04:34.217,2.641,1,-0.26,-0.36,0.16,0.02,1,0.0357,0.0646,0.3171,0.0000,0.0000,0.0000,-44.82,-0.77,46.41,64.09,159,159,1.00000,1.00000,1.00000,1.00000,3,3,1,23.42464,0.00275,1.10433,-0.0357,-0.0646,0.0329,0.0000,0.0000,0.0000,44.82,-5.45,-10.94,1,1,1,159,220,84670,84670,64444,20225,0,60.00,2405,11079,0,0,0,0,0,0.00,0.00,0,0,0.0000,0.0000,0.0000,0.0000,0.0000
