iso_time,elapsed_s,imu_ready,imu_pitch_deg,imu_roll_deg,imu_pitch_rate_deg_s,imu_roll_rate_deg_s,mocap_valid,mocap_x_error_m,mocap_y_error_m,mocap_z_error_m,mocap_vx_m_s,mocap_vy_m_s,mocap_vz_m_s,mocap_yaw_error_deg,mocap_yaw_rate_deg_s,backend_loop_hz,tracking_loop_hz,frames_processed,valid_pose_frames,pose_success_rate,full_marker_detection_rate,cam1_full_detection_rate,cam2_full_detection_rate,cam1_leds,cam2_leds,spatial_data_valid,mapping_error_px,model_fit_error_m,scale_factor,position_x_m,position_y_m,position_z_m,velocity_x_m_s,velocity_y_m_s,velocity_z_m_s,yaw_deg,pitch_deg,roll_deg,serial_connected,serial_send_enabled,serial_send_ok,serial_payload_seq,serial_payload_size_bytes,bridge_serial_frames_rx,bridge_espnow_tx_attempts,bridge_espnow_tx_ok,bridge_espnow_tx_fail,bridge_oversize_drops,bridge_tx_rate_hz,bridge_last_tx_seq,bridge_last_tx_latency_us,controller_rx_packets,controller_rx_missing_packets,controller_rx_duplicate_packets,controller_rx_out_of_order_packets,controller_last_rx_seq,controller_loop_hz,controller_control_hz,controller_command_age_ms,controller_apply_latency_us,controller_motor_imbalance,motor_1_output,motor_2_output,motor_3_output,motor_4_output
2026-04-20T19:14:33.225,0.015,0,0.00,0.00,0.00,0.00,0,0.0000,0.0000,0.3500,0.0000,0.0000,0.0000,0.00,0.00,57.67,58.50,1,0,0.00000,0.00000,0.00000,0.00000,0,0,0,0.00000,0.00000,1.00000,0.0000,0.0000,0.0000,0.0000,0.0000,0.0000,0.00,0.00,0.00,1,1,1,1,194,0,0,0,0,0,0.00,0,0,0,0,0,0,0,0.00,0.00,0,0,0.0000,0.0000,0.0000,0.0000,0.0000
2026-04-20T19:14:33.241,0.032,0,0.00,0.00,0.00,0.00,0,0.0000,0.0000,0.3500,0.0000,0.0000,0.0000,0.00,0.00,65.43,62.06,2,0,0.00000,0.00000,0.00000,0.00000,0,0,0,0.00000,0.00000,1.00000,0.0000,0.0000,0.0000,0.0000,0.0000,0.0000,0.00,0.00,0.00,1,1,1,2,194,0,0,0,0,0,0.00,0,0,0,0,0,0,0,0.00,0.00,0,0,0.0000,0.0000,0.0000,0.0000,0.0000
2026-04-20T19:14:33.255,0.046,0,0.00,0.00,0.00,0.00,0,0.0000,0.0000,0.3500,0.0000,0.0000,0.0000,0.00,0.00,61.19,65.06,3,0,0.00000,0.00000,0.00000,0.00000,0,0,0,0.00000,0.00000,1.00000,0.0000,0.0000,0.0000,0.0000,0.0000,0.0000,0.00,0.00,0.00,1,1,1,3,194,0,0,0,0,0,0.00,0,0,0,0,0,0,0,0.00,0.00,0,0,0.0000,0.0000,0.0000,0.0000,0.0000
2026-04-20T19:14:33.275,0.065,0,0.00,0.00,0.00,0.00,0,0.0000,0.0000,0.3500,0.0000,0.0000,0.0000,0.00,0.00,56.80,54.53,4,0,0.00000,0.00000,0.00000,0.00000,0,0,0,0.00000,0.00000,1.00000,0.0000,0.0000,0.0000,0.0000,0.0000,0.0000,0.00,0.00,0.00,1,1,1,4,194,0,0,0,0,0,0.00,0,0,0,0,0,0,0,0.00,0.00,0,0,0.0000,0.0000,0.0000,0.0000,0.0000
2026-04-20T19:14:33.291,0.081,0,0.00,0.00,0.00,0.00,0,0.0000,0.0000,0.3500,0.0000,0.0000,0.0000,0.00,0.00,65.13,58.62,5,0,0.00000,0.00000,0.00000,0.00000,0,0,0,0.00000,0.00000,1.00000,0.0000,0.0000,0.0000,0.0000,0.0000,0.0000,0.00,0.00,0.00,1,1,1,5,194,0,0,0,0,0,0.00,0,0,0,0,0,0,0,0.00,0.00,0,0,0.0000,0.0000,0.0000,0.0000,0.0000
2026-04-20T19:14:33.300,0.090,0,0.00,0.00,0.00,0.00,0,0.0000,0.0000,0.3500,0.0000,0.0000,0.0000,0.00,0.00,59.15,109.55,6,0,0.00000,0.00000,0.00000,0.00000,0,0,0,0.00000,0.00000,1.00000,0.0000,0.0000,0.0000,0.0000,0.0000,0.0000,0.00,0.00,0.00,1,1,1,6,194,0,0,0,0,0,0.00,0,0,0,0,0,0,0,0.00,0.00,0,0,0.0000,0.0000,0.0000,0.0000,0.0000
2026-04-20T19:14:33.311,0.102,0,0.00,0.00,0.00,0.00,0,0.0000,0.0000,0.3500,0.0000,0.0000,0.0000,0.00,0.00,129.75,87.45,7,0,0.00000,0.00000,0.00000,0.00000,0,0,0,0.00000,0.00000,1.00000,0.0000,0.0000,0.0000,0.0000,0.0000,0.0000,0.00,0.00,0.00,1,1,1,7,194,0,0,0,0,0,0.00,0,0,0,0,0,0,0,0.00,0.00,0,0,0.0000,0.0000,0.0000,0.0000,0.0000
2026-04-20T19:14:33.340,0.131,0,0.00,0.00,0.00,0.00,0,0.0000,0.0000,0.3500,0.0000,0.0000,0.0000,0.00,0.00,39.53,34.91,8,0,0.00000,0.00000,0.00000,0.00000,0,0,0,0.00000,0.00000,1.00000,0.0000,0.0000,0.0000,0.0000,0.0000,0.0000,0.00,0.00,0.00,1,1,1,8,194,0,0,0,0,0,0.00,0,0,0,0,0,0,0,0.00,0.00,0,0,0.0000,0.0000,0.0000,0.0000,0.0000
2026-04-20T19:14:33.346,0.137,0,0.00,0.00,0.00,0.00,0,0.0000,0.0000,0.3500,0.0000,0.0000,0.0000,0.00,0.00,67.64,161.94,9,0,0.00000,0.00000,0.00000,0.00000,0,0,0,0.00000,0.00000,1.00000,0.0000,0.0000,0.0000,0.0000,0.0000,0.0000,0.00,0.00,0.00,1,1,1,9,194,0,0,0,0,0,0.00,0,0,0,0,0,0,0,0.00,0.00,0,0,0.0000,0.0000,0.0000,0.0000,0.0000
2026-04-20T19:14:33.374,0.165,0,0.00,0.00,0.00,0.00,0,0.0000,0.0000,0.3500,0.0000,0.0000,0.0000,0.00,0.00,52.81,35.95,10,0,0.00000,0.00000,0.00000,0.00000,0,0,0,0.00000,0.00000,1.00000,0.0000,0.0000,0.0000,0.0000,0.0000,0.0000,0.00,0.00,0.00,1,1,1,10,194,0,0,0,0,0,0.00,0,0,0,0,0,0,0,0.00,0.00,0,0,0.0000,0.0000,0.0000,0.0000,0.0000
2026-04-20T19:14:33.392,0.182,0,0.00,0.00,0.00,0.00,0,0.0000,0.0000,0.3500,0.0000,0.0000,0.0000,0.00,0.00,59.99,61.04,11,0,0.00000,0.00000,0.00000,0.00000,0,0,0,0.00000,0.00000,1.00000,0.0000,0.0000,0.0000,0.0000,0.0000,0.0000,0.00,0.00,0.00,1,1,1,11,194,0,0,0,0,0,0.00,0,0,0,0,0,0,0,0.00,0.00,0,0,0.0000,0.0000,0.0000,0.0000,0.0000
2026-04-20T19:14:33.409,0.199,0,0.00,0.00,0.00,0.00,0,0.0000,0.0000,0.3500,0.0000,0.0000,0.0000,0.00,0.00,58.88,75.09,12,0,0.00000,0.00000,0.00000,0.00000,0,0,0,0.00000,0.00000,1.00000,0.0000,0.0000,0.0000,0.0000,0.0000,0.0000,0.00,0.00,0.00,1,1,1,12,194,0,0,0,0,0,0.00,0,0,0,0,0,0,0,0.00,0.00,0,0,0.0000,0.0000,0.0000,0.0000,0.0000
2026-04-20T19:14:33.424,0.214,0,0.00,0.00,0.00,0.00,0,0.0000,0.0000,0.3500,0.0000,0.0000,0.0000,0.00,0.00,57.66,49.43,13,0,0.00000,0.00000,0.00000,0.00000,0,0,0,0.00000,0.00000,1.00000,0.0000,0.0000,0.0000,0.0000,0.0000,0.0000,0.00,0.00,0.00,1,1,1,13,194,0,0,0,0,0,0.00,0,0,0,0,0,0,0,0.00,0.00,0,0,0.0000,0.0000,0.0000,0.0000,0.0000
2026-04-20T19:14:33.440,0.230,0,0.00,0.00,0.00,0.00,0,0.0000,0.0000,0.3500,0.0000,0.0000,0.0000,0.00,0.00,63.93,62.62,14,0,0.00000,0.00000,0.00000,0.00000,0,0,0,0.00000,0.00000,1.00000,0.0000,0.0000,0.0000,0.0000,0.0000,0.0000,0.00,0.00,0.00,1,1,1,14,194,0,0,0,0,0,0.00,0,0,0,0,0,0,0,0.00,0.00,0,0,0.0000,0.0000,0.0000,0.0000,0.0000
2026-04-20T19:14:33.457,0.247,0,0.00,0.00,0.00,0.00,0,0.0000,0.0000,0.3500,0.0000,0.0000,0.0000,0.00,0.00,59.75,59.93,15,0,0.00000,0.00000,0.00000,0.00000,0,0,0,0.00000,0.00000,1.00000,0.0000,0.0000,0.0000,0.0000,0.0000,0.0000,0.00,0.00,0.00,1,1,1,15,194,0,0,0,0,0,0.00,0,0,0,0,0,0,0,0.00,0.00,0,0,0.0000,0.0000,0.0000,0.0000,0.0000
2026-04-20T19:14:33.474,0.265,0,0.00,0.00,0.00,0.00,0,0.0000,0.0000,0.3500,0.0000,0.0000,0.0000,0.00,0.00,70.13,60.74,16,0,0.00000,0.00000,0.00000,0.00000,0,0,0,0.00000,0.00000,1.00000,0.0000,0.0000,0.0000,0.0000,0.0000,0.0000,0.00,0.00,0.00,1,1,1,16,194,0,0,0,0,0,0.00,0,0,0,0,0,0,0,0.00,0.00,0,0,0.0000,0.0000,0.0000,0.0000,0.0000
2026-04-20T19:14:33.491,0.281,0,0.00,0.00,0.00,0.00,0,0.0000,0.0000,0.3500,0.0000,0.0000,0.0000,0.00,0.00,52.59,59.94,17,0,0.00000,0.00000,0.00000,0.00000,0,0,0,0.00000,0.00000,1.00000,0.0000,0.0000,0.0000,0.0000,0.0000,0.0000,0.00,0.00,0.00,1,1,1,17,194,0,0,0,0,0,0.00,0,0,0,0,0,0,0,0.00,0.00,0,0,0.0000,0.0000,0.0000,0.0000,0.0000
2026-04-20T19:14:33.508,0.298,0,0.00,0.00,0.00,0.00,0,0.0000,0.0000,0.3500,0.0000,0.0000,0.0000,0.00,0.00,62.97,61.03,18,0,0.00000,0.00000,0.00000,0.00000,0,0,0,0.00000,0.00000,1.00000,0.0000,0.0000,0.0000,0.0000,0.0000,0.0000,0.00,0.00,0.00,1,1,1,18,194,0,0,0,0,0,0.00,0,0,0,0,0,0,0,0.00,0.00,0,0,0.0000,0.0000,0.0000,0.0000,0.0000
2026-04-20T19:14:33.524,0.314,0,0.00,0.00,0.00,0.00,0,0.0000,0.0000,0.3500,0.0000,0.0000,0.0000,0.00,0.00,57.55,59.46,19,0,0.00000,0.00000,0.00000,0.00000,0,0,0,0.00000,0.00000,1.00000,0.0000,0.0000,0.0000,0.0000,0.0000,0.0000,0.00,0.00,0.00,1,1,1,19,194,0,0,0,0,0,0.00,0,0,0,0,0,0,0,0.00,0.00,0,0,0.0000,0.0000,0.0000,0.0000,0.0000
2026-04-20T19:14:33.540,0.331,0,0.00,0.00,0.00,0.00,0,0.0000,0.0000,0.3500,0.0000,0.0000,0.0000,0.00,0.00,61.55,57.93,20,0,0.00000,0.00000,0.00000,0.00000,0,0,0,0.00000,0.00000,1.00000,0.0000,0.0000,0.0000,0.0000,0.0000,0.0000,0.00,0.00,0.00,1,1,1,20,194,0,0,0,0,0,0.00,0,0,0,0,0,0,0,0.00,0.00,0,0,0.0000,0.0000,0.0000,0.0000,0.0000
2026-04-20T19:14:33.552,0.342,0,0.00,0.00,0.00,0.00,0,0.0000,0.0000,0.3500,0.0000,0.0000,0.0000,0.00,0.00,60.24,85.15,21,0,0.00000,0.00000,0.00000,0.00000,0,0,0,0.00000,0.00000,1.00000,0.0000,0.0000,0.0000,0.0000,0.0000,0.0000,0.00,0.00,0.00,1,1,1,21,194,0,0,0,0,0,0.00,0,0,0,0,0,0,0,0.00,0.00,0,0,0.0000,0.0000,0.0000,0.0000,0.0000
2026-04-20T19:14:33.564,0.354,0,0.00,0.00,0.00,0.00,0,0.0000,0.0000,0.3500,0.0000,0.0000,0.0000,0.00,0.00,97.67,83.07,22,0,0.00000,0.00000,0.00000,0.00000,0,0,0,0.00000,0.00000,1.00000,0.0000,0.0000,0.0000,0.0000,0.0000,0.0000,0.00,0.00,0.00,1,1,1,22,194,0,0,0,0,0,0.00,0,0,0,0,0,0,0,0.00,0.00,0,0,0.0000,0.0000,0.0000,0.0000,0.0000
2026-04-20T19:14:33.592,0.382,0,0.00,0.00,0.00,0.00,0,0.0000,0.0000,0.3500,0.0000,0.0000,0.0000,0.00,0.00,42.28,57.43,23,0,0.00000,0.00000,0.00000,0.00000,0,0,0,0.00000,0.00000,1.00000,0.0000,0.0000,0.0000,0.0000,0.0000,0.0000,0.00,0.00,0.00,1,1,1,23,194,0,0,0,0,0,0.00,0,0,0,0,0,0,0,0.00,0.00,0,0,0.0000,0.0000,0.0000,0.0000,0.0000
2026-04-20T19:14:33.599,0.390,0,0.00,0.00,0.00,0.00,0,0.0000,0.0000,0.3500,0.0000,0.0000,0.0000,0.00,0.00,59.96,56.22,24,0,0.00000,0.00000,0.00000,0.00000,0,0,0,0.00000,0.00000,1.00000,0.0000,0.0000,0.0000,0.0000,0.0000,0.0000,0.00,0.00,0.00,1,1,1,24,194,0,0,0,0,0,0.00,0,0,0,0,0,0,0,0.00,0.00,0,0,0.0000,0.0000,0.0000,0.0000,0.0000
2026-04-20T19:14:33.627,0.417,0,0.00,0.00,0.00,0.00,0,0.0000,0.0000,0.3500,0.0000,0.0000,0.0000,0.00,0.00,60.07,55.80,25,0,0.00000,0.00000,0.00000,0.00000,0,0,0,0.00000,0.00000,1.00000,0.0000,0.0000,0.0000,0.0000,0.0000,0.0000,0.00,0.00,0.00,1,1,1,25,194,0,0,0,0,0,0.00,0,0,0,0,0,0,0,0.00,0.00,0,0,0.0000,0.0000,0.0000,0.0000,0.0000
2026-04-20T19:14:33.640,0.431,0,0.00,0.00,0.00,0.00,0,0.0000,0.0000,0.3500,0.0000,0.0000,0.0000,0.00,0.00,53.45,42.78,26,0,0.00000,0.00000,0.00000,0.00000,0,0,0,0.00000,0.00000,1.00000,0.0000,0.0000,0.0000,0.0000,0.0000,0.0000,0.00,0.00,0.00,1,1,1,26,194,0,0,0,0,0,0.00,0,0,0,0,0,0,0,0.00,0.00,0,0,0.0000,0.0000,0.0000,0.0000,0.0000
2026-04-20T19:14:33.653,0.443,0,0.00,0.00,0.00,0.00,0,0.0000,0.0000,0.3500,0.0000,0.0000,0.0000,0.00,0.00,77.83,81.96,27,0,0.00000,0.00000,0.00000,0.00000,0,0,0,0.00000,0.00000,1.00000,0.0000,0.0000,0.0000,0.0000,0.0000,0.0000,0.00,0.00,0.00,1,1,1,27,194,0,0,0,0,0,0.00,0,0,0,0,0,0,0,0.00,0.00,0,0,0.0000,0.0000,0.0000,0.0000,0.0000
2026-04-20T19:14:33.671,0.462,0,0.00,0.00,0.00,0.00,0,0.0000,0.0000,0.3500,0.0000,0.0000,0.0000,0.00,0.00,54.15,54.09,28,0,0.00000,0.00000,0.00000,0.00000,0,0,0,0.00000,0.00000,1.00000,0.0000,0.0000,0.0000,0.0000,0.0000,0.0000,0.00,0.00,0.00,1,1,1,28,194,0,0,0,0,0,0.00,0,0,0,0,0,0,0,0.00,0.00,0,0,0.0000,0.0000,0.0000,0.0000,0.0000
2026-04-20T19:14:33.691,0.481,0,0.00,0.00,0.00,0.00,0,0.0000,0.0000,0.3500,0.0000,0.0000,0.0000,0.00,0.00,60.81,51.62,29,0,0.00000,0.00000,0.00000,0.00000,0,0,0,0.00000,0.00000,1.00000,0.0000,0.0000,0.0000,0.0000,0.0000,0.0000,0.00,0.00,0.00,1,1,1,29,194,0,0,0,0,0,0.00,0,0,0,0,0,0,0,0.00,0.00,0,0,0.0000,0.0000,0.0000,0.0000,0.0000
2026-04-20T19:14:33.708,0.498,0,0.00,0.00,0.00,0.00,0,0.0000,0.0000,0.3500,0.0000,0.0000,0.0000,0.00,0.00,59.18,63.82,30,0,0.00000,0.00000,0.00000,0.00000,0,0,0,0.00000,0.00000,1.00000,0.0000,0.0000,0.0000,0.0000,0.0000,0.0000,0.00,0.00,0.00,1,1,1,30,194,0,0,0,0,0,0.00,0,0,0,0,0,0,0,0.00,0.00,0,0,0.0000,0.0000,0.0000,0.0000,0.0000
2026-04-20T19:14:33.724,0.514,0,0.00,0.00,0.00,0.00,0,0.0000,0.0000,0.3500,0.0000,0.0000,0.0000,0.00,0.00,64.54,57.47,31,0,0.00000,0.00000,0.00000,0.00000,0,0,0,0.00000,0.00000,1.00000,0.0000,0.0000,0.0000,0.0000,0.0000,0.0000,0.00,0.00,0.00,1,1,1,31,194,0,0,0,0,0,0.00,0,0,0,0,0,0,0,0.00,0.00,0,0,0.0000,0.0000,0.0000,0.0000,0.0000
2026-04-20T19:14:33.741,0.531,0,0.00,0.00,0.00,0.00,0,0.0000,0.0000,0.3500,0.0000,0.0000,0.0000,0.00,0.00,58.35,97.81,32,0,0.00000,0.00000,0.00000,0.00000,0,0,0,0.00000,0.00000,1.00000,0.0000,0.0000,0.0000,0.0000,0.0000,0.0000,0.00,0.00,0.00,1,1,1,32,194,0,0,0,0,0,0.00,0,0,0,0,0,0,0,0.00,0.00,0,0,0.0000,0.0000,0.0000,0.0000,0.0000
2026-04-20T19:14:33.751,0.541,0,0.00,0.00,0.00,0.00,0,0.0000,0.0000,0.3500,0.0000,0.0000,0.0000,0.00,0.00,57.38,58.79,33,0,0.00000,0.00000,0.00000,0.00000,0,0,0,0.00000,0.00000,1.00000,0.0000,0.0000,0.0000,0.0000,0.0000,0.0000,0.00,0.00,0.00,1,1,1,33,194,0,0,0,0,0,0.00,0,0,0,0,0,0,0,0.00,0.00,0,0,0.0000,0.0000,0.0000,0.0000,0.0000
2026-04-20T19:14:33.774,0.565,0,0.00,0.00,0.00,0.00,0,0.0000,0.0000,0.3500,0.0000,0.0000,0.0000,0.00,0.00,59.90,44.74,34,0,0.00000,0.00000,0.00000,0.00000,0,0,0,0.00000,0.00000,1.00000,0.0000,0.0000,0.0000,0.0000,0.0000,0.0000,0.00,0.00,0.00,1,1,1,34,194,0,0,0,0,0,0.00,0,0,0,0,0,0,0,0.00,0.00,0,0,0.0000,0.0000,0.0000,0.0000,0.0000
2026-04-20T19:14:33.791,0.582,0,0.00,0.00,0.00,0.00,0,0.0000,0.0000,0.3500,0.0000,0.0000,0.0000,0.00,0.00,61.84,65.06,35,0,0.00000,0.00000,0.00000,0.00000,0,0,0,0.00000,0.00000,1.00000,0.0000,0.0000,0.0000,0.0000,0.0000,0.0000,0.00,0.00,0.00,1,1,1,35,194,0,0,0,0,0,0.00,0,0,0,0,0,0,0,0.00,0.00,0,0,0.0000,0.0000,0.0000,0.0000,0.0000
2026-04-20T19:14:33.808,0.599,0,0.00,0.00,0.00,0.00,0,0.0000,0.0000,0.3500,0.0000,0.0000,0.0000,0.00,0.00,59.31,54.22,36,0,0.00000,0.00000,0.00000,0.00000,0,0,0,0.00000,0.00000,1.00000,0.0000,0.0000,0.0000,0.0000,0.0000,0.0000,0.00,0.00,0.00,1,1,1,36,194,0,0,0,0,0,0.00,0,0,0,0,0,0,0,0.00,0.00,0,0,0.0000,0.0000,0.0000,0.0000,0.0000
2026-04-20T19:14:33.826,0.616,0,0.00,0.00,0.00,0.00,0,0.0000,0.0000,0.3500,0.0000,0.0000,0.0000,0.00,0.00,62.76,59.37,37,0,0.00000,0.00000,0.00000,0.00000,0,0,0,0.00000,0.00000,1.00000,0.0000,0.0000,0.0000,0.0000,0.0000,0.0000,0.00,0.00,0.00,1,1,1,37,194,0,0,0,0,0,0.00,0,0,0,0,0,0,0,0.00,0.00,0,0,0.0000,0.0000,0.0000,0.0000,0.0000
2026-04-20T19:14:33.841,0.631,0,0.00,0.00,0.00,0.00,0,0.0000,0.0000,0.3500,0.0000,0.0000,0.0000,0.00,0.00,52.16,64.85,38,0,0.00000,0.00000,0.00000,0.00000,0,0,0,0.00000,0.00000,1.00000,0.0000,0.0000,0.0000,0.0000,0.0000,0.0000,0.00,0.00,0.00,1,1,1,38,194,0,0,0,0,0,0.00,0,0,0,0,0,0,0,0.00,0.00,0,0,0.0000,0.0000,0.0000,0.0000,0.0000
2026-04-20T19:14:33.857,0.648,0,0.00,0.00,0.00,0.00,0,0.0000,0.0000,0.3500,0.0000,0.0000,0.0000,0.00,0.00,68.42,58.60,39,0,0.00000,0.00000,0.00000,0.00000,0,0,0,0.00000,0.00000,1.00000,0.0000,0.0000,0.0000,0.0000,0.0000,0.0000,0.00,0.00,0.00,1,1,1,39,194,0,0,0,0,0,0.00,0,0,0,0,0,0,0,0.00,0.00,0,0,0.0000,0.0000,0.0000,0.0000,0.0000
2026-04-20T19:14:33.870,0.661,0,0.00,0.00,0.00,0.00,0,0.0000,0.0000,0.3500,0.0000,0.0000,0.0000,0.00,0.00,60.43,71.84,40,0,0.00000,0.00000,0.00000,0.00000,0,0,0,0.00000,0.00000,1.00000,0.0000,0.0000,0.0000,0.0000,0.0000,0.0000,0.00,0.00,0.00,1,1,1,40,194,0,0,0,0,0,0.00,0,0,0,0,0,0,0,0.00,0.00,0,0,0.0000,0.0000,0.0000,0.0000,0.0000
2026-04-20T19:14:33.891,0.681,0,0.00,0.00,0.00,0.00,0,0.0000,0.0000,0.3500,0.0000,0.0000,0.0000,0.00,0.00,54.79,50.75,41,0,0.00000,0.00000,0.00000,0.00000,0,0,0,0.00000,0.00000,1.00000,0.0000,0.0000,0.0000,0.0000,0.0000,0.0000,0.00,0.00,0.00,1,1,1,41,194,0,0,0,0,0,0.00,0,0,0,0,0,0,0,0.00,0.00,0,0,0.0000,0.0000,0.0000,0.0000,0.0000
2026-04-20T19:14:33.905,0.695,0,0.00,0.00,0.00,0.00,0,0.0000,0.0000,0.3500,0.0000,0.0000,0.0000,0.00,0.00,69.60,68.24,42,0,0.00000,0.00000,0.00000,0.00000,0,0,0,0.00000,0.00000,1.00000,0.0000,0.0000,0.0000,0.0000,0.0000,0.0000,0.00,0.00,0.00,1,1,1,42,194,0,0,0,0,0,0.00,0,0,0,0,0,0,0,0.00,0.00,0,0,0.0000,0.0000,0.0000,0.0000,0.0000
2026-04-20T19:14:33.923,0.713,0,0.00,0.00,0.00,0.00,0,0.0000,0.0000,0.3500,0.0000,0.0000,0.0000,0.00,0.00,55.63,54.78,43,0,0.00000,0.00000,0.00000,0.00000,0,0,0,0.00000,0.00000,1.00000,0.0000,0.0000,0.0000,0.0000,0.0000,0.0000,0.00,0.00,0.00,1,1,1,43,194,0,0,0,0,0,0.00,0,0,0,0,0,0,0,0.00,0.00,0,0,0.0000,0.0000,0.0000,0.0000,0.0000
2026-04-20T19:14:33.941,0.732,0,0.00,0.00,0.00,0.00,0,0.0000,0.0000,0.3500,0.0000,0.0000,0.0000,0.00,0.00,71.80,59.97,44,0,0.00000,0.00000,0.00000,0.00000,0,0,0,0.00000,0.00000,1.00000,0.0000,0.0000,0.0000,0.0000,0.0000,0.0000,0.00,0.00,0.00,1,1,1,44,194,0,0,0,0,0,0.00,0,0,0,0,0,0,0,0.00,0.00,0,0,0.0000,0.0000,0.0000,0.0000,0.0000
2026-04-20T19:14:33.957,0.747,0,0.00,0.00,0.00,0.00,0,0.0000,0.0000,0.3500,0.0000,0.0000,0.0000,0.00,0.00,53.06,57.31,45,0,0.00000,0.00000,0.00000,0.00000,0,0,0,0.00000,0.00000,1.00000,0.0000,0.0000,0.0000,0.0000,0.0000,0.0000,0.00,0.00,0.00,1,1,1,45,194,0,0,0,0,0,0.00,0,0,0,0,0,0,0,0.00,0.00,0,0,0.0000,0.0000,0.0000,0.0000,0.0000
2026-04-20T19:14:33.974,0.765,0,0.00,0.00,0.00,0.00,0,0.0000,0.0000,0.3500,0.0000,0.0000,0.0000,0.00,0.00,61.42,61.06,46,0,0.00000,0.00000,0.00000,0.00000,0,0,0,0.00000,0.00000,1.00000,0.0000,0.0000,0.0000,0.0000,0.0000,0.0000,0.00,0.00,0.00,1,1,1,46,194,0,0,0,0,0,0.00,0,0,0,0,0,0,0,0.00,0.00,0,0,0.0000,0.0000,0.0000,0.0000,0.0000
2026-04-20T19:14:33.988,0.778,0,0.00,0.00,0.00,0.00,0,0.0000,0.0000,0.3500,0.0000,0.0000,0.0000,0.00,0.00,61.07,70.11,47,0,0.00000,0.00000,0.00000,0.00000,0,0,0,0.00000,0.00000,1.00000,0.0000,0.0000,0.0000,0.0000,0.0000,0.0000,0.00,0.00,0.00,1,1,1,47,194,0,0,0,0,0,0.00,0,0,0,0,0,0,0,0.00,0.00,0,0,0.0000,0.0000,0.0000,0.0000,0.0000
2026-04-20T19:14:34.007,0.798,0,0.00,0.00,0.00,0.00,0,0.0000,0.0000,0.3500,0.0000,0.0000,0.0000,0.00,0.00,75.40,53.31,48,0,0.00000,0.00000,0.00000,0.00000,0,0,0,0.00000,0.00000,1.00000,0.0000,0.0000,0.0000,0.0000,0.0000,0.0000,0.00,0.00,0.00,1,1,1,48,194,0,0,0,0,0,0.00,0,0,0,0,0,0,0,0.00,0.00,0,0,0.0000,0.0000,0.0000,0.0000,0.0000
2026-04-20T19:14:34.019,0.809,0,0.00,0.00,0.00,0.00,0,0.0000,0.0000,0.3500,0.0000,0.0000,0.0000,0.00,0.00,48.16,80.40,49,0,0.00000,0.00000,0.00000,0.00000,0,0,0,0.00000,0.00000,1.00000,0.0000,0.0000,0.0000,0.0000,0.0000,0.0000,0.00,0.00,0.00,1,1,1,49,194,0,0,0,0,0,0.00,0,0,0,0,0,0,0,0.00,0.00,0,0,0.0000,0.0000,0.0000,0.0000,0.0000
2026-04-20T19:14:34.042,0.833,0,0.00,0.00,0.00,0.00,0,0.0000,0.0000,0.3500,0.0000,0.0000,0.0000,0.00,0.00,61.19,51.19,50,0,0.00000,0.00000,0.00000,0.00000,0,0,0,0.00000,0.00000,1.00000,0.0000,0.0000,0.0000,0.0000,0.0000,0.0000,0.00,0.00,0.00,1,1,1,50,194,0,0,0,0,0,0.00,0,0,0,0,0,0,0,0.00,0.00,0,0,0.0000,0.0000,0.0000,0.0000,0.0000
2026-04-20T19:14:34.051,0.842,0,0.00,0.00,0.00,0.00,0,0.0000,0.0000,0.3500,0.0000,0.0000,0.0000,0.00,0.00,55.14,76.90,51,0,0.00000,0.00000,0.00000,0.00000,0,0,0,0.00000,0.00000,1.00000,0.0000,0.0000,0.0000,0.0000,0.0000,0.0000,0.00,0.00,0.00,1,1,1,51,194,0,0,0,0,0,0.00,0,0,0,0,0,0,0,0.00,0.00,0,0,0.0000,0.0000,0.0000,0.0000,0.0000
2026-04-20T19:14:34.061,0.851,0,0.00,0.00,0.00,0.00,0,0.0000,0.0000,0.3500,0.0000,0.0000,0.0000,0.00,0.00,64.45,106.28,52,0,0.00000,0.00000,0.00000,0.00000,0,0,0,0.00000,0.00000,1.00000,0.0000,0.0000,0.0000,0.0000,0.0000,0.0000,0.00,0.00,0.00,1,1,1,52,194,0,0,0,0,0,0.00,0,0,0,0,0,0,0,0.00,0.00,0,0,0.0000,0.0000,0.0000,0.0000,0.0000
2026-04-20T19:14:34.077,0.868,0,0.00,0.00,0.00,0.00,0,0.0000,0.0000,0.3500,0.0000,0.0000,0.0000,0.00,0.00,60.98,61.54,53,0,0.00000,0.00000,0.00000,0.00000,0,0,0,0.00000,0.00000,1.00000,0.0000,0.0000,0.0000,0.0000,0.0000,0.0000,0.00,0.00,0.00,1,1,1,53,194,0,0,0,0,0,0.00,0,0,0,0,0,0,0,0.00,0.00,0,0,0.0000,0.0000,0.0000,0.0000,0.0000
2026-04-20T19:14:34.102,0.893,0,0.00,0.00,0.00,0.00,0,0.0000,0.0000,0.3500,0.0000,0.0000,0.0000,0.00,0.00,59.09,39.99,54,0,0.00000,0.00000,0.00000,0.00000,0,0,0,0.00000,0.00000,1.00000,0.0000,0.0000,0.0000,0.0000,0.0000,0.0000,0.00,0.00,0.00,1,1,1,54,194,0,0,0,0,0,0.00,0,0,0,0,0,0,0,0.00,0.00,0,0,0.0000,0.0000,0.0000,0.0000,0.0000
2026-04-20T19:14:34.111,0.902,0,0.00,0.00,0.00,0.00,0,0.0000,0.0000,0.3500,0.0000,0.0000,0.0000,0.00,0.00,96.91,111.36,55,0,0.00000,0.00000,0.00000,0.00000,0,0,0,0.00000,0.00000,1.00000,0.0000,0.0000,0.0000,0.0000,0.0000,0.0000,0.00,0.00,0.00,1,1,1,55,194,0,0,0,0,0,0.00,0,0,0,0,0,0,0,0.00,0.00,0,0,0.0000,0.0000,0.0000,0.0000,0.0000
2026-04-20T19:14:34.141,0.931,0,0.00,0.00,0.00,0.00,0,0.0000,0.0000,0.3500,0.0000,0.0000,0.0000,0.00,0.00,111.36,35.43,56,0,0.00000,0.00000,0.00000,0.00000,0,0,0,0.00000,0.00000,1.00000,0.0000,0.0000,0.0000,0.0000,0.0000,0.0000,0.00,0.00,0.00,1,1,1,56,194,0,0,0,0,0,0.00,0,0,0,0,0,0,0,0.00,0.00,0,0,0.0000,0.0000,0.0000,0.0000,0.0000
2026-04-20T19:14:34.148,0.938,0,0.00,0.00,0.00,0.00,0,0.0000,0.0000,0.3500,0.0000,0.0000,0.0000,0.00,0.00,32.54,117.14,57,0,0.00000,0.00000,0.00000,0.00000,0,0,0,0.00000,0.00000,1.00000,0.0000,0.0000,0.0000,0.0000,0.0000,0.0000,0.00,0.00,0.00,1,1,1,57,194,0,0,0,0,0,0.00,0,0,0,0,0,0,0,0.00,0.00,0,0,0.0000,0.0000,0.0000,0.0000,0.0000
2026-04-20T19:14:34.174,0.965,0,0.00,0.00,0.00,0.00,0,0.0000,0.0000,0.3500,0.0000,0.0000,0.0000,0.00,0.00,58.18,39.50,58,0,0.00000,0.00000,0.00000,0.00000,0,0,0,0.00000,0.00000,1.00000,0.0000,0.0000,0.0000,0.0000,0.0000,0.0000,0.00,0.00,0.00,1,1,1,58,194,0,0,0,0,0,0.00,0,0,0,0,0,0,0,0.00,0.00,0,0,0.0000,0.0000,0.0000,0.0000,0.0000
2026-04-20T19:14:34.191,0.982,0,0.00,0.00,0.00,0.00,0,0.0000,0.0000,0.3500,0.0000,0.0000,0.0000,0.00,0.00,65.97,57.69,59,0,0.00000,0.00000,0.00000,0.00000,0,0,0,0.00000,0.00000,1.00000,0.0000,0.0000,0.0000,0.0000,0.0000,0.0000,0.00,0.00,0.00,1,1,1,59,194,0,0,0,0,0,0.00,0,0,0,0,0,0,0,0.00,0.00,0,0,0.0000,0.0000,0.0000,0.0000,0.0000
2026-04-20T19:14:34.207,0.997,0,0.00,0.00,0.00,0.00,0,0.0000,0.0000,0.3500,0.0000,0.0000,0.0000,0.00,0.00,52.00,60.67,60,0,0.00000,0.00000,0.00000,0.00000,0,0,0,0.00000,0.00000,1.00000,0.0000,0.0000,0.0000,0.0000,0.0000,0.0000,0.00,0.00,0.00,1,1,1,60,194,0,0,0,0,0,0.00,0,0,0,0,0,0,0,0.00,0.00,0,0,0.0000,0.0000,0.0000,0.0000,0.0000
2026-04-20T19:14:34.224,1.015,0,0.00,0.00,0.00,0.00,0,0.0000,0.0000,0.3500,0.0000,0.0000,0.0000,0.00,0.00,67.31,61.68,61,0,0.00000,0.00000,0.00000,0.00000,0,0,0,0.00000,0.00000,1.00000,0.0000,0.0000,0.0000,0.0000,0.0000,0.0000,0.00,0.00,0.00,1,1,1,61,194,0,0,0,0,0,0.00,0,0,0,0,0,0,0,0.00,0.00,0,0,0.0000,0.0000,0.0000,0.0000,0.0000
2026-04-20T19:14:34.238,1.028,0,0.00,0.00,0.00,0.00,0,0.0000,0.0000,0.3500,0.0000,0.0000,0.0000,0.00,0.00,57.25,67.27,62,0,0.00000,0.00000,0.00000,0.00000,0,0,0,0.00000,0.00000,1.00000,0.0000,0.0000,0.0000,0.0000,0.0000,0.0000,0.00,0.00,0.00,1,1,1,62,194,0,0,0,0,0,0.00,0,0,0,0,0,0,0,0.00,0.00,0,0,0.0000,0.0000,0.0000,0.0000,0.0000
2026-04-20T19:14:34.258,1.049,0,0.00,0.00,0.00,0.00,0,0.0000,0.0000,0.3500,0.0000,0.0000,0.0000,0.00,0.00,65.11,54.31,63,0,0.00000,0.00000,0.00000,0.00000,0,0,0,0.00000,0.00000,1.00000,0.0000,0.0000,0.0000,0.0000,0.0000,0.0000,0.00,0.00,0.00,1,1,1,63,194,0,0,0,0,0,0.00,0,0,0,0,0,0,0,0.00,0.00,0,0,0.0000,0.0000,0.0000,0.0000,0.0000
2026-04-20T19:14:34.275,1.066,0,0.00,0.00,0.00,0.00,0,0.0000,0.0000,0.3500,0.0000,0.0000,0.0000,0.00,0.00,54.34,73.01,64,0,0.00000,0.00000,0.00000,0.00000,0,0,0,0.00000,0.00000,1.00000,0.0000,0.0000,0.0000,0.0000,0.0000,0.0000,0.00,0.00,0.00,1,1,1,64,194,0,0,0,0,0,0.00,0,0,0,0,0,0,0,0.00,0.00,0,0,0.0000,0.0000,0.0000,0.0000,0.0000
2026-04-20T19:14:34.286,1.077,0,0.00,0.00,0.00,0.00,0,0.0000,0.0000,0.3500,0.0000,0.0000,0.0000,0.00,0.00,59.91,62.04,65,0,0.00000,0.00000,0.00000,0.00000,0,0,0,0.00000,0.00000,1.00000,0.0000,0.0000,0.0000,0.0000,0.0000,0.0000,0.00,0.00,0.00,1,1,1,65,194,0,0,0,0,0,0.00,0,0,0,0,0,0,0,0.00,0.00,0,0,0.0000,0.0000,0.0000,0.0000,0.0000
2026-04-20T19:14:34.305,1.096,0,0.00,0.00,0.00,0.00,0,0.0000,0.0000,0.3500,0.0000,0.0000,0.0000,0.00,0.00,98.84,52.29,66,0,0.00000,0.00000,0.00000,0.00000,0,0,0,0.00000,0.00000,1.00000,0.0000,0.0000,0.0000,0.0000,0.0000,0.0000,0.00,0.00,0.00,1,1,1,66,194,0,0,0,0,0,0.00,0,0,0,0,0,0,0,0.00,0.00,0,0,0.0000,0.0000,0.0000,0.0000,0.0000
2026-04-20T19:14:34.324,1.114,0,0.00,0.00,0.00,0.00,0,0.0000,0.0000,0.3500,0.0000,0.0000,0.0000,0.00,0.00,44.02,54.83,67,0,0.00000,0.00000,0.00000,0.00000,0,0,0,0.00000,0.00000,1.00000,0.0000,0.0000,0.0000,0.0000,0.0000,0.0000,0.00,0.00,0.00,1,1,1,67,194,0,0,0,0,0,0.00,0,0,0,0,0,0,0,0.00,0.00,0,0,0.0000,0.0000,0.0000,0.0000,0.0000
2026-04-20T19:14:34.341,1.132,0,0.00,0.00,0.00,0.00,0,0.0000,0.0000,0.3500,0.0000,0.0000,0.0000,0.00,0.00,68.28,59.95,68,0,0.00000,0.00000,0.00000,0.00000,0,0,0,0.00000,0.00000,1.00000,0.0000,0.0000,0.0000,0.0000,0.0000,0.0000,0.00,0.00,0.00,1,1,1,68,194,0,0,0,0,0,0.00,0,0,0,0,0,0,0,0.00,0.00,0,0,0.0000,0.0000,0.0000,0.0000,0.0000
2026-04-20T19:14:34.358,1.148,0,0.00,0.00,0.00,0.00,0,0.0000,0.0000,0.3500,0.0000,0.0000,0.0000,0.00,0.00,55.00,64.88,69,0,0.00000,0.00000,0.00000,0.00000,0,0,0,0.00000,0.00000,1.00000,0.0000,0.0000,0.0000,0.0000,0.0000,0.0000,0.00,0.00,0.00,1,1,1,69,194,0,0,0,0,0,0.00,0,0,0,0,0,0,0,0.00,0.00,0,0,0.0000,0.0000,0.0000,0.0000,0.0000
2026-04-20T19:14:34.374,1.165,0,0.00,0.00,0.00,0.00,0,0.0000,0.0000,0.3500,0.0000,0.0000,0.0000,0.00,0.00,62.84,62.43,70,0,0.00000,0.00000,0.00000,0.00000,0,0,0,0.00000,0.00000,1.00000,0.0000,0.0000,0.0000,0.0000,0.0000,0.0000,0.00,0.00,0.00,1,1,1,70,194,0,0,0,0,0,0.00,0,0,0,0,0,0,0,0.00,0.00,0,0,0.0000,0.0000,0.0000,0.0000,0.0000
2026-04-20T19:14:34.390,1.181,0,0.00,0.00,0.00,0.00,0,0.0000,0.0000,0.3500,0.0000,0.0000,0.0000,0.00,0.00,55.56,53.95,71,0,0.00000,0.00000,0.00000,0.00000,0,0,0,0.00000,0.00000,1.00000,0.0000,0.0000,0.0000,0.0000,0.0000,0.0000,0.00,0.00,0.00,1,1,1,71,194,0,0,0,0,0,0.00,0,0,0,0,0,0,0,0.00,0.00,0,0,0.0000,0.0000,0.0000,0.0000,0.0000
2026-04-20T19:14:34.403,1.193,0,0.00,0.00,0.00,0.00,0,0.0000,0.0000,0.3500,0.0000,0.0000,0.0000,0.00,0.00,60.12,79.42,72,0,0.00000,0.00000,0.00000,0.00000,0,0,0,0.00000,0.00000,1.00000,0.0000,0.0000,0.0000,0.0000,0.0000,0.0000,0.00,0.00,0.00,1,1,1,72,194,0,0,0,0,0,0.00,0,0,0,0,0,0,0,0.00,0.00,0,0,0.0000,0.0000,0.0000,0.0000,0.0000
2026-04-20T19:14:34.424,1.214,0,0.00,0.00,0.00,0.00,0,0.0000,0.0000,0.3500,0.0000,0.0000,0.0000,0.00,0.00,95.17,50.34,73,0,0.00000,0.00000,0.00000,0.00000,0,0,0,0.00000,0.00000,1.00000,0.0000,0.0000,0.0000,0.0000,0.0000,0.0000,0.00,0.00,0.00,1,1,1,73,194,0,0,0,0,0,0.00,0,0,0,0,0,0,0,0.00,0.00,0,0,0.0000,0.0000,0.0000,0.0000,0.0000
2026-04-20T19:14:34.440,1.231,0,0.00,0.00,0.00,0.00,0,0.0000,0.0000,0.3500,0.0000,0.0000,0.0000,0.00,0.00,45.43,60.41,74,0,0.00000,0.00000,0.00000,0.00000,0,0,0,0.00000,0.00000,1.00000,0.0000,0.0000,0.0000,0.0000,0.0000,0.0000,0.00,0.00,0.00,1,1,1,74,194,0,0,0,0,0,0.00,0,0,0,0,0,0,0,0.00,0.00,0,0,0.0000,0.0000,0.0000,0.0000,0.0000
2026-04-20T19:14:34.446,1.236,0,0.00,0.00,0.00,0.00,0,0.0000,0.0000,0.3500,0.0000,0.0000,0.0000,0.00,0.00,60.66,154.11,75,0,0.00000,0.00000,0.00000,0.00000,0,0,0,0.00000,0.00000,1.00000,0.0000,0.0000,0.0000,0.0000,0.0000,0.0000,0.00,0.00,0.00,1,1,1,75,194,0,0,0,0,0,0.00,0,0,0,0,0,0,0,0.00,0.00,0,0,0.0000,0.0000,0.0000,0.0000,0.0000
2026-04-20T19:14:34.476,1.266,0,0.00,0.00,0.00,0.00,0,0.0000,0.0000,0.3500,0.0000,0.0000,0.0000,0.00,0.00,226.93,35.93,76,0,0.00000,0.00000,0.00000,0.00000,0,0,0,0.00000,0.00000,1.00000,0.0000,0.0000,0.0000,0.0000,0.0000,0.0000,0.00,0.00,0.00,1,1,1,76,194,0,0,0,0,0,0.00,0,0,0,0,0,0,0,0.00,0.00,0,0,0.0000,0.0000,0.0000,0.0000,0.0000
2026-04-20T19:14:34.478,1.269,0,0.00,0.00,0.00,0.00,0,0.0000,0.0000,0.3500,0.0000,0.0000,0.0000,0.00,0.00,32.27,215.97,77,0,0.00000,0.00000,0.00000,0.00000,0,0,0,0.00000,0.00000,1.00000,0.0000,0.0000,0.0000,0.0000,0.0000,0.0000,0.00,0.00,0.00,1,1,1,77,194,0,0,0,0,0,0.00,0,0,0,0,0,0,0,0.00,0.00,0,0,0.0000,0.0000,0.0000,0.0000,0.0000
2026-04-20T19:14:34.502,1.292,0,0.00,0.00,0.00,0.00,0,0.0000,0.0000,0.3500,0.0000,0.0000,0.0000,0.00,0.00,68.17,42.36,78,0,0.00000,0.00000,0.00000,0.00000,0,0,0,0.00000,0.00000,1.00000,0.0000,0.0000,0.0000,0.0000,0.0000,0.0000,0.00,0.00,0.00,1,1,1,78,194,0,0,0,0,0,0.00,0,0,0,0,0,0,0,0.00,0.00,0,0,0.0000,0.0000,0.0000,0.0000,0.0000
2026-04-20T19:14:34.523,1.314,0,0.00,0.00,0.00,0.00,0,0.0000,0.0000,0.3500,0.0000,0.0000,0.0000,0.00,0.00,96.05,46.22,79,0,0.00000,0.00000,0.00000,0.00000,0,0,0,0.00000,0.00000,1.00000,0.0000,0.0000,0.0000,0.0000,0.0000,0.0000,0.00,0.00,0.00,1,1,1,79,194,0,0,0,0,0,0.00,0,0,0,0,0,0,0,0.00,0.00,0,0,0.0000,0.0000,0.0000,0.0000,0.0000
2026-04-20T19:14:34.537,1.328,0,0.00,0.00,0.00,0.00,0,0.0000,0.0000,0.3500,0.0000,0.0000,0.0000,0.00,0.00,44.17,73.42,80,0,0.00000,0.00000,0.00000,0.00000,0,0,0,0.00000,0.00000,1.00000,0.0000,0.0000,0.0000,0.0000,0.0000,0.0000,0.00,0.00,0.00,1,1,1,80,194,0,0,0,0,0,0.00,0,0,0,0,0,0,0,0.00,0.00,0,0,0.0000,0.0000,0.0000,0.0000,0.0000
2026-04-20T19:14:34.553,1.344,0,0.00,0.00,0.00,0.00,0,0.0000,0.0000,0.3500,0.0000,0.0000,0.0000,0.00,0.00,58.36,62.35,81,0,0.00000,0.00000,0.00000,0.00000,0,0,0,0.00000,0.00000,1.00000,0.0000,0.0000,0.0000,0.0000,0.0000,0.0000,0.00,0.00,0.00,1,1,1,81,194,0,0,0,0,0,0.00,0,0,0,0,0,0,0,0.00,0.00,0,0,0.0000,0.0000,0.0000,0.0000,0.0000
2026-04-20T19:14:34.574,1.365,0,0.00,0.00,0.00,0.00,0,0.0000,0.0000,0.3500,0.0000,0.0000,0.0000,0.00,0.00,57.65,49.47,82,0,0.00000,0.00000,0.00000,0.00000,0,0,0,0.00000,0.00000,1.00000,0.0000,0.0000,0.0000,0.0000,0.0000,0.0000,0.00,0.00,0.00,1,1,1,82,194,0,0,0,0,0,0.00,0,0,0,0,0,0,0,0.00,0.00,0,0,0.0000,0.0000,0.0000,0.0000,0.0000
