iso_time,elapsed_s,backend_loop_hz,tracking_loop_hz,frames_processed,valid_pose_frames,pose_success_rate,full_marker_detection_rate,cam1_full_detection_rate,cam2_full_detection_rate,cam1_leds,cam2_leds,spatial_data_valid,mapping_error_px,model_fit_error_m,scale_factor,position_x_m,position_y_m,position_z_m,velocity_x_m_s,velocity_y_m_s,velocity_z_m_s,yaw_deg,pitch_deg,roll_deg,serial_connected,serial_send_enabled,serial_send_ok,serial_payload_seq,serial_payload_size_bytes,bridge_serial_frames_rx,bridge_espnow_tx_attempts,bridge_espnow_tx_ok,bridge_espnow_tx_fail,bridge_oversize_drops,bridge_tx_rate_hz,bridge_last_tx_seq,bridge_last_tx_latency_us,controller_rx_packets,controller_rx_missing_packets,controller_rx_duplicate_packets,controller_rx_out_of_order_packets,controller_last_rx_seq,controller_loop_hz,controller_control_hz,controller_command_age_ms,controller_apply_latency_us,controller_motor_imbalance,motor_1_output,motor_2_output,motor_3_output,motor_4_output
2026-04-20T16:01:32.310,0.018,57.23,58.08,7672,1258,0.16397,0.16397,0.16397,0.17362,3,3,1,21.78234,0.00379,1.04809,0.0228,-0.1150,0.0868,0.0000,0.0000,0.0000,-1.88,-7.70,179.47,0,0,0,0,0,0,0,0,0,0,0.00,0,0,0,0,0,0,0,0.00,0.00,0,0,0.0000,0.0000,0.0000,0.0000,0.0000
2026-04-20T16:01:32.327,0.035,64.09,60.26,7673,1259,0.16408,0.16408,0.16408,0.17373,3,3,1,21.79619,0.00379,1.04913,0.0228,-0.1150,0.0868,0.0000,0.0000,0.0000,-1.87,-7.91,179.53,0,0,0,0,0,0,0,0,0,0,0.00,0,0,0,0,0,0,0,0.00,0.00,0,0,0.0000,0.0000,0.0000,0.0000,0.0000
2026-04-20T16:01:32.342,0.049,58.78,58.82,7674,1260,0.16419,0.16419,0.16419,0.17383,3,3,1,21.82704,0.00382,1.04696,0.0229,-0.1150,0.0868,0.0000,0.0000,0.0000,-1.91,-7.74,179.53,0,0,0,0,0,0,0,0,0,0,0.00,0,0,0,0,0,0,0,0.00,0.00,0,0,0.0000,0.0000,0.0000,0.0000,0.0000
2026-04-20T16:01:32.357,0.065,63.55,61.56,7675,1261,0.16430,0.16430,0.16430,0.17394,3,3,1,21.80431,0.00382,1.04692,0.0228,-0.1150,0.0867,0.0000,0.0000,0.0000,-1.92,-7.73,179.59,0,0,0,0,0,0,0,0,0,0,0.00,0,0,0,0,0,0,0,0.00,0.00,0,0,0.0000,0.0000,0.0000,0.0000,0.0000
2026-04-20T16:01:32.377,0.084,64.78,60.42,7676,1262,0.16441,0.16441,0.16441,0.17405,3,3,1,21.78091,0.00376,1.04960,0.0227,-0.1150,0.0867,0.0000,0.0000,0.0000,-1.91,-7.97,179.63,0,0,0,0,0,0,0,0,0,0,0.00,0,0,0,0,0,0,0,0.00,0.00,0,0,0.0000,0.0000,0.0000,0.0000,0.0000
2026-04-20T16:01:32.390,0.098,51.00,62.00,7677,1263,0.16452,0.16452,0.16452,0.17416,3,3,1,21.74311,0.00355,1.04816,0.0229,-0.1148,0.0868,0.0000,0.0000,0.0000,-1.82,-7.76,179.55,0,0,0,0,0,0,0,0,0,0,0.00,0,0,0,0,0,0,0,0.00,0.00,0,0,0.0000,0.0000,0.0000,0.0000,0.0000
2026-04-20T16:01:32.407,0.115,72.34,59.27,7678,1264,0.16463,0.16463,0.16463,0.17426,3,3,1,21.73794,0.00374,1.04642,0.0228,-0.1148,0.0867,0.0000,0.0000,0.0000,-1.88,-7.97,179.58,0,0,0,0,0,0,0,0,0,0,0.00,0,0,0,0,0,0,0,0.00,0.00,0,0,0.0000,0.0000,0.0000,0.0000,0.0000
2026-04-20T16:01:32.428,0.136,59.00,56.65,7679,1265,0.16473,0.16473,0.16473,0.17437,3,3,1,21.82704,0.00382,1.04696,0.0229,-0.1149,0.0868,0.0000,0.0000,0.0000,-1.91,-7.77,179.55,0,0,0,0,0,0,0,0,0,0,0.00,0,0,0,0,0,0,0,0.00,0.00,0,0,0.0000,0.0000,0.0000,0.0000,0.0000
2026-04-20T16:01:32.443,0.151,48.33,60.91,7680,1266,0.16484,0.16484,0.16484,0.17448,3,3,1,21.76535,0.00365,1.04791,0.0228,-0.1150,0.0868,0.0000,0.0000,0.0000,-1.87,-7.93,179.61,0,0,0,0,0,0,0,0,0,0,0.00,0,0,0,0,0,0,0,0.00,0.00,0,0,0.0000,0.0000,0.0000,0.0000,0.0000
2026-04-20T16:01:32.460,0.167,65.62,59.35,7681,1267,0.16495,0.16495,0.16495,0.17459,3,3,1,21.80373,0.00376,1.04964,0.0227,-0.1150,0.0868,0.0000,0.0000,0.0000,-1.89,-7.99,179.57,0,0,0,0,0,0,0,0,0,0,0.00,0,0,0,0,0,0,0,0.00,0.00,0,0,0.0000,0.0000,0.0000,0.0000,0.0000
2026-04-20T16:01:32.477,0.184,61.82,61.37,7682,1268,0.16506,0.16506,0.16506,0.17469,3,3,1,21.79307,0.00381,1.05106,0.0227,-0.1149,0.0868,0.0000,0.0000,0.0000,-1.90,-8.03,179.54,0,0,0,0,0,0,0,0,0,0,0.00,0,0,0,0,0,0,0,0.00,0.00,0,0,0.0000,0.0000,0.0000,0.0000,0.0000
2026-04-20T16:01:32.493,0.200,62.67,59.20,7683,1269,0.16517,0.16517,0.16517,0.17480,3,3,1,21.86278,0.00384,1.04994,0.0228,-0.1149,0.0868,0.0000,0.0000,0.0000,-1.87,-7.84,179.43,0,0,0,0,0,0,0,0,0,0,0.00,0,0,0,0,0,0,0,0.00,0.00,0,0,0.0000,0.0000,0.0000,0.0000,0.0000
2026-04-20T16:01:32.509,0.217,56.18,60.11,7684,1270,0.16528,0.16528,0.16528,0.17491,3,3,1,21.77216,0.00376,1.04938,0.0226,-0.1148,0.0867,0.0000,0.0000,0.0000,-1.85,-8.04,179.41,0,0,0,0,0,0,0,0,0,0,0.00,0,0,0,0,0,0,0,0.00,0.00,0,0,0.0000,0.0000,0.0000,0.0000,0.0000
2026-04-20T16:01:32.524,0.232,62.83,64.27,7685,1271,0.16539,0.16539,0.16539,0.17502,3,3,1,21.81321,0.00374,1.05063,0.0227,-0.1150,0.0868,0.0000,0.0000,0.0000,-1.86,-8.03,179.45,0,0,0,0,0,0,0,0,0,0,0.00,0,0,0,0,0,0,0,0.00,0.00,0,0,0.0000,0.0000,0.0000,0.0000,0.0000
2026-04-20T16:01:32.542,0.249,66.02,56.26,7686,1272,0.16550,0.16550,0.16550,0.17512,3,3,1,21.80847,0.00352,1.04529,0.0229,-0.1149,0.0868,0.0000,0.0000,0.0000,-1.79,-7.46,179.46,0,0,0,0,0,0,0,0,0,0,0.00,0,0,0,0,0,0,0,0.00,0.00,0,0,0.0000,0.0000,0.0000,0.0000,0.0000
2026-04-20T16:01:32.560,0.268,58.43,60.72,7687,1273,0.16560,0.16560,0.16560,0.17523,3,3,1,21.80890,0.00369,1.04929,0.0228,-0.1151,0.0869,0.0000,0.0000,0.0000,-1.84,-7.69,179.53,0,0,0,0,0,0,0,0,0,0,0.00,0,0,0,0,0,0,0,0.00,0.00,0,0,0.0000,0.0000,0.0000,0.0000,0.0000
2026-04-20T16:01:32.574,0.282,57.48,59.35,7688,1274,0.16571,0.16571,0.16571,0.17534,3,3,1,21.79049,0.00347,1.04699,0.0229,-0.1150,0.0869,0.0000,0.0000,0.0000,-1.79,-7.48,179.53,0,0,0,0,0,0,0,0,0,0,0.00,0,0,0,0,0,0,0,0.00,0.00,0,0,0.0000,0.0000,0.0000,0.0000,0.0000
2026-04-20T16:01:32.593,0.300,64.71,63.68,7689,1275,0.16582,0.16582,0.16582,0.17545,3,3,1,21.85317,0.00388,1.05131,0.0228,-0.1149,0.0868,0.0000,0.0000,0.0000,-1.82,-7.58,179.41,0,0,0,0,0,0,0,0,0,0,0.00,0,0,0,0,0,0,0,0.00,0.00,0,0,0.0000,0.0000,0.0000,0.0000,0.0000
2026-04-20T16:01:32.609,0.317,55.17,58.12,7690,1276,0.16593,0.16593,0.16593,0.17555,3,3,1,21.82562,0.00379,1.04846,0.0228,-0.1151,0.0868,0.0000,0.0000,0.0000,-1.86,-7.65,179.54,0,0,0,0,0,0,0,0,0,0,0.00,0,0,0,0,0,0,0,0.00,0.00,0,0,0.0000,0.0000,0.0000,0.0000,0.0000
2026-04-20T16:01:32.623,0.331,59.54,59.62,7691,1277,0.16604,0.16604,0.16604,0.17566,3,3,1,21.82273,0.00376,1.04562,0.0229,-0.1150,0.0869,0.0000,0.0000,0.0000,-1.91,-7.57,179.58,0,0,0,0,0,0,0,0,0,0,0.00,0,0,0,0,0,0,0,0.00,0.00,0,0,0.0000,0.0000,0.0000,0.0000,0.0000
2026-04-20T16:01:32.642,0.350,71.39,61.71,7692,1278,0.16615,0.16615,0.16615,0.17577,3,3,1,21.80620,0.00351,1.04904,0.0229,-0.1150,0.0869,0.0000,0.0000,0.0000,-1.80,-7.47,179.51,0,0,0,0,0,0,0,0,0,0,0.00,0,0,0,0,0,0,0,0.00,0.00,0,0,0.0000,0.0000,0.0000,0.0000,0.0000
2026-04-20T16:01:32.659,0.366,52.65,54.20,7693,1279,0.16626,0.16626,0.16626,0.17587,3,3,1,21.73794,0.00374,1.04642,0.0228,-0.1149,0.0868,0.0000,0.0000,0.0000,-1.87,-7.82,179.56,0,0,0,0,0,0,0,0,0,0,0.00,0,0,0,0,0,0,0,0.00,0.00,0,0,0.0000,0.0000,0.0000,0.0000,0.0000
2026-04-20T16:01:32.675,0.383,61.88,65.72,7694,1280,0.16636,0.16636,0.16636,0.17598,3,3,1,21.82143,0.00385,1.04617,0.0229,-0.1150,0.0868,0.0000,0.0000,0.0000,-1.90,-7.75,179.59,0,0,0,0,0,0,0,0,0,0,0.00,0,0,0,0,0,0,0,0.00,0.00,0,0,0.0000,0.0000,0.0000,0.0000,0.0000
2026-04-20T16:01:32.690,0.397,58.30,58.57,7695,1281,0.16647,0.16647,0.16647,0.17609,3,3,1,21.76251,0.00380,1.05076,0.0226,-0.1148,0.0867,0.0000,0.0000,0.0000,-1.87,-8.01,179.48,0,0,0,0,0,0,0,0,0,0,0.00,0,0,0,0,0,0,0,0.00,0.00,0,0,0.0000,0.0000,0.0000,0.0000,0.0000
2026-04-20T16:01:32.709,0.417,70.35,59.46,7696,1282,0.16658,0.16658,0.16658,0.17620,3,3,1,21.80504,0.00332,1.04824,0.0231,-0.1148,0.0869,0.0000,0.0000,0.0000,-1.75,-7.12,179.49,0,0,0,0,0,0,0,0,0,0,0.00,0,0,0,0,0,0,0,0.00,0.00,0,0,0.0000,0.0000,0.0000,0.0000,0.0000
2026-04-20T16:01:32.723,0.431,51.22,60.43,7697,1283,0.16669,0.16669,0.16669,0.17630,3,3,1,21.75379,0.00350,1.04674,0.0228,-0.1148,0.0868,0.0000,0.0000,0.0000,-1.74,-7.32,179.49,0,0,0,0,0,0,0,0,0,0,0.00,0,0,0,0,0,0,0,0.00,0.00,0,0,0.0000,0.0000,0.0000,0.0000,0.0000
2026-04-20T16:01:32.742,0.449,71.36,63.47,7698,1284,0.16680,0.16680,0.16680,0.17641,3,3,1,21.80583,0.00335,1.05029,0.0231,-0.1148,0.0869,0.0000,0.0000,0.0000,-1.69,-6.79,179.49,0,0,0,0,0,0,0,0,0,0,0.00,0,0,0,0,0,0,0,0.00,0.00,0,0,0.0000,0.0000,0.0000,0.0000,0.0000
2026-04-20T16:01:32.758,0.465,58.48,59.97,7699,1285,0.16690,0.16690,0.16690,0.17652,3,3,1,21.76968,0.00358,1.04571,0.0229,-0.1148,0.0867,0.0000,0.0000,0.0000,-1.71,-7.15,179.54,0,0,0,0,0,0,0,0,0,0,0.00,0,0,0,0,0,0,0,0.00,0.00,0,0,0.0000,0.0000,0.0000,0.0000,0.0000
2026-04-20T16:01:32.775,0.483,57.89,58.54,7700,1286,0.16701,0.16701,0.16701,0.17662,3,3,1,21.76453,0.00352,1.04970,0.0228,-0.1148,0.0868,0.0000,0.0000,0.0000,-1.71,-7.35,179.50,0,0,0,0,0,0,0,0,0,0,0.00,0,0,0,0,0,0,0,0.00,0.00,0,0,0.0000,0.0000,0.0000,0.0000,0.0000
2026-04-20T16:01:32.793,0.500,55.33,61.16,7701,1287,0.16712,0.16712,0.16712,0.17673,3,3,1,21.74567,0.00335,1.04647,0.0230,-0.1148,0.0868,0.0000,0.0000,0.0000,-1.70,-7.17,179.60,0,0,0,0,0,0,0,0,0,0,0.00,0,0,0,0,0,0,0,0.00,0.00,0,0,0.0000,0.0000,0.0000,0.0000,0.0000
2026-04-20T16:01:32.807,0.515,62.63,57.26,7702,1288,0.16723,0.16723,0.16723,0.17684,3,3,1,21.77981,0.00364,1.04941,0.0229,-0.1148,0.0868,0.0000,0.0000,0.0000,-1.77,-7.37,179.55,0,0,0,0,0,0,0,0,0,0,0.00,0,0,0,0,0,0,0,0.00,0.00,0,0,0.0000,0.0000,0.0000,0.0000,0.0000
2026-04-20T16:01:32.826,0.533,60.81,62.52,7703,1289,0.16734,0.16734,0.16734,0.17694,3,3,1,21.84507,0.00336,1.05218,0.0230,-0.1148,0.0868,0.0000,0.0000,0.0000,-1.68,-6.92,179.48,0,0,0,0,0,0,0,0,0,0,0.00,0,0,0,0,0,0,0,0.00,0.00,0,0,0.0000,0.0000,0.0000,0.0000,0.0000
2026-04-20T16:01:32.841,0.548,57.55,60.91,7704,1290,0.16745,0.16745,0.16745,0.17705,3,3,1,21.79239,0.00347,1.04671,0.0229,-0.1149,0.0868,0.0000,0.0000,0.0000,-1.72,-7.12,179.53,0,0,0,0,0,0,0,0,0,0,0.00,0,0,0,0,0,0,0,0.00,0.00,0,0,0.0000,0.0000,0.0000,0.0000,0.0000
2026-04-20T16:01:32.859,0.567,65.58,58.15,7705,1291,0.16755,0.16755,0.16755,0.17716,3,3,1,21.77167,0.00384,1.04951,0.0227,-0.1149,0.0868,0.0000,0.0000,0.0000,-1.83,-7.60,179.53,0,0,0,0,0,0,0,0,0,0,0.00,0,0,0,0,0,0,0,0.00,0.00,0,0,0.0000,0.0000,0.0000,0.0000,0.0000
2026-04-20T16:01:32.873,0.581,54.29,62.82,7706,1292,0.16766,0.16766,0.16766,0.17726,3,3,1,21.82704,0.00382,1.04696,0.0228,-0.1149,0.0868,0.0000,0.0000,0.0000,-1.89,-7.58,179.52,0,0,0,0,0,0,0,0,0,0,0.00,0,0,0,0,0,0,0,0.00,0.00,0,0,0.0000,0.0000,0.0000,0.0000,0.0000
2026-04-20T16:01:32.893,0.600,70.78,56.07,7707,1293,0.16777,0.16777,0.16777,0.17737,3,3,1,21.77531,0.00355,1.04650,0.0229,-0.1149,0.0868,0.0000,0.0000,0.0000,-1.83,-7.50,179.51,0,0,0,0,0,0,0,0,0,0,0.00,0,0,0,0,0,0,0,0.00,0.00,0,0,0.0000,0.0000,0.0000,0.0000,0.0000
2026-04-20T16:01:32.911,0.618,54.46,60.59,7708,1294,0.16788,0.16788,0.16788,0.17748,3,3,1,21.79632,0.00355,1.04816,0.0230,-0.1149,0.0868,0.0000,0.0000,0.0000,-1.82,-7.36,179.53,0,0,0,0,0,0,0,0,0,0,0.00,0,0,0,0,0,0,0,0.00,0.00,0,0,0.0000,0.0000,0.0000,0.0000,0.0000
2026-04-20T16:01:32.926,0.633,53.01,61.43,7709,1295,0.16799,0.16799,0.16799,0.17758,3,3,1,21.78234,0.00379,1.04809,0.0227,-0.1150,0.0868,0.0000,0.0000,0.0000,-1.88,-7.70,179.53,0,0,0,0,0,0,0,0,0,0,0.00,0,0,0,0,0,0,0,0.00,0.00,0,0,0.0000,0.0000,0.0000,0.0000,0.0000
2026-04-20T16:01:32.942,0.650,67.31,61.41,7710,1296,0.16809,0.16809,0.16809,0.17769,3,3,1,21.78234,0.00379,1.04809,0.0227,-0.1150,0.0868,0.0000,0.0000,0.0000,-1.91,-7.88,179.54,0,0,0,0,0,0,0,0,0,0,0.00,0,0,0,0,0,0,0,0.00,0.00,0,0,0.0000,0.0000,0.0000,0.0000,0.0000
2026-04-20T16:01:32.959,0.667,60.07,56.76,7711,1297,0.16820,0.16820,0.16820,0.17780,3,3,1,21.76323,0.00379,1.04779,0.0226,-0.1150,0.0867,0.0000,0.0000,0.0000,-1.93,-8.07,179.64,0,0,0,0,0,0,0,0,0,0,0.00,0,0,0,0,0,0,0,0.00,0.00,0,0,0.0000,0.0000,0.0000,0.0000,0.0000
2026-04-20T16:01:32.975,0.683,58.76,60.54,7712,1298,0.16831,0.16831,0.16831,0.17790,3,3,1,21.78234,0.00379,1.04809,0.0227,-0.1150,0.0868,0.0000,0.0000,0.0000,-1.93,-8.06,179.59,0,0,0,0,0,0,0,0,0,0,0.00,0,0,0,0,0,0,0,0.00,0.00,0,0,0.0000,0.0000,0.0000,0.0000,0.0000
2026-04-20T16:01:32.990,0.698,59.88,61.05,7713,1299,0.16842,0.16842,0.16842,0.17801,3,3,1,21.81815,0.00381,1.05108,0.0226,-0.1150,0.0867,0.0000,0.0000,0.0000,-1.88,-8.10,179.47,0,0,0,0,0,0,0,0,0,0,0.00,0,0,0,0,0,0,0,0.00,0.00,0,0,0.0000,0.0000,0.0000,0.0000,0.0000
2026-04-20T16:01:33.010,0.717,69.10,58.88,7714,1300,0.16852,0.16852,0.16852,0.17812,3,3,1,21.85650,0.00377,1.04769,0.0227,-0.1151,0.0868,0.0000,0.0000,0.0000,-1.87,-7.77,179.56,0,0,0,0,0,0,0,0,0,0,0.00,0,0,0,0,0,0,0,0.00,0.00,0,0,0.0000,0.0000,0.0000,0.0000,0.0000
2026-04-20T16:01:33.025,0.733,54.81,61.44,7715,1301,0.16863,0.16863,0.16863,0.17822,3,3,1,21.80847,0.00352,1.04529,0.0229,-0.1149,0.0868,0.0000,0.0000,0.0000,-1.80,-7.33,179.51,0,0,0,0,0,0,0,0,0,0,0.00,0,0,0,0,0,0,0,0.00,0.00,0,0,0.0000,0.0000,0.0000,0.0000,0.0000
2026-04-20T16:01:33.041,0.749,64.07,56.41,7716,1302,0.16874,0.16874,0.16874,0.17833,3,3,1,21.80183,0.00376,1.04991,0.0227,-0.1150,0.0868,0.0000,0.0000,0.0000,-1.84,-7.66,179.50,0,0,0,0,0,0,0,0,0,0,0.00,0,0,0,0,0,0,0,0.00,0.00,0,0,0.0000,0.0000,0.0000,0.0000,0.0000
2026-04-20T16:01:33.060,0.767,59.02,63.49,7717,1303,0.16885,0.16885,0.16885,0.17844,3,3,1,21.80620,0.00351,1.04904,0.0228,-0.1150,0.0868,0.0000,0.0000,0.0000,-1.77,-7.52,179.47,0,0,0,0,0,0,0,0,0,0,0.00,0,0,0,0,0,0,0,0.00,0.00,0,0,0.0000,0.0000,0.0000,0.0000,0.0000
2026-04-20T16:01:33.075,0.782,57.12,59.95,7718,1304,0.16896,0.16896,0.16896,0.17854,3,3,1,21.77946,0.00380,1.04826,0.0226,-0.1150,0.0868,0.0000,0.0000,0.0000,-1.86,-7.82,179.51,0,0,0,0,0,0,0,0,0,0,0.00,0,0,0,0,0,0,0,0.00,0.00,0,0,0.0000,0.0000,0.0000,0.0000,0.0000
2026-04-20T16:01:33.091,0.798,62.84,59.25,7719,1305,0.16906,0.16906,0.16906,0.17865,3,3,1,21.84839,0.00378,1.04850,0.0227,-0.1150,0.0868,0.0000,0.0000,0.0000,-1.88,-7.69,179.51,0,0,0,0,0,0,0,0,0,0,0.00,0,0,0,0,0,0,0,0.00,0.00,0,0,0.0000,0.0000,0.0000,0.0000,0.0000
2026-04-20T16:01:33.107,0.815,67.04,62.47,7720,1306,0.16917,0.16917,0.16917,0.17876,3,3,1,21.80085,0.00377,1.04980,0.0226,-0.1150,0.0868,0.0000,0.0000,0.0000,-1.90,-7.90,179.53,0,0,0,0,0,0,0,0,0,0,0.00,0,0,0,0,0,0,0,0.00,0.00,0,0,0.0000,0.0000,0.0000,0.0000,0.0000
2026-04-20T16:01:33.125,0.832,56.79,56.01,7721,1307,0.16928,0.16928,0.16928,0.17886,3,3,1,21.75005,0.00362,1.04839,0.0226,-0.1151,0.0868,0.0000,0.0000,0.0000,-1.88,-8.04,179.65,0,0,0,0,0,0,0,0,0,0,0.00,0,0,0,0,0,0,0,0.00,0.00,0,0,0.0000,0.0000,0.0000,0.0000,0.0000
2026-04-20T16:01:33.139,0.847,56.33,63.73,7722,1308,0.16939,0.16939,0.16939,0.17897,3,3,1,21.78234,0.00379,1.04809,0.0226,-0.1150,0.0868,0.0000,0.0000,0.0000,-1.91,-8.05,179.59,0,0,0,0,0,0,0,0,0,0,0.00,0,0,0,0,0,0,0,0.00,0.00,0,0,0.0000,0.0000,0.0000,0.0000,0.0000
2026-04-20T16:01:33.157,0.864,69.03,61.24,7723,1309,0.16949,0.16949,0.16949,0.17908,3,3,1,21.83752,0.00375,1.04925,0.0228,-0.1151,0.0869,0.0000,0.0000,0.0000,-1.92,-7.74,179.60,0,0,0,0,0,0,0,0,0,0,0.00,0,0,0,0,0,0,0,0.00,0.00,0,0,0.0000,0.0000,0.0000,0.0000,0.0000
2026-04-20T16:01:33.175,0.883,61.34,54.36,7724,1310,0.16960,0.16960,0.16960,0.17918,3,3,1,21.77531,0.00355,1.04650,0.0228,-0.1149,0.0868,0.0000,0.0000,0.0000,-1.84,-7.57,179.54,0,0,0,0,0,0,0,0,0,0,0.00,0,0,0,0,0,0,0,0.00,0.00,0,0,0.0000,0.0000,0.0000,0.0000,0.0000
2026-04-20T16:01:33.190,0.897,53.86,65.13,7725,1311,0.16971,0.16971,0.16971,0.17929,3,3,1,21.79638,0.00355,1.04821,0.0228,-0.1149,0.0867,0.0000,0.0000,0.0000,-1.77,-7.32,179.56,0,0,0,0,0,0,0,0,0,0,0.00,0,0,0,0,0,0,0,0.00,0.00,0,0,0.0000,0.0000,0.0000,0.0000,0.0000
2026-04-20T16:01:33.207,0.914,64.62,61.53,7726,1312,0.16982,0.16982,0.16982,0.17939,3,3,1,21.77722,0.00367,1.04976,0.0227,-0.1150,0.0868,0.0000,0.0000,0.0000,-1.81,-7.71,179.54,0,0,0,0,0,0,0,0,0,0,0.00,0,0,0,0,0,0,0,0.00,0.00,0,0,0.0000,0.0000,0.0000,0.0000,0.0000
2026-04-20T16:01:33.223,0.930,57.69,60.04,7727,1313,0.16992,0.16992,0.16992,0.17950,3,3,1,21.75170,0.00362,1.04702,0.0229,-0.1150,0.0867,0.0000,0.0000,0.0000,-1.84,-7.75,179.72,0,0,0,0,0,0,0,0,0,0,0.00,0,0,0,0,0,0,0,0.00,0.00,0,0,0.0000,0.0000,0.0000,0.0000,0.0000
2026-04-20T16:01:33.240,0.948,63.85,59.61,7728,1314,0.17003,0.17003,0.17003,0.17961,3,3,1,21.75328,0.00355,1.04954,0.0229,-0.1149,0.0868,0.0000,0.0000,0.0000,-1.81,-7.69,179.61,0,0,0,0,0,0,0,0,0,0,0.00,0,0,0,0,0,0,0,0.00,0.00,0,0,0.0000,0.0000,0.0000,0.0000,0.0000
2026-04-20T16:01:33.257,0.964,57.45,59.26,7729,1315,0.17014,0.17014,0.17014,0.17971,3,3,1,21.76464,0.00360,1.04792,0.0228,-0.1148,0.0868,0.0000,0.0000,0.0000,-1.79,-7.56,179.54,0,0,0,0,0,0,0,0,0,0,0.00,0,0,0,0,0,0,0,0.00,0.00,0,0,0.0000,0.0000,0.0000,0.0000,0.0000
2026-04-20T16:01:33.273,0.981,60.88,61.26,7730,1316,0.17025,0.17025,0.17025,0.17982,3,3,1,21.77981,0.00364,1.04941,0.0229,-0.1149,0.0868,0.0000,0.0000,0.0000,-1.82,-7.56,179.52,0,0,0,0,0,0,0,0,0,0,0.00,0,0,0,0,0,0,0,0.00,0.00,0,0,0.0000,0.0000,0.0000,0.0000,0.0000
2026-04-20T16:01:33.291,0.998,64.69,58.51,7731,1317,0.17035,0.17035,0.17035,0.17992,3,3,1,21.74311,0.00355,1.04816,0.0228,-0.1148,0.0868,0.0000,0.0000,0.0000,-1.78,-7.55,179.50,0,0,0,0,0,0,0,0,0,0,0.00,0,0,0,0,0,0,0,0.00,0.00,0,0,0.0000,0.0000,0.0000,0.0000,0.0000
2026-04-20T16:01:33.308,1.015,56.60,58.60,7732,1318,0.17046,0.17046,0.17046,0.18003,3,3,1,21.83775,0.00383,1.04992,0.0228,-0.1149,0.0868,0.0000,0.0000,0.0000,-1.85,-7.57,179.49,0,0,0,0,0,0,0,0,0,0,0.00,0,0,0,0,0,0,0,0.00,0.00,0,0,0.0000,0.0000,0.0000,0.0000,0.0000
2026-04-20T16:01:33.324,1.032,55.05,62.42,7733,1319,0.17057,0.17057,0.17057,0.18014,3,3,1,21.81990,0.00384,1.05317,0.0226,-0.1149,0.0868,0.0000,0.0000,0.0000,-1.84,-7.87,179.41,0,0,0,0,0,0,0,0,0,0,0.00,0,0,0,0,0,0,0,0.00,0.00,0,0,0.0000,0.0000,0.0000,0.0000,0.0000
2026-04-20T16:01:33.340,1.048,58.71,60.50,7734,1320,0.17067,0.17067,0.17067,0.18024,3,3,1,21.78234,0.00379,1.04809,0.0227,-0.1150,0.0868,0.0000,0.0000,0.0000,-1.89,-7.96,179.48,0,0,0,0,0,0,0,0,0,0,0.00,0,0,0,0,0,0,0,0.00,0.00,0,0,0.0000,0.0000,0.0000,0.0000,0.0000
2026-04-20T16:01:33.356,1.064,70.72,59.14,7735,1321,0.17078,0.17078,0.17078,0.18035,3,3,1,21.82553,0.00344,1.04550,0.0230,-0.1149,0.0868,0.0000,0.0000,0.0000,-1.80,-7.38,179.52,0,0,0,0,0,0,0,0,0,0,0.00,0,0,0,0,0,0,0,0.00,0.00,0,0,0.0000,0.0000,0.0000,0.0000,0.0000
2026-04-20T16:01:33.372,1.080,57.82,60.28,7736,1322,0.17089,0.17089,0.17089,0.18046,3,3,1,21.80668,0.00380,1.04671,0.0229,-0.1150,0.0868,0.0000,0.0000,0.0000,-1.90,-7.42,179.58,0,0,0,0,0,0,0,0,0,0,0.00,0,0,0,0,0,0,0,0.00,0.00,0,0,0.0000,0.0000,0.0000,0.0000,0.0000
2026-04-20T16:01:33.389,1.097,63.02,59.99,7737,1323,0.17100,0.17100,0.17100,0.18056,3,3,1,21.79671,0.00352,1.04804,0.0229,-0.1149,0.0868,0.0000,0.0000,0.0000,-1.81,-7.41,179.53,0,0,0,0,0,0,0,0,0,0,0.00,0,0,0,0,0,0,0,0.00,0.00,0,0,0.0000,0.0000,0.0000,0.0000,0.0000
2026-04-20T16:01:33.407,1.114,58.01,58.29,7738,1324,0.17110,0.17110,0.17110,0.18067,3,3,1,21.76914,0.00369,1.05083,0.0229,-0.1149,0.0868,0.0000,0.0000,0.0000,-1.84,-7.50,179.51,0,0,0,0,0,0,0,0,0,0,0.00,0,0,0,0,0,0,0,0.00,0.00,0,0,0.0000,0.0000,0.0000,0.0000,0.0000
2026-04-20T16:01:33.425,1.133,57.95,62.09,7739,1325,0.17121,0.17121,0.17121,0.18077,3,3,1,21.79116,0.00336,1.04666,0.0232,-0.1148,0.0869,0.0000,0.0000,0.0000,-1.76,-6.91,179.51,0,0,0,0,0,0,0,0,0,0,0.00,0,0,0,0,0,0,0,0.00,0.00,0,0,0.0000,0.0000,0.0000,0.0000,0.0000
2026-04-20T16:01:33.440,1.147,56.25,60.73,7740,1326,0.17132,0.17132,0.17132,0.18088,3,3,1,21.75580,0.00370,1.04822,0.0227,-0.1149,0.0868,0.0000,0.0000,0.0000,-1.82,-7.52,179.52,0,0,0,0,0,0,0,0,0,0,0.00,0,0,0,0,0,0,0,0.00,0.00,0,0,0.0000,0.0000,0.0000,0.0000,0.0000
2026-04-20T16:01:33.456,1.164,69.50,60.00,7741,1327,0.17142,0.17142,0.17142,0.18098,3,3,1,21.78063,0.00340,1.04778,0.0229,-0.1149,0.0868,0.0000,0.0000,0.0000,-1.71,-7.33,179.47,0,0,0,0,0,0,0,0,0,0,0.00,0,0,0,0,0,0,0,0.00,0.00,0,0,0.0000,0.0000,0.0000,0.0000,0.0000
2026-04-20T16:01:33.476,1.183,52.78,57.74,7742,1328,0.17153,0.17153,0.17153,0.18109,3,3,1,21.78234,0.00379,1.04809,0.0227,-0.1150,0.0868,0.0000,0.0000,0.0000,-1.82,-7.69,179.51,0,0,0,0,0,0,0,0,0,0,0.00,0,0,0,0,0,0,0,0.00,0.00,0,0,0.0000,0.0000,0.0000,0.0000,0.0000
2026-04-20T16:01:33.489,1.197,56.33,61.01,7743,1329,0.17164,0.17164,0.17164,0.18120,3,3,1,21.75184,0.00361,1.04390,0.0228,-0.1148,0.0866,0.0000,0.0000,0.0000,-1.81,-7.63,179.58,0,0,0,0,0,0,0,0,0,0,0.00,0,0,0,0,0,0,0,0.00,0.00,0,0,0.0000,0.0000,0.0000,0.0000,0.0000
2026-04-20T16:01:33.507,1.214,73.13,59.58,7744,1330,0.17175,0.17175,0.17175,0.18130,3,3,1,21.77531,0.00355,1.04650,0.0228,-0.1148,0.0867,0.0000,0.0000,0.0000,-1.79,-7.52,179.54,0,0,0,0,0,0,0,0,0,0,0.00,0,0,0,0,0,0,0,0.00,0.00,0,0,0.0000,0.0000,0.0000,0.0000,0.0000
2026-04-20T16:01:33.527,1.235,56.93,57.43,7745,1331,0.17185,0.17185,0.17185,0.18141,3,3,1,21.77532,0.00367,1.05004,0.0227,-0.1149,0.0868,0.0000,0.0000,0.0000,-1.80,-7.79,179.51,0,0,0,0,0,0,0,0,0,0,0.00,0,0,0,0,0,0,0,0.00,0.00,0,0,0.0000,0.0000,0.0000,0.0000,0.0000
2026-04-20T16:01:33.540,1.248,49.18,63.37,7746,1332,0.17196,0.17196,0.17196,0.18151,3,3,1,21.84276,0.00381,1.04771,0.0228,-0.1150,0.0867,0.0000,0.0000,0.0000,-1.85,-7.73,179.56,0,0,0,0,0,0,0,0,0,0,0.00,0,0,0,0,0,0,0,0.00,0.00,0,0,0.0000,0.0000,0.0000,0.0000,0.0000
2026-04-20T16:01:33.556,1.263,77.95,59.46,7747,1333,0.17207,0.17207,0.17207,0.18162,3,3,1,21.75236,0.00368,1.04863,0.0229,-0.1150,0.0866,0.0000,0.0000,0.0000,-1.83,-7.77,179.65,0,0,0,0,0,0,0,0,0,0,0.00,0,0,0,0,0,0,0,0.00,0.00,0,0,0.0000,0.0000,0.0000,0.0000,0.0000
2026-04-20T16:01:33.572,1.280,62.10,60.16,7748,1334,0.17217,0.17217,0.17217,0.18172,3,3,1,21.84622,0.00369,1.04786,0.0229,-0.1151,0.0868,0.0000,0.0000,0.0000,-1.92,-7.61,179.72,0,0,0,0,0,0,0,0,0,0,0.00,0,0,0,0,0,0,0,0.00,0.00,0,0,0.0000,0.0000,0.0000,0.0000,0.0000
2026-04-20T16:01:33.590,1.298,61.08,61.52,7749,1335,0.17228,0.17228,0.17228,0.18183,3,3,1,21.82509,0.00384,1.04589,0.0228,-0.1150,0.0866,0.0000,0.0000,0.0000,-1.94,-7.67,179.70,0,0,0,0,0,0,0,0,0,0,0.00,0,0,0,0,0,0,0,0.00,0.00,0,0,0.0000,0.0000,0.0000,0.0000,0.0000
2026-04-20T16:01:33.606,1.314,56.96,59.80,7750,1336,0.17239,0.17239,0.17239,0.18194,3,3,1,21.75580,0.00370,1.04822,0.0227,-0.1150,0.0867,0.0000,0.0000,0.0000,-1.91,-7.90,179.62,0,0,0,0,0,0,0,0,0,0,0.00,0,0,0,0,0,0,0,0.00,0.00,0,0,0.0000,0.0000,0.0000,0.0000,0.0000
2026-04-20T16:01:33.623,1.331,65.16,59.85,7751,1337,0.17249,0.17249,0.17249,0.18204,3,3,1,21.79671,0.00352,1.04804,0.0228,-0.1149,0.0867,0.0000,0.0000,0.0000,-1.82,-7.65,179.55,0,0,0,0,0,0,0,0,0,0,0.00,0,0,0,0,0,0,0,0.00,0.00,0,0,0.0000,0.0000,0.0000,0.0000,0.0000
2026-04-20T16:01:33.641,1.348,59.56,57.40,7752,1338,0.17260,0.17260,0.17260,0.18215,3,3,1,21.76968,0.00358,1.04571,0.0229,-0.1149,0.0867,0.0000,0.0000,0.0000,-1.78,-7.58,179.57,0,0,0,0,0,0,0,0,0,0,0.00,0,0,0,0,0,0,0,0.00,0.00,0,0,0.0000,0.0000,0.0000,0.0000,0.0000
2026-04-20T16:01:33.656,1.363,57.33,65.50,7753,1339,0.17271,0.17271,0.17271,0.18225,3,3,1,21.79704,0.00367,1.04441,0.0228,-0.1151,0.0867,0.0000,0.0000,0.0000,-1.88,-7.79,179.65,0,0,0,0,0,0,0,0,0,0,0.00,0,0,0,0,0,0,0,0.00,0.00,0,0,0.0000,0.0000,0.0000,0.0000,0.0000
2026-04-20T16:01:33.673,1.380,62.10,58.54,7754,1340,0.17281,0.17281,0.17281,0.18236,3,3,1,21.79941,0.00371,1.04830,0.0228,-0.1151,0.0868,0.0000,0.0000,0.0000,-1.90,-7.87,179.64,0,0,0,0,0,0,0,0,0,0,0.00,0,0,0,0,0,0,0,0.00,0.00,0,0,0.0000,0.0000,0.0000,0.0000,0.0000
2026-04-20T16:01:33.691,1.398,59.03,59.34,7755,1341,0.17292,0.17292,0.17292,0.18246,3,3,1,21.77550,0.00359,1.04807,0.0229,-0.1150,0.0868,0.0000,0.0000,0.0000,-1.89,-7.68,179.62,0,0,0,0,0,0,0,0,0,0,0.00,0,0,0,0,0,0,0,0.00,0.00,0,0,0.0000,0.0000,0.0000,0.0000,0.0000
2026-04-20T16:01:33.708,1.416,54.18,59.57,7756,1342,0.17303,0.17303,0.17303,0.18257,3,3,1,21.77214,0.00334,1.04623,0.0231,-0.1149,0.0868,0.0000,0.0000,0.0000,-1.81,-7.28,179.62,0,0,0,0,0,0,0,0,0,0,0.00,0,0,0,0,0,0,0,0.00,0.00,0,0,0.0000,0.0000,0.0000,0.0000,0.0000
2026-04-20T16:01:33.724,1.431,58.74,60.59,7757,1343,0.17313,0.17313,0.17313,0.18267,3,3,1,21.77222,0.00328,1.04850,0.0231,-0.1150,0.0868,0.0000,0.0000,0.0000,-1.69,-7.14,179.61,0,0,0,0,0,0,0,0,0,0,0.00,0,0,0,0,0,0,0,0.00,0.00,0,0,0.0000,0.0000,0.0000,0.0000,0.0000
2026-04-20T16:01:33.740,1.448,61.24,58.95,7758,1344,0.17324,0.17324,0.17324,0.18278,3,3,1,21.74888,0.00385,1.04948,0.0228,-0.1150,0.0867,0.0000,0.0000,0.0000,-1.81,-7.69,179.64,0,0,0,0,0,0,0,0,0,0,0.00,0,0,0,0,0,0,0,0.00,0.00,0,0,0.0000,0.0000,0.0000,0.0000,0.0000
2026-04-20T16:01:33.758,1.465,63.80,57.88,7759,1345,0.17335,0.17335,0.17335,0.18288,3,3,1,21.81321,0.00374,1.05063,0.0228,-0.1151,0.0868,0.0000,0.0000,0.0000,-1.84,-7.85,179.57,0,0,0,0,0,0,0,0,0,0,0.00,0,0,0,0,0,0,0,0.00,0.00,0,0,0.0000,0.0000,0.0000,0.0000,0.0000
2026-04-20T16:01:33.773,1.480,54.10,65.06,7760,1346,0.17345,0.17345,0.17345,0.18299,3,3,1,21.76914,0.00369,1.05083,0.0229,-0.1149,0.0868,0.0000,0.0000,0.0000,-1.85,-7.72,179.53,0,0,0,0,0,0,0,0,0,0,0.00,0,0,0,0,0,0,0,0.00,0.00,0,0,0.0000,0.0000,0.0000,0.0000,0.0000
2026-04-20T16:01:33.789,1.497,67.78,57.70,7761,1347,0.17356,0.17356,0.17356,0.18309,3,3,1,21.80120,0.00361,1.05095,0.0229,-0.1150,0.0868,0.0000,0.0000,0.0000,-1.83,-7.64,179.51,0,0,0,0,0,0,0,0,0,0,0.00,0,0,0,0,0,0,0,0.00,0.00,0,0,0.0000,0.0000,0.0000,0.0000,0.0000
2026-04-20T16:01:33.806,1.514,61.88,60.57,7762,1348,0.17367,0.17367,0.17367,0.18320,3,3,1,21.80183,0.00376,1.04991,0.0228,-0.1150,0.0868,0.0000,0.0000,0.0000,-1.85,-7.82,179.50,0,0,0,0,0,0,0,0,0,0,0.00,0,0,0,0,0,0,0,0.00,0.00,0,0,0.0000,0.0000,0.0000,0.0000,0.0000
2026-04-20T16:01:33.822,1.530,59.30,59.63,7763,1349,0.17377,0.17377,0.17377,0.18331,3,3,1,21.74326,0.00345,1.04414,0.0229,-0.1148,0.0867,0.0000,0.0000,0.0000,-1.79,-7.54,179.52,0,0,0,0,0,0,0,0,0,0,0.00,0,0,0,0,0,0,0,0.00,0.00,0,0,0.0000,0.0000,0.0000,0.0000,0.0000
2026-04-20T16:01:33.841,1.549,61.71,59.34,7764,1350,0.17388,0.17388,0.17388,0.18341,3,3,1,21.80000,0.00377,1.04559,0.0229,-0.1150,0.0867,0.0000,0.0000,0.0000,-1.88,-7.59,179.64,0,0,0,0,0,0,0,0,0,0,0.00,0,0,0,0,0,0,0,0.00,0.00,0,0,0.0000,0.0000,0.0000,0.0000,0.0000
2026-04-20T16:01:33.858,1.565,53.04,61.12,7765,1351,0.17399,0.17399,0.17399,0.18352,3,3,1,21.81214,0.00352,1.04501,0.0230,-0.1148,0.0867,0.0000,0.0000,0.0000,-1.82,-7.27,179.58,0,0,0,0,0,0,0,0,0,0,0.00,0,0,0,0,0,0,0,0.00,0.00,0,0,0.0000,0.0000,0.0000,0.0000,0.0000
2026-04-20T16:01:33.872,1.580,64.72,61.23,7766,1352,0.17409,0.17409,0.17409,0.18362,3,3,1,21.75046,0.00348,1.04852,0.0229,-0.1149,0.0867,0.0000,0.0000,0.0000,-1.74,-7.45,179.58,0,0,0,0,0,0,0,0,0,0,0.00,0,0,0,0,0,0,0,0.00,0.00,0,0,0.0000,0.0000,0.0000,0.0000,0.0000
2026-04-20T16:01:33.890,1.597,65.06,58.34,7767,1353,0.17420,0.17420,0.17420,0.18373,3,3,1,21.79125,0.00359,1.04883,0.0230,-0.1150,0.0868,0.0000,0.0000,0.0000,-1.78,-7.51,179.64,0,0,0,0,0,0,0,0,0,0,0.00,0,0,0,0,0,0,0,0.00,0.00,0,0,0.0000,0.0000,0.0000,0.0000,0.0000
2026-04-20T16:01:33.906,1.613,57.61,60.57,7768,1354,0.17430,0.17430,0.17430,0.18383,3,3,1,21.82451,0.00366,1.04829,0.0230,-0.1149,0.0868,0.0000,0.0000,0.0000,-1.82,-7.30,179.56,0,0,0,0,0,0,0,0,0,0,0.00,0,0,0,0,0,0,0,0.00,0.00,0,0,0.0000,0.0000,0.0000,0.0000,0.0000
2026-04-20T16:01:33.923,1.630,62.49,61.79,7769,1355,0.17441,0.17441,0.17441,0.18394,3,3,1,21.78403,0.00379,1.04811,0.0228,-0.1149,0.0868,0.0000,0.0000,0.0000,-1.88,-7.68,179.56,0,0,0,0,0,0,0,0,0,0,0.00,0,0,0,0,0,0,0,0.00,0.00,0,0,0.0000,0.0000,0.0000,0.0000,0.0000
2026-04-20T16:01:33.940,1.647,59.03,58.18,7770,1356,0.17452,0.17452,0.17452,0.18404,3,3,1,21.77521,0.00347,1.04828,0.0229,-0.1149,0.0868,0.0000,0.0000,0.0000,-1.79,-7.60,179.52,0,0,0,0,0,0,0,0,0,0,0.00,0,0,0,0,0,0,0,0.00,0.00,0,0,0.0000,0.0000,0.0000,0.0000,0.0000
2026-04-20T16:01:33.959,1.666,62.45,59.54,7771,1357,0.17462,0.17462,0.17462,0.18415,3,3,1,21.79671,0.00352,1.04804,0.0229,-0.1149,0.0868,0.0000,0.0000,0.0000,-1.76,-7.50,179.50,0,0,0,0,0,0,0,0,0,0,0.00,0,0,0,0,0,0,0,0.00,0.00,0,0,0.0000,0.0000,0.0000,0.0000,0.0000
2026-04-20T16:01:33.972,1.680,52.03,61.92,7772,1358,0.17473,0.17473,0.17473,0.18425,3,3,1,21.82873,0.00381,1.04697,0.0229,-0.1149,0.0868,0.0000,0.0000,0.0000,-1.85,-7.54,179.52,0,0,0,0,0,0,0,0,0,0,0.00,0,0,0,0,0,0,0,0.00,0.00,0,0,0.0000,0.0000,0.0000,0.0000,0.0000
2026-04-20T16:01:33.989,1.697,66.81,58.38,7773,1359,0.17484,0.17484,0.17484,0.18436,3,3,1,21.76755,0.00379,1.04809,0.0228,-0.1149,0.0868,0.0000,0.0000,0.0000,-1.91,-7.76,179.57,0,0,0,0,0,0,0,0,0,0,0.00,0,0,0,0,0,0,0,0.00,0.00,0,0,0.0000,0.0000,0.0000,0.0000,0.0000
2026-04-20T16:01:34.006,1.714,60.67,60.63,7774,1360,0.17494,0.17494,0.17494,0.18446,3,3,1,21.82704,0.00382,1.04696,0.0229,-0.1149,0.0868,0.0000,0.0000,0.0000,-1.93,-7.67,179.55,0,0,0,0,0,0,0,0,0,0,0.00,0,0,0,0,0,0,0,0.00,0.00,0,0,0.0000,0.0000,0.0000,0.0000,0.0000
2026-04-20T16:01:34.023,1.730,60.83,59.51,7775,1361,0.17505,0.17505,0.17505,0.18457,3,3,1,21.81639,0.00386,1.04838,0.0228,-0.1149,0.0868,0.0000,0.0000,0.0000,-1.94,-7.63,179.52,0,0,0,0,0,0,0,0,0,0,0.00,0,0,0,0,0,0,0,0.00,0.00,0,0,0.0000,0.0000,0.0000,0.0000,0.0000
2026-04-20T16:01:34.041,1.748,61.51,57.64,7776,1362,0.17515,0.17515,0.17515,0.18467,3,3,1,21.79511,0.00394,1.04957,0.0227,-0.1149,0.0868,0.0000,0.0000,0.0000,-1.98,-7.86,179.53,0,0,0,0,0,0,0,0,0,0,0.00,0,0,0,0,0,0,0,0.00,0.00,0,0,0.0000,0.0000,0.0000,0.0000,0.0000
2026-04-20T16:01:34.059,1.766,52.40,63.43,7777,1363,0.17526,0.17526,0.17526,0.18478,3,3,1,21.84839,0.00378,1.04850,0.0228,-0.1150,0.0868,0.0000,0.0000,0.0000,-1.95,-7.71,179.52,0,0,0,0,0,0,0,0,0,0,0.00,0,0,0,0,0,0,0,0.00,0.00,0,0,0.0000,0.0000,0.0000,0.0000,0.0000
2026-04-20T16:01:34.073,1.781,56.24,59.77,7778,1364,0.17537,0.17537,0.17537,0.18488,3,3,1,21.77802,0.00374,1.04675,0.0228,-0.1150,0.0868,0.0000,0.0000,0.0000,-1.95,-7.84,179.58,0,0,0,0,0,0,0,0,0,0,0.00,0,0,0,0,0,0,0,0.00,0.00,0,0,0.0000,0.0000,0.0000,0.0000,0.0000
2026-04-20T16:01:34.090,1.798,74.52,59.22,7779,1365,0.17547,0.17547,0.17547,0.18499,3,3,1,21.84839,0.00378,1.04850,0.0228,-0.1150,0.0868,0.0000,0.0000,0.0000,-1.93,-7.70,179.55,0,0,0,0,0,0,0,0,0,0,0.00,0,0,0,0,0,0,0,0.00,0.00,0,0,0.0000,0.0000,0.0000,0.0000,0.0000
2026-04-20T16:01:34.109,1.817,54.78,57.52,7780,1366,0.17558,0.17558,0.17558,0.18509,3,3,1,21.78904,0.00389,1.05063,0.0226,-0.1149,0.0867,0.0000,0.0000,0.0000,-1.91,-7.95,179.46,0,0,0,0,0,0,0,0,0,0,0.00,0,0,0,0,0,0,0,0.00,0.00,0,0,0.0000,0.0000,0.0000,0.0000,0.0000
2026-04-20T16:01:34.123,1.830,53.43,64.87,7781,1367,0.17568,0.17568,0.17568,0.18519,3,3,1,21.79336,0.00381,1.05041,0.0226,-0.1150,0.0868,0.0000,0.0000,0.0000,-1.93,-8.05,179.52,0,0,0,0,0,0,0,0,0,0,0.00,0,0,0,0,0,0,0,0.00,0.00,0,0,0.0000,0.0000,0.0000,0.0000,0.0000
2026-04-20T16:01:34.139,1.846,74.71,58.55,7782,1368,0.17579,0.17579,0.17579,0.18530,3,3,1,21.81639,0.00386,1.04838,0.0228,-0.1149,0.0868,0.0000,0.0000,0.0000,-1.94,-7.82,179.51,0,0,0,0,0,0,0,0,0,0,0.00,0,0,0,0,0,0,0,0.00,0.00,0,0,0.0000,0.0000,0.0000,0.0000,0.0000
2026-04-20T16:01:34.156,1.864,61.79,60.39,7783,1369,0.17590,0.17590,0.17590,0.18540,3,3,1,21.77802,0.00374,1.04675,0.0228,-0.1150,0.0868,0.0000,0.0000,0.0000,-1.95,-7.89,179.57,0,0,0,0,0,0,0,0,0,0,0.00,0,0,0,0,0,0,0,0.00,0.00,0,0,0.0000,0.0000,0.0000,0.0000,0.0000
2026-04-20T16:01:34.173,1.880,59.44,60.71,7784,1370,0.17600,0.17600,0.17600,0.18551,3,3,1,21.77981,0.00364,1.04941,0.0229,-0.1149,0.0868,0.0000,0.0000,0.0000,-1.90,-7.73,179.54,0,0,0,0,0,0,0,0,0,0,0.00,0,0,0,0,0,0,0,0.00,0.00,0,0,0.0000,0.0000,0.0000,0.0000,0.0000
2026-04-20T16:01:34.189,1.897,58.76,58.84,7785,1371,0.17611,0.17611,0.17611,0.18561,3,3,1,21.75127,0.00334,1.04808,0.0230,-0.1148,0.0868,0.0000,0.0000,0.0000,-1.77,-7.38,179.50,0,0,0,0,0,0,0,0,0,0,0.00,0,0,0,0,0,0,0,0.00,0.00,0,0,0.0000,0.0000,0.0000,0.0000,0.0000
2026-04-20T16:01:34.207,1.915,55.71,60.53,7786,1372,0.17621,0.17621,0.17621,0.18572,3,3,1,21.85102,0.00356,1.04950,0.0231,-0.1150,0.0869,0.0000,0.0000,0.0000,-1.79,-7.17,179.52,0,0,0,0,0,0,0,0,0,0,0.00,0,0,0,0,0,0,0,0.00,0.00,0,0,0.0000,0.0000,0.0000,0.0000,0.0000
2026-04-20T16:01:34.222,1.930,57.49,63.47,7787,1373,0.17632,0.17632,0.17632,0.18582,3,3,1,21.77802,0.00374,1.04675,0.0228,-0.1150,0.0868,0.0000,0.0000,0.0000,-1.88,-7.57,179.58,0,0,0,0,0,0,0,0,0,0,0.00,0,0,0,0,0,0,0,0.00,0.00,0,0,0.0000,0.0000,0.0000,0.0000,0.0000
2026-04-20T16:01:34.239,1.947,71.14,56.36,7788,1374,0.17643,0.17643,0.17643,0.18593,3,3,1,21.81321,0.00374,1.05063,0.0227,-0.1150,0.0869,0.0000,0.0000,0.0000,-1.87,-7.79,179.54,0,0,0,0,0,0,0,0,0,0,0.00,0,0,0,0,0,0,0,0.00,0.00,0,0,0.0000,0.0000,0.0000,0.0000,0.0000
2026-04-20T16:01:34.256,1.964,57.23,61.94,7789,1375,0.17653,0.17653,0.17653,0.18603,3,3,1,21.82704,0.00382,1.04696,0.0228,-0.1150,0.0868,0.0000,0.0000,0.0000,-1.91,-7.68,179.53,0,0,0,0,0,0,0,0,0,0,0.00,0,0,0,0,0,0,0,0.00,0.00,0,0,0.0000,0.0000,0.0000,0.0000,0.0000
2026-04-20T16:01:34.273,1.980,62.79,58.49,7790,1376,0.17664,0.17664,0.17664,0.18614,3,3,1,21.77838,0.00361,1.05091,0.0229,-0.1150,0.0868,0.0000,0.0000,0.0000,-1.86,-7.70,179.59,0,0,0,0,0,0,0,0,0,0,0.00,0,0,0,0,0,0,0,0.00,0.00,0,0,0.0000,0.0000,0.0000,0.0000,0.0000
2026-04-20T16:01:34.290,1.997,55.56,59.67,7791,1377,0.17674,0.17674,0.17674,0.18624,3,3,1,21.79941,0.00371,1.04830,0.0228,-0.1151,0.0869,0.0000,0.0000,0.0000,-1.89,-7.83,179.61,0,0,0,0,0,0,0,0,0,0,0.00,0,0,0,0,0,0,0,0.00,0.00,0,0,0.0000,0.0000,0.0000,0.0000,0.0000
2026-04-20T16:01:34.306,2.014,61.67,65.61,7792,1378,0.17685,0.17685,0.17685,0.18634,3,3,1,21.77532,0.00367,1.05004,0.0227,-0.1150,0.0869,0.0000,0.0000,0.0000,-1.86,-7.95,179.55,0,0,0,0,0,0,0,0,0,0,0.00,0,0,0,0,0,0,0,0.00,0.00,0,0,0.0000,0.0000,0.0000,0.0000,0.0000
2026-04-20T16:01:34.323,2.030,59.88,56.37,7793,1379,0.17695,0.17695,0.17695,0.18645,3,3,1,21.78253,0.00339,1.04750,0.0229,-0.1149,0.0868,0.0000,0.0000,0.0000,-1.75,-7.57,179.51,0,0,0,0,0,0,0,0,0,0,0.00,0,0,0,0,0,0,0,0.00,0.00,0,0,0.0000,0.0000,0.0000,0.0000,0.0000
2026-04-20T16:01:34.341,2.049,58.49,59.48,7794,1380,0.17706,0.17706,0.17706,0.18655,3,3,1,21.76322,0.00353,1.04879,0.0230,-0.1149,0.0867,0.0000,0.0000,0.0000,-1.77,-7.59,179.60,0,0,0,0,0,0,0,0,0,0,0.00,0,0,0,0,0,0,0,0.00,0.00,0,0,0.0000,0.0000,0.0000,0.0000,0.0000
2026-04-20T16:01:34.358,2.066,54.40,58.32,7795,1381,0.17716,0.17716,0.17716,0.18666,3,3,1,21.77514,0.00375,1.04692,0.0228,-0.1150,0.0868,0.0000,0.0000,0.0000,-1.87,-7.81,179.62,0,0,0,0,0,0,0,0,0,0,0.00,0,0,0,0,0,0,0,0.00,0.00,0,0,0.0000,0.0000,0.0000,0.0000,0.0000
2026-04-20T16:01:34.372,2.080,64.53,63.97,7796,1382,0.17727,0.17727,0.17727,0.18676,3,3,1,21.76125,0.00380,1.04808,0.0227,-0.1150,0.0867,0.0000,0.0000,0.0000,-1.90,-8.02,179.66,0,0,0,0,0,0,0,0,0,0,0.00,0,0,0,0,0,0,0,0.00,0.00,0,0,0.0000,0.0000,0.0000,0.0000,0.0000
2026-04-20T16:01:34.390,2.097,67.10,57.04,7797,1383,0.17738,0.17738,0.17738,0.18687,3,3,1,21.80285,0.00355,1.04449,0.0230,-0.1149,0.0867,0.0000,0.0000,0.0000,-1.81,-7.50,179.61,0,0,0,0,0,0,0,0,0,0,0.00,0,0,0,0,0,0,0,0.00,0.00,0,0,0.0000,0.0000,0.0000,0.0000,0.0000
2026-04-20T16:01:34.406,2.114,60.80,59.91,7798,1384,0.17748,0.17748,0.17748,0.18697,3,3,1,21.80492,0.00379,1.04382,0.0229,-0.1150,0.0867,0.0000,0.0000,0.0000,-1.92,-7.52,179.65,0,0,0,0,0,0,0,0,0,0,0.00,0,0,0,0,0,0,0,0.00,0.00,0,0,0.0000,0.0000,0.0000,0.0000,0.0000
2026-04-20T16:01:34.424,2.131,55.61,58.75,7799,1385,0.17759,0.17759,0.17759,0.18708,3,3,1,21.81321,0.00374,1.05063,0.0227,-0.1150,0.0868,0.0000,0.0000,0.0000,-1.89,-7.77,179.57,0,0,0,0,0,0,0,0,0,0,0.00,0,0,0,0,0,0,0,0.00,0.00,0,0,0.0000,0.0000,0.0000,0.0000,0.0000
2026-04-20T16:01:34.439,2.146,59.11,65.44,7800,1386,0.17769,0.17769,0.17769,0.18718,3,3,1,21.76395,0.00369,1.04741,0.0227,-0.1150,0.0868,0.0000,0.0000,0.0000,-1.85,-7.88,179.62,0,0,0,0,0,0,0,0,0,0,0.00,0,0,0,0,0,0,0,0.00,0.00,0,0,0.0000,0.0000,0.0000,0.0000,0.0000
2026-04-20T16:01:34.457,2.164,65.77,59.62,7801,1387,0.17780,0.17780,0.17780,0.18728,3,3,1,21.77521,0.00347,1.04828,0.0228,-0.1149,0.0868,0.0000,0.0000,0.0000,-1.77,-7.70,179.55,0,0,0,0,0,0,0,0,0,0,0.00,0,0,0,0,0,0,0,0.00,0.00,0,0,0.0000,0.0000,0.0000,0.0000,0.0000
2026-04-20T16:01:34.473,2.181,58.18,55.87,7802,1388,0.17790,0.17790,0.17790,0.18739,3,3,1,21.75956,0.00380,1.04806,0.0227,-0.1150,0.0867,0.0000,0.0000,0.0000,-1.85,-7.95,179.62,0,0,0,0,0,0,0,0,0,0,0.00,0,0,0,0,0,0,0,0.00,0.00,0,0,0.0000,0.0000,0.0000,0.0000,0.0000
2026-04-20T16:01:34.490,2.197,54.29,60.97,7803,1389,0.17801,0.17801,0.17801,0.18749,3,3,1,21.78819,0.00356,1.04738,0.0229,-0.1149,0.0867,0.0000,0.0000,0.0000,-1.79,-7.52,179.61,0,0,0,0,0,0,0,0,0,0,0.00,0,0,0,0,0,0,0,0.00,0.00,0,0,0.0000,0.0000,0.0000,0.0000,0.0000
2026-04-20T16:01:34.506,2.214,69.33,60.70,7804,1390,0.17811,0.17811,0.17811,0.18760,3,3,1,21.79671,0.00352,1.04804,0.0229,-0.1149,0.0868,0.0000,0.0000,0.0000,-1.76,-7.46,179.55,0,0,0,0,0,0,0,0,0,0,0.00,0,0,0,0,0,0,0,0.00,0.00,0,0,0.0000,0.0000,0.0000,0.0000,0.0000
2026-04-20T16:01:34.526,2.233,60.41,60.99,7805,1391,0.17822,0.17822,0.17822,0.18770,3,3,1,21.80890,0.00369,1.04929,0.0228,-0.1150,0.0869,0.0000,0.0000,0.0000,-1.83,-7.69,179.57,0,0,0,0,0,0,0,0,0,0,0.00,0,0,0,0,0,0,0,0.00,0.00,0,0,0.0000,0.0000,0.0000,0.0000,0.0000
2026-04-20T16:01:34.539,2.247,49.13,58.96,7806,1392,0.17832,0.17832,0.17832,0.18780,3,3,1,21.76323,0.00379,1.04779,0.0227,-0.1150,0.0866,0.0000,0.0000,0.0000,-1.89,-7.98,179.66,0,0,0,0,0,0,0,0,0,0,0.00,0,0,0,0,0,0,0,0.00,0.00,0,0,0.0000,0.0000,0.0000,0.0000,0.0000
2026-04-20T16:01:34.556,2.264,73.75,61.73,7807,1393,0.17843,0.17843,0.17843,0.18791,3,3,1,21.75948,0.00370,1.04795,0.0227,-0.1149,0.0867,0.0000,0.0000,0.0000,-1.90,-8.08,179.63,0,0,0,0,0,0,0,0,0,0,0.00,0,0,0,0,0,0,0,0.00,0.00,0,0,0.0000,0.0000,0.0000,0.0000,0.0000
2026-04-20T16:01:34.572,2.280,62.55,60.40,7808,1394,0.17853,0.17853,0.17853,0.18801,3,3,1,21.77898,0.00355,1.04622,0.0228,-0.1148,0.0867,0.0000,0.0000,0.0000,-1.85,-7.77,179.59,0,0,0,0,0,0,0,0,0,0,0.00,0,0,0,0,0,0,0,0.00,0.00,0,0,0.0000,0.0000,0.0000,0.0000,0.0000
2026-04-20T16:01:34.590,2.297,59.28,58.14,7809,1395,0.17864,0.17864,0.17864,0.18812,3,3,1,21.79054,0.00365,1.05237,0.0228,-0.1149,0.0868,0.0000,0.0000,0.0000,-1.83,-7.68,179.53,0,0,0,0,0,0,0,0,0,0,0.00,0,0,0,0,0,0,0,0.00,0.00,0,0,0.0000,0.0000,0.0000,0.0000,0.0000
2026-04-20T16:01:34.606,2.314,56.30,62.31,7810,1396,0.17875,0.17875,0.17875,0.18822,3,3,1,21.77531,0.00355,1.04650,0.0229,-0.1148,0.0867,0.0000,0.0000,0.0000,-1.80,-7.54,179.51,0,0,0,0,0,0,0,0,0,0,0.00,0,0,0,0,0,0,0,0.00,0.00,0,0,0.0000,0.0000,0.0000,0.0000,0.0000
2026-04-20T16:01:34.622,2.329,64.82,58.85,7811,1397,0.17885,0.17885,0.17885,0.18832,3,3,1,21.77722,0.00367,1.04976,0.0227,-0.1149,0.0867,0.0000,0.0000,0.0000,-1.82,-7.83,179.52,0,0,0,0,0,0,0,0,0,0,0.00,0,0,0,0,0,0,0,0.00,0.00,0,0,0.0000,0.0000,0.0000,0.0000,0.0000
2026-04-20T16:01:34.640,2.347,60.22,59.38,7812,1398,0.17896,0.17896,0.17896,0.18843,3,3,1,21.77802,0.00374,1.04675,0.0228,-0.1149,0.0868,0.0000,0.0000,0.0000,-1.89,-7.90,179.58,0,0,0,0,0,0,0,0,0,0,0.00,0,0,0,0,0,0,0,0.00,0.00,0,0,0.0000,0.0000,0.0000,0.0000,0.0000
2026-04-20T16:01:34.655,2.363,55.51,63.30,7813,1399,0.17906,0.17906,0.17906,0.18853,3,3,1,21.84437,0.00373,1.04652,0.0228,-0.1150,0.0867,0.0000,0.0000,0.0000,-1.94,-7.73,179.63,0,0,0,0,0,0,0,0,0,0,0.00,0,0,0,0,0,0,0,0.00,0.00,0,0,0.0000,0.0000,0.0000,0.0000,0.0000
2026-04-20T16:01:34.672,2.380,65.22,59.03,7814,1400,0.17917,0.17917,0.17917,0.18864,3,3,1,21.80416,0.00347,1.04396,0.0230,-0.1149,0.0868,0.0000,0.0000,0.0000,-1.85,-7.26,179.60,0,0,0,0,0,0,0,0,0,0,0.00,0,0,0,0,0,0,0,0.00,0.00,0,0,0.0000,0.0000,0.0000,0.0000,0.0000
2026-04-20T16:01:34.690,2.398,59.23,59.90,7815,1401,0.17927,0.17927,0.17927,0.18874,3,3,1,21.82364,0.00373,1.05077,0.0227,-0.1150,0.0868,0.0000,0.0000,0.0000,-1.87,-7.67,179.58,0,0,0,0,0,0,0,0,0,0,0.00,0,0,0,0,0,0,0,0.00,0.00,0,0,0.0000,0.0000,0.0000,0.0000,0.0000
2026-04-20T16:01:34.706,2.414,54.32,60.64,7816,1402,0.17938,0.17938,0.17938,0.18884,3,3,1,21.79778,0.00346,1.04640,0.0231,-0.1148,0.0867,0.0000,0.0000,0.0000,-1.77,-7.20,179.56,0,0,0,0,0,0,0,0,0,0,0.00,0,0,0,0,0,0,0,0.00,0.00,0,0,0.0000,0.0000,0.0000,0.0000,0.0000
2026-04-20T16:01:34.722,2.429,68.38,57.58,7817,1403,0.17948,0.17948,0.17948,0.18895,3,3,1,21.80373,0.00376,1.04964,0.0228,-0.1150,0.0868,0.0000,0.0000,0.0000,-1.84,-7.63,179.55,0,0,0,0,0,0,0,0,0,0,0.00,0,0,0,0,0,0,0,0.00,0.00,0,0,0.0000,0.0000,0.0000,0.0000,0.0000
2026-04-20T16:01:34.740,2.448,59.63,64.37,7818,1404,0.17959,0.17959,0.17959,0.18905,3,3,1,21.74311,0.00355,1.04816,0.0229,-0.1148,0.0867,0.0000,0.0000,0.0000,-1.79,-7.58,179.51,0,0,0,0,0,0,0,0,0,0,0.00,0,0,0,0,0,0,0,0.00,0.00,0,0,0.0000,0.0000,0.0000,0.0000,0.0000
2026-04-20T16:01:34.756,2.463,54.11,58.96,7819,1405,0.17969,0.17969,0.17969,0.18915,3,3,1,21.84589,0.00349,1.04690,0.0230,-0.1149,0.0867,0.0000,0.0000,0.0000,-1.74,-7.32,179.56,0,0,0,0,0,0,0,0,0,0,0.00,0,0,0,0,0,0,0,0.00,0.00,0,0,0.0000,0.0000,0.0000,0.0000,0.0000
2026-04-20T16:01:34.773,2.481,64.19,58.32,7820,1406,0.17980,0.17980,0.17980,0.18926,3,3,1,21.78651,0.00374,1.05194,0.0229,-0.1148,0.0867,0.0000,0.0000,0.0000,-1.77,-7.52,179.45,0,0,0,0,0,0,0,0,0,0,0.00,0,0,0,0,0,0,0,0.00,0.00,0,0,0.0000,0.0000,0.0000,0.0000,0.0000
2026-04-20T16:01:34.790,2.497,61.14,63.72,7821,1407,0.17990,0.17990,0.17990,0.18936,3,3,1,21.78234,0.00379,1.04809,0.0228,-0.1149,0.0867,0.0000,0.0000,0.0000,-1.85,-7.79,179.50,0,0,0,0,0,0,0,0,0,0,0.00,0,0,0,0,0,0,0,0.00,0.00,0,0,0.0000,0.0000,0.0000,0.0000,0.0000
2026-04-20T16:01:34.807,2.514,60.27,57.14,7822,1408,0.18001,0.18001,0.18001,0.18947,3,3,1,21.78671,0.00366,1.05076,0.0227,-0.1150,0.0868,0.0000,0.0000,0.0000,-1.83,-7.93,179.49,0,0,0,0,0,0,0,0,0,0,0.00,0,0,0,0,0,0,0,0.00,0.00,0,0,0.0000,0.0000,0.0000,0.0000,0.0000
2026-04-20T16:01:34.823,2.530,59.03,59.46,7823,1409,0.18011,0.18011,0.18011,0.18957,3,3,1,21.79671,0.00352,1.04804,0.0229,-0.1149,0.0868,0.0000,0.0000,0.0000,-1.78,-7.67,179.49,0,0,0,0,0,0,0,0,0,0,0.00,0,0,0,0,0,0,0,0.00,0.00,0,0,0.0000,0.0000,0.0000,0.0000,0.0000
2026-04-20T16:01:34.840,2.548,63.77,57.14,7824,1410,0.18021,0.18021,0.18021,0.18967,3,3,1,21.81321,0.00374,1.05063,0.0228,-0.1150,0.0868,0.0000,0.0000,0.0000,-1.82,-7.84,179.49,0,0,0,0,0,0,0,0,0,0,0.00,0,0,0,0,0,0,0,0.00,0.00,0,0,0.0000,0.0000,0.0000,0.0000,0.0000
2026-04-20T16:01:34.856,2.564,52.88,62.76,7825,1411,0.18032,0.18032,0.18032,0.18978,3,3,1,21.86214,0.00368,1.05099,0.0230,-0.1149,0.0867,0.0000,0.0000,0.0000,-1.80,-7.52,179.41,0,0,0,0,0,0,0,0,0,0,0.00,0,0,0,0,0,0,0,0.00,0.00,0,0,0.0000,0.0000,0.0000,0.0000,0.0000
2026-04-20T16:01:34.873,2.580,68.33,60.65,7826,1412,0.18042,0.18042,0.18042,0.18988,3,3,1,21.74896,0.00350,1.04820,0.0230,-0.1149,0.0868,0.0000,0.0000,0.0000,-1.81,-7.53,179.51,0,0,0,0,0,0,0,0,0,0,0.00,0,0,0,0,0,0,0,0.00,0.00,0,0,0.0000,0.0000,0.0000,0.0000,0.0000
2026-04-20T16:01:34.889,2.597,54.78,61.94,7827,1413,0.18053,0.18053,0.18053,0.18998,3,3,1,21.84408,0.00373,1.04716,0.0229,-0.1150,0.0868,0.0000,0.0000,0.0000,-1.87,-7.51,179.56,0,0,0,0,0,0,0,0,0,0,0.00,0,0,0,0,0,0,0,0.00,0.00,0,0,0.0000,0.0000,0.0000,0.0000,0.0000
2026-04-20T16:01:34.906,2.613,62.81,57.46,7828,1414,0.18063,0.18063,0.18063,0.19009,3,3,1,21.79624,0.00349,1.04691,0.0230,-0.1150,0.0868,0.0000,0.0000,0.0000,-1.79,-7.45,179.60,0,0,0,0,0,0,0,0,0,0,0.00,0,0,0,0,0,0,0,0.00,0.00,0,0,0.0000,0.0000,0.0000,0.0000,0.0000
2026-04-20T16:01:34.923,2.630,61.38,60.19,7829,1415,0.18074,0.18074,0.18074,0.19019,3,3,1,21.82704,0.00382,1.04696,0.0229,-0.1149,0.0868,0.0000,0.0000,0.0000,-1.87,-7.51,179.56,0,0,0,0,0,0,0,0,0,0,0.00,0,0,0,0,0,0,0,0.00,0.00,0,0,0.0000,0.0000,0.0000,0.0000,0.0000
2026-04-20T16:01:34.939,2.647,56.30,63.47,7830,1416,0.18084,0.18084,0.18084,0.19029,3,3,1,21.86398,0.00392,1.04790,0.0229,-0.1150,0.0868,0.0000,0.0000,0.0000,-1.95,-7.59,179.56,0,0,0,0,0,0,0,0,0,0,0.00,0,0,0,0,0,0,0,0.00,0.00,0,0,0.0000,0.0000,0.0000,0.0000,0.0000
2026-04-20T16:01:34.957,2.664,60.32,53.30,7831,1417,0.18095,0.18095,0.18095,0.19040,3,3,1,21.78740,0.00352,1.04526,0.0230,-0.1149,0.0867,0.0000,0.0000,0.0000,-1.83,-7.32,179.59,0,0,0,0,0,0,0,0,0,0,0.00,0,0,0,0,0,0,0,0.00,0.00,0,0,0.0000,0.0000,0.0000,0.0000,0.0000
2026-04-20T16:01:34.973,2.681,58.77,64.90,7832,1418,0.18105,0.18105,0.18105,0.19050,3,3,1,21.79481,0.00352,1.04833,0.0229,-0.1149,0.0868,0.0000,0.0000,0.0000,-1.77,-7.34,179.51,0,0,0,0,0,0,0,0,0,0,0.00,0,0,0,0,0,0,0,0.00,0.00,0,0,0.0000,0.0000,0.0000,0.0000,0.0000
2026-04-20T16:01:34.991,2.698,64.92,57.52,7833,1419,0.18116,0.18116,0.18116,0.19060,3,3,1,21.75566,0.00383,1.04892,0.0228,-0.1150,0.0867,0.0000,0.0000,0.0000,-1.85,-7.79,179.59,0,0,0,0,0,0,0,0,0,0,0.00,0,0,0,0,0,0,0,0.00,0.00,0,0,0.0000,0.0000,0.0000,0.0000,0.0000
2026-04-20T16:01:35.007,2.714,53.57,62.48,7834,1420,0.18126,0.18126,0.18126,0.19071,3,3,1,21.73794,0.00374,1.04642,0.0228,-0.1149,0.0867,0.0000,0.0000,0.0000,-1.89,-7.98,179.59,0,0,0,0,0,0,0,0,0,0,0.00,0,0,0,0,0,0,0,0.00,0.00,0,0,0.0000,0.0000,0.0000,0.0000,0.0000
2026-04-20T16:01:35.022,2.730,63.45,59.67,7835,1421,0.18137,0.18137,0.18137,0.19081,3,3,1,21.77099,0.00350,1.04516,0.0230,-0.1149,0.0868,0.0000,0.0000,0.0000,-1.84,-7.65,179.59,0,0,0,0,0,0,0,0,0,0,0.00,0,0,0,0,0,0,0,0.00,0.00,0,0,0.0000,0.0000,0.0000,0.0000,0.0000
2026-04-20T16:01:35.042,2.750,63.60,58.43,7836,1422,0.18147,0.18147,0.18147,0.19091,3,3,1,21.82704,0.00382,1.04696,0.0229,-0.1149,0.0868,0.0000,0.0000,0.0000,-1.89,-7.61,179.56,0,0,0,0,0,0,0,0,0,0,0.00,0,0,0,0,0,0,0,0.00,0.00,0,0,0.0000,0.0000,0.0000,0.0000,0.0000
2026-04-20T16:01:35.060,2.768,50.01,60.94,7837,1423,0.18157,0.18157,0.18157,0.19102,3,3,1,21.79781,0.00357,1.04671,0.0230,-0.1148,0.0868,0.0000,0.0000,0.0000,-1.82,-7.26,179.50,0,0,0,0,0,0,0,0,0,0,0.00,0,0,0,0,0,0,0,0.00,0.00,0,0,0.0000,0.0000,0.0000,0.0000,0.0000
2026-04-20T16:01:35.075,2.783,56.04,58.04,7838,1424,0.18168,0.18168,0.18168,0.19112,3,3,1,21.77167,0.00384,1.04951,0.0228,-0.1149,0.0868,0.0000,0.0000,0.0000,-1.88,-7.67,179.51,0,0,0,0,0,0,0,0,0,0,0.00,0,0,0,0,0,0,0,0.00,0.00,0,0,0.0000,0.0000,0.0000,0.0000,0.0000
2026-04-20T16:01:35.089,2.797,71.29,68.23,7839,1425,0.18178,0.18178,0.18178,0.19122,3,3,1,21.75382,0.00387,1.04771,0.0228,-0.1148,0.0867,0.0000,0.0000,0.0000,-1.94,-7.90,179.55,0,0,0,0,0,0,0,0,0,0,0.00,0,0,0,0,0,0,0,0.00,0.00,0,0,0.0000,0.0000,0.0000,0.0000,0.0000
2026-04-20T16:01:35.106,2.814,67.30,56.90,7840,1426,0.18189,0.18189,0.18189,0.19133,3,3,1,21.76193,0.00377,1.04784,0.0228,-0.1149,0.0868,0.0000,0.0000,0.0000,-1.97,-7.92,179.60,0,0,0,0,0,0,0,0,0,0,0.00,0,0,0,0,0,0,0,0.00,0.00,0,0,0.0000,0.0000,0.0000,0.0000,0.0000
2026-04-20T16:01:35.122,2.830,58.66,59.35,7841,1427,0.18199,0.18199,0.18199,0.19143,3,3,1,21.74311,0.00355,1.04816,0.0228,-0.1147,0.0868,0.0000,0.0000,0.0000,-1.85,-7.73,179.54,0,0,0,0,0,0,0,0,0,0,0.00,0,0,0,0,0,0,0,0.00,0.00,0,0,0.0000,0.0000,0.0000,0.0000,0.0000
2026-04-20T16:01:35.140,2.848,61.80,58.37,7842,1428,0.18210,0.18210,0.18210,0.19153,3,3,1,21.82704,0.00382,1.04696,0.0229,-0.1149,0.0868,0.0000,0.0000,0.0000,-1.90,-7.65,179.53,0,0,0,0,0,0,0,0,0,0,0.00,0,0,0,0,0,0,0,0.00,0.00,0,0,0.0000,0.0000,0.0000,0.0000,0.0000
2026-04-20T16:01:35.157,2.865,59.51,61.33,7843,1429,0.18220,0.18220,0.18220,0.19164,3,3,1,21.80183,0.00376,1.04991,0.0228,-0.1149,0.0868,0.0000,0.0000,0.0000,-1.89,-7.83,179.51,0,0,0,0,0,0,0,0,0,0,0.00,0,0,0,0,0,0,0,0.00,0.00,0,0,0.0000,0.0000,0.0000,0.0000,0.0000
2026-04-20T16:01:35.172,2.879,55.81,60.50,7844,1430,0.18230,0.18230,0.18230,0.19174,3,3,1,21.77631,0.00350,1.04779,0.0229,-0.1149,0.0869,0.0000,0.0000,0.0000,-1.83,-7.56,179.56,0,0,0,0,0,0,0,0,0,0,0.00,0,0,0,0,0,0,0,0.00,0.00,0,0,0.0000,0.0000,0.0000,0.0000,0.0000
2026-04-20T16:01:35.189,2.897,68.61,57.38,7845,1431,0.18241,0.18241,0.18241,0.19184,3,3,1,21.78415,0.00357,1.04975,0.0229,-0.1148,0.0868,0.0000,0.0000,0.0000,-1.77,-7.47,179.49,0,0,0,0,0,0,0,0,0,0,0.00,0,0,0,0,0,0,0,0.00,0.00,0,0,0.0000,0.0000,0.0000,0.0000,0.0000
2026-04-20T16:01:35.206,2.913,55.42,63.45,7846,1432,0.18251,0.18251,0.18251,0.19194,3,3,1,21.75580,0.00370,1.04822,0.0228,-0.1149,0.0868,0.0000,0.0000,0.0000,-1.82,-7.79,179.51,0,0,0,0,0,0,0,0,0,0,0.00,0,0,0,0,0,0,0,0.00,0.00,0,0,0.0000,0.0000,0.0000,0.0000,0.0000
2026-04-20T16:01:35.223,2.931,60.24,58.98,7847,1433,0.18262,0.18262,0.18262,0.19205,3,3,1,21.80120,0.00361,1.05095,0.0229,-0.1149,0.0869,0.0000,0.0000,0.0000,-1.82,-7.68,179.51,0,0,0,0,0,0,0,0,0,0,0.00,0,0,0,0,0,0,0,0.00,0.00,0,0,0.0000,0.0000,0.0000,0.0000,0.0000
2026-04-20T16:01:35.240,2.948,63.67,59.01,7848,1434,0.18272,0.18272,0.18272,0.19215,3,3,1,21.78081,0.00359,1.05070,0.0230,-0.1149,0.0869,0.0000,0.0000,0.0000,-1.84,-7.57,179.56,0,0,0,0,0,0,0,0,0,0,0.00,0,0,0,0,0,0,0,0.00,0.00,0,0,0.0000,0.0000,0.0000,0.0000,0.0000
2026-04-20T16:01:35.256,2.963,55.71,62.14,7849,1435,0.18283,0.18283,0.18283,0.19225,3,3,1,21.80373,0.00376,1.04964,0.0228,-0.1150,0.0868,0.0000,0.0000,0.0000,-1.87,-7.81,179.55,0,0,0,0,0,0,0,0,0,0,0.00,0,0,0,0,0,0,0,0.00,0.00,0,0,0.0000,0.0000,0.0000,0.0000,0.0000
2026-04-20T16:01:35.273,2.980,63.23,59.92,7850,1436,0.18293,0.18293,0.18293,0.19236,3,3,1,21.87217,0.00391,1.04871,0.0228,-0.1150,0.0868,0.0000,0.0000,0.0000,-1.94,-7.72,179.54,0,0,0,0,0,0,0,0,0,0,0.00,0,0,0,0,0,0,0,0.00,0.00,0,0,0.0000,0.0000,0.0000,0.0000,0.0000
2026-04-20T16:01:35.290,2.998,58.39,60.03,7851,1437,0.18303,0.18303,0.18303,0.19246,3,3,1,21.76193,0.00377,1.04784,0.0228,-0.1150,0.0869,0.0000,0.0000,0.0000,-1.96,-7.84,179.60,0,0,0,0,0,0,0,0,0,0,0.00,0,0,0,0,0,0,0,0.00,0.00,0,0,0.0000,0.0000,0.0000,0.0000,0.0000
2026-04-20T16:01:35.305,3.013,57.13,59.54,7852,1438,0.18314,0.18314,0.18314,0.19256,3,3,1,21.82143,0.00385,1.04617,0.0228,-0.1150,0.0867,0.0000,0.0000,0.0000,-1.94,-7.76,179.61,0,0,0,0,0,0,0,0,0,0,0.00,0,0,0,0,0,0,0,0.00,0.00,0,0,0.0000,0.0000,0.0000,0.0000,0.0000
2026-04-20T16:01:35.324,3.031,67.12,57.60,7853,1439,0.18324,0.18324,0.18324,0.19267,3,3,1,21.85785,0.00377,1.04950,0.0228,-0.1150,0.0868,0.0000,0.0000,0.0000,-1.91,-7.64,179.54,0,0,0,0,0,0,0,0,0,0,0.00,0,0,0,0,0,0,0,0.00,0.00,0,0,0.0000,0.0000,0.0000,0.0000,0.0000
2026-04-20T16:01:35.340,3.047,57.48,60.78,7854,1440,0.18335,0.18335,0.18335,0.19277,3,3,1,21.84839,0.00378,1.04850,0.0228,-0.1150,0.0868,0.0000,0.0000,0.0000,-1.91,-7.60,179.53,0,0,0,0,0,0,0,0,0,0,0.00,0,0,0,0,0,0,0,0.00,0.00,0,0,0.0000,0.0000,0.0000,0.0000,0.0000
2026-04-20T16:01:35.356,3.064,59.16,62.83,7855,1441,0.18345,0.18345,0.18345,0.19287,3,3,1,21.82006,0.00386,1.04810,0.0228,-0.1149,0.0868,0.0000,0.0000,0.0000,-1.95,-7.63,179.54,0,0,0,0,0,0,0,0,0,0,0.00,0,0,0,0,0,0,0,0.00,0.00,0,0,0.0000,0.0000,0.0000,0.0000,0.0000
2026-04-20T16:01:35.373,3.081,59.94,56.89,7856,1442,0.18355,0.18355,0.18355,0.19297,3,3,1,21.78234,0.00379,1.04809,0.0227,-0.1150,0.0868,0.0000,0.0000,0.0000,-1.94,-7.84,179.54,0,0,0,0,0,0,0,0,0,0,0.00,0,0,0,0,0,0,0,0.00,0.00,0,0,0.0000,0.0000,0.0000,0.0000,0.0000
2026-04-20T16:01:35.388,3.096,63.61,63.15,7857,1443,0.18366,0.18366,0.18366,0.19308,3,3,1,21.80373,0.00376,1.04964,0.0227,-0.1150,0.0868,0.0000,0.0000,0.0000,-1.92,-7.94,179.54,0,0,0,0,0,0,0,0,0,0,0.00,0,0,0,0,0,0,0,0.00,0.00,0,0,0.0000,0.0000,0.0000,0.0000,0.0000
2026-04-20T16:01:35.405,3.113,61.73,60.67,7858,1444,0.18376,0.18376,0.18376,0.19318,3,3,1,21.75580,0.00370,1.04822,0.0227,-0.1149,0.0868,0.0000,0.0000,0.0000,-1.90,-8.03,179.54,0,0,0,0,0,0,0,0,0,0,0.00,0,0,0,0,0,0,0,0.00,0.00,0,0,0.0000,0.0000,0.0000,0.0000,0.0000
2026-04-20T16:01:35.423,3.131,58.81,57.54,7859,1445,0.18387,0.18387,0.18387,0.19328,3,3,1,21.77532,0.00367,1.05004,0.0227,-0.1150,0.0868,0.0000,0.0000,0.0000,-1.86,-8.05,179.51,0,0,0,0,0,0,0,0,0,0,0.00,0,0,0,0,0,0,0,0.00,0.00,0,0,0.0000,0.0000,0.0000,0.0000,0.0000
2026-04-20T16:01:35.438,3.146,54.64,62.73,7860,1446,0.18397,0.18397,0.18397,0.19338,3,3,1,21.77280,0.00352,1.05136,0.0229,-0.1149,0.0869,0.0000,0.0000,0.0000,-1.80,-7.81,179.48,0,0,0,0,0,0,0,0,0,0,0.00,0,0,0,0,0,0,0,0.00,0.00,0,0,0.0000,0.0000,0.0000,0.0000,0.0000
2026-04-20T16:01:35.455,3.163,68.29,58.28,7861,1447,0.18407,0.18407,0.18407,0.19349,3,3,1,21.78671,0.00366,1.05076,0.0227,-0.1150,0.0869,0.0000,0.0000,0.0000,-1.80,-7.95,179.49,0,0,0,0,0,0,0,0,0,0,0.00,0,0,0,0,0,0,0,0.00,0.00,0,0,0.0000,0.0000,0.0000,0.0000,0.0000
2026-04-20T16:01:35.473,3.181,59.72,58.17,7862,1448,0.18418,0.18418,0.18418,0.19359,3,3,1,21.84408,0.00373,1.04716,0.0228,-0.1151,0.0869,0.0000,0.0000,0.0000,-1.87,-7.71,179.55,0,0,0,0,0,0,0,0,0,0,0.00,0,0,0,0,0,0,0,0.00,0.00,0,0,0.0000,0.0000,0.0000,0.0000,0.0000
2026-04-20T16:01:35.489,3.196,58.30,62.57,7863,1449,0.18428,0.18428,0.18428,0.19369,3,3,1,21.78234,0.00379,1.04809,0.0227,-0.1150,0.0868,0.0000,0.0000,0.0000,-1.90,-7.88,179.55,0,0,0,0,0,0,0,0,0,0,0.00,0,0,0,0,0,0,0,0.00,0.00,0,0,0.0000,0.0000,0.0000,0.0000,0.0000
2026-04-20T16:01:35.505,3.213,63.13,60.67,7864,1450,0.18438,0.18438,0.18438,0.19379,3,3,1,21.78924,0.00375,1.04899,0.0227,-0.1150,0.0868,0.0000,0.0000,0.0000,-1.94,-7.97,179.61,0,0,0,0,0,0,0,0,0,0,0.00,0,0,0,0,0,0,0,0.00,0.00,0,0,0.0000,0.0000,0.0000,0.0000,0.0000
2026-04-20T16:01:35.523,3.231,57.49,57.47,7865,1451,0.18449,0.18449,0.18449,0.19390,3,3,1,21.76193,0.00377,1.04784,0.0227,-0.1150,0.0869,0.0000,0.0000,0.0000,-1.96,-7.96,179.64,0,0,0,0,0,0,0,0,0,0,0.00,0,0,0,0,0,0,0,0.00,0.00,0,0,0.0000,0.0000,0.0000,0.0000,0.0000
2026-04-20T16:01:35.539,3.246,54.90,63.46,7866,1452,0.18459,0.18459,0.18459,0.19400,3,3,1,21.77971,0.00380,1.05202,0.0226,-0.1151,0.0868,0.0000,0.0000,0.0000,-1.91,-8.08,179.63,0,0,0,0,0,0,0,0,0,0,0.00,0,0,0,0,0,0,0,0.00,0.00,0,0,0.0000,0.0000,0.0000,0.0000,0.0000
2026-04-20T16:01:35.558,3.266,66.63,56.84,7867,1453,0.18470,0.18470,0.18470,0.19410,3,3,1,21.77531,0.00355,1.04650,0.0228,-0.1149,0.0868,0.0000,0.0000,0.0000,-1.84,-7.74,179.56,0,0,0,0,0,0,0,0,0,0,0.00,0,0,0,0,0,0,0,0.00,0.00,0,0,0.0000,0.0000,0.0000,0.0000,0.0000
2026-04-20T16:01:35.572,3.280,50.31,61.07,7868,1454,0.18480,0.18480,0.18480,0.19420,3,3,1,21.80416,0.00347,1.04396,0.0230,-0.1149,0.0868,0.0000,0.0000,0.0000,-1.80,-7.27,179.56,0,0,0,0,0,0,0,0,0,0,0.00,0,0,0,0,0,0,0,0.00,0.00,0,0,0.0000,0.0000,0.0000,0.0000,0.0000
2026-04-20T16:01:35.588,3.296,72.84,62.49,7869,1455,0.18490,0.18490,0.18490,0.19431,3,3,1,21.76968,0.00358,1.04571,0.0228,-0.1149,0.0867,0.0000,0.0000,0.0000,-1.77,-7.39,179.57,0,0,0,0,0,0,0,0,0,0,0.00,0,0,0,0,0,0,0,0.00,0.00,0,0,0.0000,0.0000,0.0000,0.0000,0.0000
2026-04-20T16:01:35.606,3.314,62.30,59.15,7870,1456,0.18501,0.18501,0.18501,0.19441,3,3,1,21.75580,0.00370,1.04822,0.0227,-0.1149,0.0868,0.0000,0.0000,0.0000,-1.82,-7.75,179.56,0,0,0,0,0,0,0,0,0,0,0.00,0,0,0,0,0,0,0,0.00,0.00,0,0,0.0000,0.0000,0.0000,0.0000,0.0000
2026-04-20T16:01:35.622,3.330,56.88,59.23,7871,1457,0.18511,0.18511,0.18511,0.19451,3,3,1,21.80373,0.00376,1.04964,0.0227,-0.1150,0.0868,0.0000,0.0000,0.0000,-1.86,-7.90,179.55,0,0,0,0,0,0,0,0,0,0,0.00,0,0,0,0,0,0,0,0.00,0.00,0,0,0.0000,0.0000,0.0000,0.0000,0.0000
2026-04-20T16:01:35.639,3.346,60.70,61.73,7872,1458,0.18521,0.18521,0.18521,0.19461,3,3,1,21.78363,0.00374,1.04874,0.0227,-0.1150,0.0868,0.0000,0.0000,0.0000,-1.93,-7.96,179.64,0,0,0,0,0,0,0,0,0,0,0.00,0,0,0,0,0,0,0,0.00,0.00,0,0,0.0000,0.0000,0.0000,0.0000,0.0000
2026-04-20T16:01:35.655,3.363,61.34,59.55,7873,1459,0.18532,0.18532,0.18532,0.19472,3,3,1,21.80183,0.00376,1.04991,0.0227,-0.1150,0.0868,0.0000,0.0000,0.0000,-1.90,-7.98,179.56,0,0,0,0,0,0,0,0,0,0,0.00,0,0,0,0,0,0,0,0.00,0.00,0,0,0.0000,0.0000,0.0000,0.0000,0.0000
2026-04-20T16:01:35.673,3.380,59.75,59.36,7874,1460,0.18542,0.18542,0.18542,0.19482,3,3,1,21.77802,0.00374,1.04675,0.0227,-0.1150,0.0868,0.0000,0.0000,0.0000,-1.93,-7.97,179.60,0,0,0,0,0,0,0,0,0,0,0.00,0,0,0,0,0,0,0,0.00,0.00,0,0,0.0000,0.0000,0.0000,0.0000,0.0000
2026-04-20T16:01:35.689,3.397,57.11,62.48,7875,1461,0.18552,0.18552,0.18552,0.19492,3,3,1,21.81868,0.00369,1.04704,0.0229,-0.1149,0.0868,0.0000,0.0000,0.0000,-1.88,-7.50,179.53,0,0,0,0,0,0,0,0,0,0,0.00,0,0,0,0,0,0,0,0.00,0.00,0,0,0.0000,0.0000,0.0000,0.0000,0.0000
2026-04-20T16:01:35.706,3.413,65.04,60.18,7876,1462,0.18563,0.18563,0.18563,0.19502,3,3,1,21.80373,0.00376,1.04964,0.0227,-0.1150,0.0868,0.0000,0.0000,0.0000,-1.89,-7.78,179.53,0,0,0,0,0,0,0,0,0,0,0.00,0,0,0,0,0,0,0,0.00,0.00,0,0,0.0000,0.0000,0.0000,0.0000,0.0000
2026-04-20T16:01:35.723,3.430,59.16,55.12,7877,1463,0.18573,0.18573,0.18573,0.19513,3,3,1,21.80036,0.00384,1.04927,0.0226,-0.1149,0.0867,0.0000,0.0000,0.0000,-1.89,-7.98,179.47,0,0,0,0,0,0,0,0,0,0,0.00,0,0,0,0,0,0,0,0.00,0.00,0,0,0.0000,0.0000,0.0000,0.0000,0.0000
2026-04-20T16:01:35.739,3.447,57.42,64.22,7878,1464,0.18583,0.18583,0.18583,0.19523,3,3,1,21.85554,0.00390,1.04900,0.0228,-0.1151,0.0869,0.0000,0.0000,0.0000,-1.95,-7.76,179.52,0,0,0,0,0,0,0,0,0,0,0.00,0,0,0,0,0,0,0,0.00,0.00,0,0,0.0000,0.0000,0.0000,0.0000,0.0000
2026-04-20T16:01:35.756,3.463,63.70,60.17,7879,1465,0.18594,0.18594,0.18594,0.19533,3,3,1,21.75379,0.00350,1.04674,0.0228,-0.1149,0.0868,0.0000,0.0000,0.0000,-1.84,-7.64,179.50,0,0,0,0,0,0,0,0,0,0,0.00,0,0,0,0,0,0,0,0.00,0.00,0,0,0.0000,0.0000,0.0000,0.0000,0.0000
2026-04-20T16:01:35.773,3.481,59.30,56.91,7880,1466,0.18604,0.18604,0.18604,0.19543,3,3,1,21.82451,0.00366,1.04829,0.0230,-0.1149,0.0868,0.0000,0.0000,0.0000,-1.85,-7.36,179.50,0,0,0,0,0,0,0,0,0,0,0.00,0,0,0,0,0,0,0,0.00,0.00,0,0,0.0000,0.0000,0.0000,0.0000,0.0000
2026-04-20T16:01:35.790,3.497,59.23,65.62,7881,1467,0.18614,0.18614,0.18614,0.19553,3,3,1,21.82273,0.00376,1.04562,0.0229,-0.1150,0.0868,0.0000,0.0000,0.0000,-1.91,-7.42,179.56,0,0,0,0,0,0,0,0,0,0,0.00,0,0,0,0,0,0,0,0.00,0.00,0,0,0.0000,0.0000,0.0000,0.0000,0.0000
2026-04-20T16:01:35.806,3.514,56.71,54.76,7882,1468,0.18625,0.18625,0.18625,0.19564,3,3,1,21.81753,0.00366,1.05211,0.0228,-0.1149,0.0868,0.0000,0.0000,0.0000,-1.84,-7.56,179.46,0,0,0,0,0,0,0,0,0,0,0.00,0,0,0,0,0,0,0,0.00,0.00,0,0,0.0000,0.0000,0.0000,0.0000,0.0000
2026-04-20T16:01:35.823,3.530,62.98,59.81,7883,1469,0.18635,0.18635,0.18635,0.19574,3,3,1,21.78335,0.00351,1.04900,0.0228,-0.1150,0.0868,0.0000,0.0000,0.0000,-1.76,-7.54,179.52,0,0,0,0,0,0,0,0,0,0,0.00,0,0,0,0,0,0,0,0.00,0.00,0,0,0.0000,0.0000,0.0000,0.0000,0.0000
2026-04-20T16:01:35.839,3.547,57.81,66.05,7884,1470,0.18645,0.18645,0.18645,0.19584,3,3,1,21.77722,0.00367,1.04976,0.0227,-0.1150,0.0868,0.0000,0.0000,0.0000,-1.80,-7.83,179.53,0,0,0,0,0,0,0,0,0,0,0.00,0,0,0,0,0,0,0,0.00,0.00,0,0,0.0000,0.0000,0.0000,0.0000,0.0000
2026-04-20T16:01:35.856,3.564,63.79,57.33,7885,1471,0.18656,0.18656,0.18656,0.19594,3,3,1,21.77099,0.00350,1.04516,0.0229,-0.1149,0.0868,0.0000,0.0000,0.0000,-1.79,-7.57,179.56,0,0,0,0,0,0,0,0,0,0,0.00,0,0,0,0,0,0,0,0.00,0.00,0,0,0.0000,0.0000,0.0000,0.0000,0.0000
2026-04-20T16:01:35.873,3.580,56.83,58.28,7886,1472,0.18666,0.18666,0.18666,0.19604,3,3,1,21.76193,0.00377,1.04784,0.0228,-0.1150,0.0869,0.0000,0.0000,0.0000,-1.89,-7.76,179.61,0,0,0,0,0,0,0,0,0,0,0.00,0,0,0,0,0,0,0,0.00,0.00,0,0,0.0000,0.0000,0.0000,0.0000,0.0000
2026-04-20T16:01:35.889,3.597,60.39,63.35,7887,1473,0.18676,0.18676,0.18676,0.19615,3,3,1,21.79941,0.00371,1.04830,0.0228,-0.1151,0.0869,0.0000,0.0000,0.0000,-1.91,-7.86,179.62,0,0,0,0,0,0,0,0,0,0,0.00,0,0,0,0,0,0,0,0.00,0.00,0,0,0.0000,0.0000,0.0000,0.0000,0.0000
2026-04-20T16:01:35.906,3.614,63.03,57.37,7888,1474,0.18687,0.18687,0.18687,0.19625,3,3,1,21.74880,0.00375,1.04937,0.0227,-0.1149,0.0868,0.0000,0.0000,0.0000,-1.91,-8.03,179.60,0,0,0,0,0,0,0,0,0,0,0.00,0,0,0,0,0,0,0,0.00,0.00,0,0,0.0000,0.0000,0.0000,0.0000,0.0000
2026-04-20T16:01:35.922,3.629,56.51,63.81,7889,1475,0.18697,0.18697,0.18697,0.19635,3,3,1,21.83606,0.00348,1.04632,0.0230,-0.1150,0.0869,0.0000,0.0000,0.0000,-1.76,-7.37,179.57,0,0,0,0,0,0,0,0,0,0,0.00,0,0,0,0,0,0,0,0.00,0.00,0,0,0.0000,0.0000,0.0000,0.0000,0.0000
2026-04-20T16:01:35.940,3.647,64.54,55.92,7890,1476,0.18707,0.18707,0.18707,0.19645,3,3,1,21.78455,0.00346,1.04379,0.0231,-0.1149,0.0869,0.0000,0.0000,0.0000,-1.78,-7.03,179.62,0,0,0,0,0,0,0,0,0,0,0.00,0,0,0,0,0,0,0,0.00,0.00,0,0,0.0000,0.0000,0.0000,0.0000,0.0000
2026-04-20T16:01:35.957,3.664,57.29,62.50,7891,1477,0.18718,0.18718,0.18718,0.19655,3,3,1,21.77802,0.00374,1.04675,0.0229,-0.1150,0.0869,0.0000,0.0000,0.0000,-1.87,-7.50,179.63,0,0,0,0,0,0,0,0,0,0,0.00,0,0,0,0,0,0,0,0.00,0.00,0,0,0.0000,0.0000,0.0000,0.0000,0.0000
2026-04-20T16:01:35.973,3.680,56.72,59.84,7892,1478,0.18728,0.18728,0.18728,0.19665,3,3,1,21.77646,0.00339,1.04757,0.0231,-0.1148,0.0868,0.0000,0.0000,0.0000,-1.79,-7.24,179.57,0,0,0,0,0,0,0,0,0,0,0.00,0,0,0,0,0,0,0,0.00,0.00,0,0,0.0000,0.0000,0.0000,0.0000,0.0000
2026-04-20T16:01:35.990,3.697,62.59,57.80,7893,1479,0.18738,0.18738,0.18738,0.19676,3,3,1,21.79481,0.00352,1.04833,0.0230,-0.1149,0.0869,0.0000,0.0000,0.0000,-1.75,-7.30,179.51,0,0,0,0,0,0,0,0,0,0,0.00,0,0,0,0,0,0,0,0.00,0.00,0,0,0.0000,0.0000,0.0000,0.0000,0.0000
