iso_time,elapsed_s,imu_ready,imu_pitch_deg,imu_roll_deg,imu_pitch_rate_deg_s,imu_roll_rate_deg_s,mocap_valid,mocap_x_error_m,mocap_y_error_m,mocap_z_error_m,mocap_vx_m_s,mocap_vy_m_s,mocap_vz_m_s,mocap_yaw_error_deg,mocap_yaw_rate_deg_s,backend_loop_hz,tracking_loop_hz,frames_processed,valid_pose_frames,pose_success_rate,full_marker_detection_rate,cam1_full_detection_rate,cam2_full_detection_rate,cam1_leds,cam2_leds,spatial_data_valid,mapping_error_px,model_fit_error_m,scale_factor,position_x_m,position_y_m,position_z_m,velocity_x_m_s,velocity_y_m_s,velocity_z_m_s,yaw_deg,pitch_deg,roll_deg,serial_connected,serial_send_enabled,serial_send_ok,serial_payload_seq,serial_payload_size_bytes,bridge_serial_frames_rx,bridge_espnow_tx_attempts,bridge_espnow_tx_ok,bridge_espnow_tx_fail,bridge_oversize_drops,bridge_tx_rate_hz,bridge_last_tx_seq,bridge_last_tx_latency_us,controller_rx_packets,controller_rx_missing_packets,controller_rx_duplicate_packets,controller_rx_out_of_order_packets,controller_last_rx_seq,controller_loop_hz,controller_control_hz,controller_command_age_ms,controller_apply_latency_us,controller_motor_imbalance,motor_1_output,motor_2_output,motor_3_output,motor_4_output
2026-04-20T18:47:15.916,0.018,1,-0.03,-0.01,-5.37,-1.93,0,0.0000,0.0000,0.3500,0.0000,0.0000,0.0000,0.00,0.00,61.09,56.11,1,0,0.00000,0.00000,0.00000,0.00000,0,0,0,0.00000,0.00000,1.00000,0.0000,0.0000,0.0000,0.0000,0.0000,0.0000,0.00,0.00,0.00,1,1,1,1,199,0,0,0,0,0,0.00,0,0,0,0,0,0,0,0.00,0.00,0,0,0.0000,0.0000,0.0000,0.0000,0.0000
2026-04-20T18:47:15.933,0.034,1,-0.03,-0.01,-5.37,-1.93,0,0.0000,0.0000,0.3500,0.0000,0.0000,0.0000,0.00,0.00,56.11,60.38,2,0,0.00000,0.00000,0.00000,0.00000,0,0,0,0.00000,0.00000,1.00000,0.0000,0.0000,0.0000,0.0000,0.0000,0.0000,0.00,0.00,0.00,1,1,1,2,199,0,0,0,0,0,0.00,0,0,0,0,0,0,0,0.00,0.00,0,0,0.0000,0.0000,0.0000,0.0000,0.0000
2026-04-20T18:47:15.951,0.052,1,-0.03,-0.01,-5.37,-1.93,0,0.0000,0.0000,0.3500,0.0000,0.0000,0.0000,0.00,0.00,55.62,60.18,3,0,0.00000,0.00000,0.00000,0.00000,0,0,0,0.00000,0.00000,1.00000,0.0000,0.0000,0.0000,0.0000,0.0000,0.0000,0.00,0.00,0.00,1,1,1,3,199,0,0,0,0,0,0.00,0,0,0,0,0,0,0,0.00,0.00,0,0,0.0000,0.0000,0.0000,0.0000,0.0000
2026-04-20T18:47:15.968,0.069,1,-0.03,-0.01,-5.37,-1.93,0,0.0000,0.0000,0.3500,0.0000,0.0000,0.0000,0.00,0.00,61.95,59.47,4,0,0.00000,0.00000,0.00000,0.00000,0,0,0,0.00000,0.00000,1.00000,0.0000,0.0000,0.0000,0.0000,0.0000,0.0000,0.00,0.00,0.00,1,1,1,4,199,0,0,0,0,0,0.00,0,0,0,0,0,0,0,0.00,0.00,0,0,0.0000,0.0000,0.0000,0.0000,0.0000
2026-04-20T18:47:15.984,0.086,1,-0.03,-0.01,-5.37,-1.93,0,0.0000,0.0000,0.3500,0.0000,0.0000,0.0000,0.00,0.00,54.99,60.74,5,0,0.00000,0.00000,0.00000,0.00000,0,0,0,0.00000,0.00000,1.00000,0.0000,0.0000,0.0000,0.0000,0.0000,0.0000,0.00,0.00,0.00,1,1,1,5,199,0,0,0,0,0,0.00,0,0,0,0,0,0,0,0.00,0.00,0,0,0.0000,0.0000,0.0000,0.0000,0.0000
2026-04-20T18:47:16.002,0.104,1,-0.03,-0.01,-5.37,-1.93,0,0.0000,0.0000,0.3500,0.0000,0.0000,0.0000,0.00,0.00,59.91,59.84,6,0,0.00000,0.00000,0.00000,0.00000,0,0,0,0.00000,0.00000,1.00000,0.0000,0.0000,0.0000,0.0000,0.0000,0.0000,0.00,0.00,0.00,1,1,1,6,199,0,0,0,0,0,0.00,0,0,0,0,0,0,0,0.00,0.00,0,0,0.0000,0.0000,0.0000,0.0000,0.0000
2026-04-20T18:47:16.017,0.119,1,-0.03,-0.01,-5.37,-1.93,0,0.0000,0.0000,0.3500,0.0000,0.0000,0.0000,0.00,0.00,54.43,60.00,7,0,0.00000,0.00000,0.00000,0.00000,0,0,0,0.00000,0.00000,1.00000,0.0000,0.0000,0.0000,0.0000,0.0000,0.0000,0.00,0.00,0.00,1,1,1,7,199,0,0,0,0,0,0.00,0,0,0,0,0,0,0,0.00,0.00,0,0,0.0000,0.0000,0.0000,0.0000,0.0000
2026-04-20T18:47:16.034,0.135,1,-0.04,-0.02,-5.42,-1.98,0,0.0000,0.0000,0.3500,0.0000,0.0000,0.0000,0.00,0.00,68.19,61.45,8,0,0.00000,0.00000,0.00000,0.00000,0,0,0,0.00000,0.00000,1.00000,0.0000,0.0000,0.0000,0.0000,0.0000,0.0000,0.00,0.00,0.00,1,1,1,8,199,0,0,0,0,0,0.00,0,0,0,0,0,0,0,0.00,0.00,0,0,0.0000,0.0000,0.0000,0.0000,0.0000
2026-04-20T18:47:16.050,0.151,1,-0.04,-0.02,-5.42,-1.98,0,0.0000,0.0000,0.3500,0.0000,0.0000,0.0000,0.00,0.00,57.03,62.17,9,0,0.00000,0.00000,0.00000,0.00000,0,0,0,0.00000,0.00000,1.00000,0.0000,0.0000,0.0000,0.0000,0.0000,0.0000,0.00,0.00,0.00,1,1,1,9,199,0,0,0,0,0,0.00,0,0,0,0,0,0,0,0.00,0.00,0,0,0.0000,0.0000,0.0000,0.0000,0.0000
2026-04-20T18:47:16.067,0.168,1,-0.04,-0.02,-5.42,-1.98,0,0.0000,0.0000,0.3500,0.0000,0.0000,0.0000,0.00,0.00,62.36,56.12,10,0,0.00000,0.00000,0.00000,0.00000,0,0,0,0.00000,0.00000,1.00000,0.0000,0.0000,0.0000,0.0000,0.0000,0.0000,0.00,0.00,0.00,1,1,1,10,199,0,0,0,0,0,0.00,0,0,0,0,0,0,0,0.00,0.00,0,0,0.0000,0.0000,0.0000,0.0000,0.0000
2026-04-20T18:47:16.085,0.186,1,-0.03,-0.02,-5.40,-1.98,0,0.0000,0.0000,0.3500,0.0000,0.0000,0.0000,0.00,0.00,59.67,59.93,11,0,0.00000,0.00000,0.00000,0.00000,0,0,0,0.00000,0.00000,1.00000,0.0000,0.0000,0.0000,0.0000,0.0000,0.0000,0.00,0.00,0.00,1,1,1,11,199,0,0,0,0,0,0.00,0,0,0,0,0,0,0,0.00,0.00,0,0,0.0000,0.0000,0.0000,0.0000,0.0000
2026-04-20T18:47:16.101,0.202,1,-0.03,-0.02,-5.40,-1.98,0,0.0000,0.0000,0.3500,0.0000,0.0000,0.0000,0.00,0.00,59.96,60.61,12,0,0.00000,0.00000,0.00000,0.00000,0,0,0,0.00000,0.00000,1.00000,0.0000,0.0000,0.0000,0.0000,0.0000,0.0000,0.00,0.00,0.00,1,1,1,12,199,0,0,0,0,0,0.00,0,0,0,0,0,0,0,0.00,0.00,0,0,0.0000,0.0000,0.0000,0.0000,0.0000
2026-04-20T18:47:16.116,0.217,1,-0.03,-0.02,-5.40,-1.98,0,0.0000,0.0000,0.3500,0.0000,0.0000,0.0000,0.00,0.00,58.13,60.97,13,0,0.00000,0.00000,0.00000,0.00000,0,0,0,0.00000,0.00000,1.00000,0.0000,0.0000,0.0000,0.0000,0.0000,0.0000,0.00,0.00,0.00,1,1,1,13,199,0,0,0,0,0,0.00,0,0,0,0,0,0,0,0.00,0.00,0,0,0.0000,0.0000,0.0000,0.0000,0.0000
2026-04-20T18:47:16.133,0.234,1,-0.03,-0.02,-5.40,-1.98,0,0.0000,0.0000,0.3500,0.0000,0.0000,0.0000,0.00,0.00,74.87,62.81,14,0,0.00000,0.00000,0.00000,0.00000,0,0,0,0.00000,0.00000,1.00000,0.0000,0.0000,0.0000,0.0000,0.0000,0.0000,0.00,0.00,0.00,1,1,1,14,199,0,0,0,0,0,0.00,0,0,0,0,0,0,0,0.00,0.00,0,0,0.0000,0.0000,0.0000,0.0000,0.0000
2026-04-20T18:47:16.150,0.251,1,-0.03,-0.02,-5.40,-1.98,0,0.0000,0.0000,0.3500,0.0000,0.0000,0.0000,0.00,0.00,54.99,60.04,15,0,0.00000,0.00000,0.00000,0.00000,0,0,0,0.00000,0.00000,1.00000,0.0000,0.0000,0.0000,0.0000,0.0000,0.0000,0.00,0.00,0.00,1,1,1,15,199,0,0,0,0,0,0.00,0,0,0,0,0,0,0,0.00,0.00,0,0,0.0000,0.0000,0.0000,0.0000,0.0000
2026-04-20T18:47:16.166,0.268,1,-0.03,-0.02,-5.40,-1.98,0,0.0000,0.0000,0.3500,0.0000,0.0000,0.0000,0.00,0.00,60.54,59.99,16,0,0.00000,0.00000,0.00000,0.00000,0,0,0,0.00000,0.00000,1.00000,0.0000,0.0000,0.0000,0.0000,0.0000,0.0000,0.00,0.00,0.00,1,1,1,16,199,0,0,0,0,0,0.00,0,0,0,0,0,0,0,0.00,0.00,0,0,0.0000,0.0000,0.0000,0.0000,0.0000
2026-04-20T18:47:16.183,0.285,1,-0.03,-0.02,-5.40,-1.93,0,0.0000,0.0000,0.3500,0.0000,0.0000,0.0000,0.00,0.00,59.94,56.03,17,0,0.00000,0.00000,0.00000,0.00000,0,0,0,0.00000,0.00000,1.00000,0.0000,0.0000,0.0000,0.0000,0.0000,0.0000,0.00,0.00,0.00,1,1,1,17,199,0,0,0,0,0,0.00,0,0,0,0,0,0,0,0.00,0.00,0,0,0.0000,0.0000,0.0000,0.0000,0.0000
2026-04-20T18:47:16.200,0.301,1,-0.03,-0.02,-5.40,-1.93,0,0.0000,0.0000,0.3500,0.0000,0.0000,0.0000,0.00,0.00,58.24,64.67,18,0,0.00000,0.00000,0.00000,0.00000,0,0,0,0.00000,0.00000,1.00000,0.0000,0.0000,0.0000,0.0000,0.0000,0.0000,0.00,0.00,0.00,1,1,1,18,199,0,0,0,0,0,0.00,0,0,0,0,0,0,0,0.00,0.00,0,0,0.0000,0.0000,0.0000,0.0000,0.0000
2026-04-20T18:47:16.219,0.321,1,-0.03,-0.02,-5.40,-1.93,0,0.0000,0.0000,0.3500,0.0000,0.0000,0.0000,0.00,0.00,61.39,56.55,19,0,0.00000,0.00000,0.00000,0.00000,0,0,0,0.00000,0.00000,1.00000,0.0000,0.0000,0.0000,0.0000,0.0000,0.0000,0.00,0.00,0.00,1,1,1,19,199,0,0,0,0,0,0.00,0,0,0,0,0,0,0,0.00,0.00,0,0,0.0000,0.0000,0.0000,0.0000,0.0000
2026-04-20T18:47:16.233,0.335,1,-0.03,-0.02,-5.40,-1.93,0,0.0000,0.0000,0.3500,0.0000,0.0000,0.0000,0.00,0.00,54.14,63.51,20,0,0.00000,0.00000,0.00000,0.00000,0,0,0,0.00000,0.00000,1.00000,0.0000,0.0000,0.0000,0.0000,0.0000,0.0000,0.00,0.00,0.00,1,1,1,20,199,0,0,0,0,0,0.00,0,0,0,0,0,0,0,0.00,0.00,0,0,0.0000,0.0000,0.0000,0.0000,0.0000
2026-04-20T18:47:16.250,0.351,1,-0.03,-0.02,-5.40,-1.93,0,0.0000,0.0000,0.3500,0.0000,0.0000,0.0000,0.00,0.00,66.77,59.67,21,0,0.00000,0.00000,0.00000,0.00000,0,0,0,0.00000,0.00000,1.00000,0.0000,0.0000,0.0000,0.0000,0.0000,0.0000,0.00,0.00,0.00,1,1,1,21,199,0,0,0,0,0,0.00,0,0,0,0,0,0,0,0.00,0.00,0,0,0.0000,0.0000,0.0000,0.0000,0.0000
2026-04-20T18:47:16.266,0.368,1,-0.03,-0.02,-5.40,-1.93,0,0.0000,0.0000,0.3500,0.0000,0.0000,0.0000,0.00,0.00,60.55,60.62,22,0,0.00000,0.00000,0.00000,0.00000,0,0,0,0.00000,0.00000,1.00000,0.0000,0.0000,0.0000,0.0000,0.0000,0.0000,0.00,0.00,0.00,1,1,1,22,199,0,0,0,0,0,0.00,0,0,0,0,0,0,0,0.00,0.00,0,0,0.0000,0.0000,0.0000,0.0000,0.0000
2026-04-20T18:47:16.283,0.384,1,-0.03,-0.02,-5.40,-1.93,0,0.0000,0.0000,0.3500,0.0000,0.0000,0.0000,0.00,0.00,60.24,60.07,23,0,0.00000,0.00000,0.00000,0.00000,0,0,0,0.00000,0.00000,1.00000,0.0000,0.0000,0.0000,0.0000,0.0000,0.0000,0.00,0.00,0.00,1,1,1,23,199,0,0,0,0,0,0.00,0,0,0,0,0,0,0,0.00,0.00,0,0,0.0000,0.0000,0.0000,0.0000,0.0000
2026-04-20T18:47:16.300,0.401,1,-0.02,-0.02,-5.39,-1.95,0,0.0000,0.0000,0.3500,0.0000,0.0000,0.0000,0.00,0.00,60.02,55.97,24,0,0.00000,0.00000,0.00000,0.00000,0,0,0,0.00000,0.00000,1.00000,0.0000,0.0000,0.0000,0.0000,0.0000,0.0000,0.00,0.00,0.00,1,1,1,24,199,0,0,0,0,0,0.00,0,0,0,0,0,0,0,0.00,0.00,0,0,0.0000,0.0000,0.0000,0.0000,0.0000
2026-04-20T18:47:16.318,0.419,1,-0.02,-0.02,-5.39,-1.95,0,0.0000,0.0000,0.3500,0.0000,0.0000,0.0000,0.00,0.00,58.18,59.98,25,0,0.00000,0.00000,0.00000,0.00000,0,0,0,0.00000,0.00000,1.00000,0.0000,0.0000,0.0000,0.0000,0.0000,0.0000,0.00,0.00,0.00,1,1,1,25,199,0,0,0,0,0,0.00,0,0,0,0,0,0,0,0.00,0.00,0,0,0.0000,0.0000,0.0000,0.0000,0.0000
2026-04-20T18:47:16.333,0.434,1,-0.02,-0.02,-5.39,-1.95,0,0.0000,0.0000,0.3500,0.0000,0.0000,0.0000,0.00,0.00,57.24,64.40,26,0,0.00000,0.00000,0.00000,0.00000,0,0,0,0.00000,0.00000,1.00000,0.0000,0.0000,0.0000,0.0000,0.0000,0.0000,0.00,0.00,0.00,1,1,1,26,199,0,0,0,0,0,0.00,0,0,0,0,0,0,0,0.00,0.00,0,0,0.0000,0.0000,0.0000,0.0000,0.0000
2026-04-20T18:47:16.350,0.452,1,-0.01,-0.02,-5.40,-2.01,0,0.0000,0.0000,0.3500,0.0000,0.0000,0.0000,0.00,0.00,64.74,59.87,27,0,0.00000,0.00000,0.00000,0.00000,0,0,0,0.00000,0.00000,1.00000,0.0000,0.0000,0.0000,0.0000,0.0000,0.0000,0.00,0.00,0.00,1,1,1,27,199,0,0,0,0,0,0.00,0,0,0,0,0,0,0,0.00,0.00,0,0,0.0000,0.0000,0.0000,0.0000,0.0000
2026-04-20T18:47:16.366,0.468,1,-0.01,-0.02,-5.40,-2.01,0,0.0000,0.0000,0.3500,0.0000,0.0000,0.0000,0.00,0.00,61.68,60.34,28,0,0.00000,0.00000,0.00000,0.00000,0,0,0,0.00000,0.00000,1.00000,0.0000,0.0000,0.0000,0.0000,0.0000,0.0000,0.00,0.00,0.00,1,1,1,28,199,0,0,0,0,0,0.00,0,0,0,0,0,0,0,0.00,0.00,0,0,0.0000,0.0000,0.0000,0.0000,0.0000
2026-04-20T18:47:16.383,0.484,1,-0.01,-0.02,-5.40,-2.01,0,0.0000,0.0000,0.3500,0.0000,0.0000,0.0000,0.00,0.00,59.09,59.96,29,0,0.00000,0.00000,0.00000,0.00000,0,0,0,0.00000,0.00000,1.00000,0.0000,0.0000,0.0000,0.0000,0.0000,0.0000,0.00,0.00,0.00,1,1,1,29,199,0,0,0,0,0,0.00,0,0,0,0,0,0,0,0.00,0.00,0,0,0.0000,0.0000,0.0000,0.0000,0.0000
2026-04-20T18:47:16.400,0.502,1,-0.00,-0.02,-5.46,-1.96,0,0.0000,0.0000,0.3500,0.0000,0.0000,0.0000,0.00,0.00,59.42,58.13,30,0,0.00000,0.00000,0.00000,0.00000,0,0,0,0.00000,0.00000,1.00000,0.0000,0.0000,0.0000,0.0000,0.0000,0.0000,0.00,0.00,0.00,1,1,1,30,199,0,0,0,0,0,0.00,0,0,0,0,0,0,0,0.00,0.00,0,0,0.0000,0.0000,0.0000,0.0000,0.0000
2026-04-20T18:47:16.419,0.520,1,-0.00,-0.02,-5.46,-1.96,0,0.0000,0.0000,0.3500,0.0000,0.0000,0.0000,0.00,0.00,62.09,57.38,31,0,0.00000,0.00000,0.00000,0.00000,0,0,0,0.00000,0.00000,1.00000,0.0000,0.0000,0.0000,0.0000,0.0000,0.0000,0.00,0.00,0.00,1,1,1,31,199,0,0,0,0,0,0.00,0,0,0,0,0,0,0,0.00,0.00,0,0,0.0000,0.0000,0.0000,0.0000,0.0000
2026-04-20T18:47:16.434,0.535,1,-0.00,-0.02,-5.46,-1.96,0,0.0000,0.0000,0.3500,0.0000,0.0000,0.0000,0.00,0.00,51.82,61.90,32,0,0.00000,0.00000,0.00000,0.00000,0,0,0,0.00000,0.00000,1.00000,0.0000,0.0000,0.0000,0.0000,0.0000,0.0000,0.00,0.00,0.00,1,1,1,32,199,0,0,0,0,0,0.00,0,0,30,0,0,0,2202,250.00,0.00,18,2241,0.0000,0.0000,0.0000,0.0000,0.0000
2026-04-20T18:47:16.450,0.552,1,-0.00,-0.02,-5.46,-1.96,0,0.0000,0.0000,0.3500,0.0000,0.0000,0.0000,0.00,0.00,66.03,62.73,33,0,0.00000,0.00000,0.00000,0.00000,0,0,0,0.00000,0.00000,1.00000,0.0000,0.0000,0.0000,0.0000,0.0000,0.0000,0.00,0.00,0.00,1,1,1,33,199,0,0,0,0,0,0.00,0,0,30,0,0,0,2202,250.00,0.00,18,2241,0.0000,0.0000,0.0000,0.0000,0.0000
2026-04-20T18:47:16.467,0.568,1,-0.00,-0.02,-5.46,-1.96,0,0.0000,0.0000,0.3500,0.0000,0.0000,0.0000,0.00,0.00,63.92,60.35,34,0,0.00000,0.00000,0.00000,0.00000,0,0,0,0.00000,0.00000,1.00000,0.0000,0.0000,0.0000,0.0000,0.0000,0.0000,0.00,0.00,0.00,1,1,1,34,199,0,0,0,0,0,0.00,0,0,30,0,0,0,2202,250.00,0.00,18,2241,0.0000,0.0000,0.0000,0.0000,0.0000
2026-04-20T18:47:16.483,0.584,1,-0.00,-0.02,-5.46,-1.96,0,0.0000,0.0000,0.3500,0.0000,0.0000,0.0000,0.00,0.00,58.06,57.31,35,0,0.00000,0.00000,0.00000,0.00000,0,0,0,0.00000,0.00000,1.00000,0.0000,0.0000,0.0000,0.0000,0.0000,0.0000,0.00,0.00,0.00,1,1,1,35,199,0,0,0,0,0,0.00,0,0,30,0,0,0,2202,250.00,0.00,18,2241,0.0000,0.0000,0.0000,0.0000,0.0000
2026-04-20T18:47:16.500,0.601,1,-0.00,-0.02,-5.46,-1.96,0,0.0000,0.0000,0.3500,0.0000,0.0000,0.0000,0.00,0.00,60.76,62.87,36,0,0.00000,0.00000,0.00000,0.00000,0,0,0,0.00000,0.00000,1.00000,0.0000,0.0000,0.0000,0.0000,0.0000,0.0000,0.00,0.00,0.00,1,1,1,36,199,0,0,0,0,0,0.00,0,0,30,0,0,0,2202,250.00,0.00,18,2241,0.0000,0.0000,0.0000,0.0000,0.0000
2026-04-20T18:47:16.517,0.618,1,-0.00,-0.02,-5.46,-1.96,0,0.0000,0.0000,0.3500,0.0000,0.0000,0.0000,0.00,0.00,58.54,59.78,37,0,0.00000,0.00000,0.00000,0.00000,0,0,0,0.00000,0.00000,1.00000,0.0000,0.0000,0.0000,0.0000,0.0000,0.0000,0.00,0.00,0.00,1,1,1,37,199,0,0,0,0,0,0.00,0,0,30,0,0,0,2202,250.00,0.00,18,2241,0.0000,0.0000,0.0000,0.0000,0.0000
2026-04-20T18:47:16.533,0.634,1,-0.00,-0.02,-5.46,-1.96,0,0.0000,0.0000,0.3500,0.0000,0.0000,0.0000,0.00,0.00,59.78,61.54,38,0,0.00000,0.00000,0.00000,0.00000,0,0,0,0.00000,0.00000,1.00000,0.0000,0.0000,0.0000,0.0000,0.0000,0.0000,0.00,0.00,0.00,1,1,1,38,199,0,0,0,0,0,0.00,0,0,30,0,0,0,2202,250.00,0.00,18,2241,0.0000,0.0000,0.0000,0.0000,0.0000
2026-04-20T18:47:16.552,0.654,1,0.00,-0.02,-5.37,-1.93,0,0.0000,0.0000,0.3500,0.0000,0.0000,0.0000,0.00,0.00,61.19,52.92,39,0,0.00000,0.00000,0.00000,0.00000,0,0,0,0.00000,0.00000,1.00000,0.0000,0.0000,0.0000,0.0000,0.0000,0.0000,0.00,0.00,0.00,1,1,1,39,199,0,0,0,0,0,0.00,0,0,30,0,0,0,2202,250.00,0.00,18,2241,0.0000,0.0000,0.0000,0.0000,0.0000
2026-04-20T18:47:16.566,0.668,1,0.00,-0.02,-5.37,-1.93,0,0.0000,0.0000,0.3500,0.0000,0.0000,0.0000,0.00,0.00,52.11,67.79,40,0,0.00000,0.00000,0.00000,0.00000,0,0,0,0.00000,0.00000,1.00000,0.0000,0.0000,0.0000,0.0000,0.0000,0.0000,0.00,0.00,0.00,1,1,1,40,199,0,0,0,0,0,0.00,0,0,30,0,0,0,2202,250.00,0.00,18,2241,0.0000,0.0000,0.0000,0.0000,0.0000
2026-04-20T18:47:16.584,0.686,1,0.00,-0.02,-5.37,-1.93,0,0.0000,0.0000,0.3500,0.0000,0.0000,0.0000,0.00,0.00,70.68,55.78,41,0,0.00000,0.00000,0.00000,0.00000,0,0,0,0.00000,0.00000,1.00000,0.0000,0.0000,0.0000,0.0000,0.0000,0.0000,0.00,0.00,0.00,1,1,1,41,199,0,0,0,0,0,0.00,0,0,30,0,0,0,2202,250.00,0.00,18,2241,0.0000,0.0000,0.0000,0.0000,0.0000
2026-04-20T18:47:16.600,0.701,1,0.00,-0.02,-5.37,-1.93,0,0.0000,0.0000,0.3500,0.0000,0.0000,0.0000,0.00,0.00,55.75,63.86,42,0,0.00000,0.00000,0.00000,0.00000,0,0,0,0.00000,0.00000,1.00000,0.0000,0.0000,0.0000,0.0000,0.0000,0.0000,0.00,0.00,0.00,1,1,1,42,199,0,0,0,0,0,0.00,0,0,30,0,0,0,2202,250.00,0.00,18,2241,0.0000,0.0000,0.0000,0.0000,0.0000
2026-04-20T18:47:16.616,0.718,1,0.00,-0.02,-5.37,-1.93,0,0.0000,0.0000,0.3500,0.0000,0.0000,0.0000,0.00,0.00,65.24,60.75,43,0,0.00000,0.00000,0.00000,0.00000,0,0,0,0.00000,0.00000,1.00000,0.0000,0.0000,0.0000,0.0000,0.0000,0.0000,0.00,0.00,0.00,1,1,1,43,199,0,0,0,0,0,0.00,0,0,30,0,0,0,2202,250.00,0.00,18,2241,0.0000,0.0000,0.0000,0.0000,0.0000
2026-04-20T18:47:16.634,0.736,1,0.00,-0.02,-5.37,-1.93,0,0.0000,0.0000,0.3500,0.0000,0.0000,0.0000,0.00,0.00,60.23,60.07,44,0,0.00000,0.00000,0.00000,0.00000,0,0,0,0.00000,0.00000,1.00000,0.0000,0.0000,0.0000,0.0000,0.0000,0.0000,0.00,0.00,0.00,1,1,1,44,199,0,0,0,0,0,0.00,0,0,30,0,0,0,2202,250.00,0.00,18,2241,0.0000,0.0000,0.0000,0.0000,0.0000
2026-04-20T18:47:16.649,0.751,1,0.00,-0.02,-5.37,-1.93,0,0.0000,0.0000,0.3500,0.0000,0.0000,0.0000,0.00,0.00,56.25,59.27,45,0,0.00000,0.00000,0.00000,0.00000,0,0,0,0.00000,0.00000,1.00000,0.0000,0.0000,0.0000,0.0000,0.0000,0.0000,0.00,0.00,0.00,1,1,1,45,199,0,0,0,0,0,0.00,0,0,30,0,0,0,2202,250.00,0.00,18,2241,0.0000,0.0000,0.0000,0.0000,0.0000
2026-04-20T18:47:16.666,0.768,1,0.00,-0.02,-5.37,-1.93,0,0.0000,0.0000,0.3500,0.0000,0.0000,0.0000,0.00,0.00,64.51,57.47,46,0,0.00000,0.00000,0.00000,0.00000,0,0,0,0.00000,0.00000,1.00000,0.0000,0.0000,0.0000,0.0000,0.0000,0.0000,0.00,0.00,0.00,1,1,1,46,199,0,0,0,0,0,0.00,0,0,30,0,0,0,2202,250.00,0.00,18,2241,0.0000,0.0000,0.0000,0.0000,0.0000
2026-04-20T18:47:16.683,0.784,1,0.00,-0.02,-5.37,-1.93,0,0.0000,0.0000,0.3500,0.0000,0.0000,0.0000,0.00,0.00,57.53,60.81,47,0,0.00000,0.00000,0.00000,0.00000,0,0,0,0.00000,0.00000,1.00000,0.0000,0.0000,0.0000,0.0000,0.0000,0.0000,0.00,0.00,0.00,1,1,1,47,199,0,0,0,0,0,0.00,0,0,30,0,0,0,2202,250.00,0.00,18,2241,0.0000,0.0000,0.0000,0.0000,0.0000
2026-04-20T18:47:16.700,0.802,1,0.00,-0.02,-5.37,-1.93,0,0.0000,0.0000,0.3500,0.0000,0.0000,0.0000,0.00,0.00,62.71,60.69,48,0,0.00000,0.00000,0.00000,0.00000,0,0,0,0.00000,0.00000,1.00000,0.0000,0.0000,0.0000,0.0000,0.0000,0.0000,0.00,0.00,0.00,1,1,1,48,199,0,0,0,0,0,0.00,0,0,30,0,0,0,2202,250.00,0.00,18,2241,0.0000,0.0000,0.0000,0.0000,0.0000
2026-04-20T18:47:16.717,0.819,1,0.00,-0.02,-5.37,-1.93,0,0.0000,0.0000,0.3500,0.0000,0.0000,0.0000,0.00,0.00,61.35,57.92,49,0,0.00000,0.00000,0.00000,0.00000,0,0,0,0.00000,0.00000,1.00000,0.0000,0.0000,0.0000,0.0000,0.0000,0.0000,0.00,0.00,0.00,1,1,1,49,199,0,0,0,0,0,0.00,0,0,30,0,0,0,2202,250.00,0.00,18,2241,0.0000,0.0000,0.0000,0.0000,0.0000
2026-04-20T18:47:16.733,0.834,1,0.00,-0.02,-5.37,-1.93,0,0.0000,0.0000,0.3500,0.0000,0.0000,0.0000,0.00,0.00,58.64,61.59,50,0,0.00000,0.00000,0.00000,0.00000,0,0,0,0.00000,0.00000,1.00000,0.0000,0.0000,0.0000,0.0000,0.0000,0.0000,0.00,0.00,0.00,1,1,1,50,199,0,0,0,0,0,0.00,0,0,30,0,0,0,2202,250.00,0.00,18,2241,0.0000,0.0000,0.0000,0.0000,0.0000
2026-04-20T18:47:16.750,0.852,1,0.00,-0.02,-5.37,-1.93,0,0.0000,0.0000,0.3500,0.0000,0.0000,0.0000,0.00,0.00,59.94,62.32,51,0,0.00000,0.00000,0.00000,0.00000,0,0,0,0.00000,0.00000,1.00000,0.0000,0.0000,0.0000,0.0000,0.0000,0.0000,0.00,0.00,0.00,1,1,1,51,199,0,0,0,0,0,0.00,0,0,30,0,0,0,2202,250.00,0.00,18,2241,0.0000,0.0000,0.0000,0.0000,0.0000
2026-04-20T18:47:16.767,0.868,1,-0.01,-0.03,-5.34,-1.89,0,0.0000,0.0000,0.3500,0.0000,0.0000,0.0000,0.00,0.00,59.93,60.24,52,0,0.00000,0.00000,0.00000,0.00000,0,0,0,0.00000,0.00000,1.00000,0.0000,0.0000,0.0000,0.0000,0.0000,0.0000,0.00,0.00,0.00,1,1,1,52,199,0,0,0,0,0,0.00,0,0,30,0,0,0,2202,250.00,0.00,18,2241,0.0000,0.0000,0.0000,0.0000,0.0000
2026-04-20T18:47:16.783,0.884,1,-0.01,-0.03,-5.34,-1.89,0,0.0000,0.0000,0.3500,0.0000,0.0000,0.0000,0.00,0.00,58.45,59.85,53,0,0.00000,0.00000,0.00000,0.00000,0,0,0,0.00000,0.00000,1.00000,0.0000,0.0000,0.0000,0.0000,0.0000,0.0000,0.00,0.00,0.00,1,1,1,53,199,0,0,0,0,0,0.00,0,0,30,0,0,0,2202,250.00,0.00,18,2241,0.0000,0.0000,0.0000,0.0000,0.0000
2026-04-20T18:47:16.801,0.902,1,-0.01,-0.03,-5.34,-1.89,0,0.0000,0.0000,0.3500,0.0000,0.0000,0.0000,0.00,0.00,61.54,56.61,54,0,0.00000,0.00000,0.00000,0.00000,0,0,0,0.00000,0.00000,1.00000,0.0000,0.0000,0.0000,0.0000,0.0000,0.0000,0.00,0.00,0.00,1,1,1,54,199,0,0,0,0,0,0.00,0,0,30,0,0,0,2202,250.00,0.00,18,2241,0.0000,0.0000,0.0000,0.0000,0.0000
2026-04-20T18:47:16.816,0.918,1,-0.01,-0.03,-5.37,-1.90,0,0.0000,0.0000,0.3500,0.0000,0.0000,0.0000,0.00,0.00,56.15,64.03,55,0,0.00000,0.00000,0.00000,0.00000,0,0,0,0.00000,0.00000,1.00000,0.0000,0.0000,0.0000,0.0000,0.0000,0.0000,0.00,0.00,0.00,1,1,1,55,199,0,0,0,0,0,0.00,0,0,30,0,0,0,2202,250.00,0.00,18,2241,0.0000,0.0000,0.0000,0.0000,0.0000
2026-04-20T18:47:16.834,0.936,1,-0.01,-0.03,-5.37,-1.90,0,0.0000,0.0000,0.3500,0.0000,0.0000,0.0000,0.00,0.00,70.37,59.94,56,0,0.00000,0.00000,0.00000,0.00000,0,0,0,0.00000,0.00000,1.00000,0.0000,0.0000,0.0000,0.0000,0.0000,0.0000,0.00,0.00,0.00,1,1,1,56,199,0,0,0,0,0,0.00,0,0,30,0,0,0,2202,250.00,0.00,18,2241,0.0000,0.0000,0.0000,0.0000,0.0000
2026-04-20T18:47:16.850,0.951,1,-0.01,-0.03,-5.37,-1.90,0,0.0000,0.0000,0.3500,0.0000,0.0000,0.0000,0.00,0.00,51.91,59.88,57,0,0.00000,0.00000,0.00000,0.00000,0,0,0,0.00000,0.00000,1.00000,0.0000,0.0000,0.0000,0.0000,0.0000,0.0000,0.00,0.00,0.00,1,1,1,57,199,0,0,0,0,0,0.00,0,0,30,0,0,0,2202,250.00,0.00,18,2241,0.0000,0.0000,0.0000,0.0000,0.0000
2026-04-20T18:47:16.866,0.968,1,-0.01,-0.04,-5.34,-1.95,0,0.0000,0.0000,0.3500,0.0000,0.0000,0.0000,0.00,0.00,65.04,60.13,58,0,0.00000,0.00000,0.00000,0.00000,0,0,0,0.00000,0.00000,1.00000,0.0000,0.0000,0.0000,0.0000,0.0000,0.0000,0.00,0.00,0.00,1,1,1,58,199,0,0,0,0,0,0.00,0,0,30,0,0,0,2202,250.00,0.00,18,2241,0.0000,0.0000,0.0000,0.0000,0.0000
2026-04-20T18:47:16.883,0.984,1,-0.01,-0.04,-5.34,-1.95,0,0.0000,0.0000,0.3500,0.0000,0.0000,0.0000,0.00,0.00,60.22,60.07,59,0,0.00000,0.00000,0.00000,0.00000,0,0,0,0.00000,0.00000,1.00000,0.0000,0.0000,0.0000,0.0000,0.0000,0.0000,0.00,0.00,0.00,1,1,1,59,199,0,0,0,0,0,0.00,0,0,30,0,0,0,2202,250.00,0.00,18,2241,0.0000,0.0000,0.0000,0.0000,0.0000
2026-04-20T18:47:16.900,1.001,1,-0.01,-0.04,-5.34,-1.95,0,0.0000,0.0000,0.3500,0.0000,0.0000,0.0000,0.00,0.00,59.74,56.00,60,0,0.00000,0.00000,0.00000,0.00000,0,0,0,0.00000,0.00000,1.00000,0.0000,0.0000,0.0000,0.0000,0.0000,0.0000,0.00,0.00,0.00,1,1,1,60,199,0,0,0,0,0,0.00,0,0,30,0,0,0,2202,250.00,0.00,18,2241,0.0000,0.0000,0.0000,0.0000,0.0000
2026-04-20T18:47:16.919,1.020,1,-0.01,-0.04,-5.34,-1.95,0,0.0000,0.0000,0.3500,0.0000,0.0000,0.0000,0.00,0.00,56.82,60.31,61,0,0.00000,0.00000,0.00000,0.00000,0,0,0,0.00000,0.00000,1.00000,0.0000,0.0000,0.0000,0.0000,0.0000,0.0000,0.00,0.00,0.00,1,1,1,61,199,60,60,60,0,0,60.00,2232,2869,30,0,0,0,2202,250.00,0.00,18,2241,0.0000,0.0000,0.0000,0.0000,0.0000
2026-04-20T18:47:16.933,1.035,1,-0.01,-0.04,-5.34,-1.95,0,0.0000,0.0000,0.3500,0.0000,0.0000,0.0000,0.00,0.00,55.30,64.13,62,0,0.00000,0.00000,0.00000,0.00000,0,0,0,0.00000,0.00000,1.00000,0.0000,0.0000,0.0000,0.0000,0.0000,0.0000,0.00,0.00,0.00,1,1,1,62,199,60,60,60,0,0,60.00,2232,2869,60,0,0,0,2232,333.33,0.00,19,490,0.0000,0.0000,0.0000,0.0000,0.0000
2026-04-20T18:47:16.950,1.051,1,-0.01,-0.04,-5.34,-1.95,0,0.0000,0.0000,0.3500,0.0000,0.0000,0.0000,0.00,0.00,69.66,60.30,63,0,0.00000,0.00000,0.00000,0.00000,0,0,0,0.00000,0.00000,1.00000,0.0000,0.0000,0.0000,0.0000,0.0000,0.0000,0.00,0.00,0.00,1,1,1,63,199,60,60,60,0,0,60.00,2232,2869,60,0,0,0,2232,333.33,0.00,19,490,0.0000,0.0000,0.0000,0.0000,0.0000
2026-04-20T18:47:16.966,1.068,1,-0.01,-0.04,-5.35,-1.96,0,0.0000,0.0000,0.3500,0.0000,0.0000,0.0000,0.00,0.00,60.46,59.78,64,0,0.00000,0.00000,0.00000,0.00000,0,0,0,0.00000,0.00000,1.00000,0.0000,0.0000,0.0000,0.0000,0.0000,0.0000,0.00,0.00,0.00,1,1,1,64,199,60,60,60,0,0,60.00,2232,2869,60,0,0,0,2232,333.33,0.00,19,490,0.0000,0.0000,0.0000,0.0000,0.0000
2026-04-20T18:47:16.984,1.086,1,-0.01,-0.04,-5.35,-1.96,0,0.0000,0.0000,0.3500,0.0000,0.0000,0.0000,0.00,0.00,60.10,56.03,65,0,0.00000,0.00000,0.00000,0.00000,0,0,0,0.00000,0.00000,1.00000,0.0000,0.0000,0.0000,0.0000,0.0000,0.0000,0.00,0.00,0.00,1,1,1,65,199,60,60,60,0,0,60.00,2232,2869,60,0,0,0,2232,333.33,0.00,19,490,0.0000,0.0000,0.0000,0.0000,0.0000
2026-04-20T18:47:17.001,1.102,1,-0.01,-0.04,-5.35,-1.96,0,0.0000,0.0000,0.3500,0.0000,0.0000,0.0000,0.00,0.00,59.43,60.32,66,0,0.00000,0.00000,0.00000,0.00000,0,0,0,0.00000,0.00000,1.00000,0.0000,0.0000,0.0000,0.0000,0.0000,0.0000,0.00,0.00,0.00,1,1,1,66,199,60,60,60,0,0,60.00,2232,2869,60,0,0,0,2232,333.33,0.00,19,490,0.0000,0.0000,0.0000,0.0000,0.0000
2026-04-20T18:47:17.016,1.118,1,-0.01,-0.04,-5.40,-1.93,0,0.0000,0.0000,0.3500,0.0000,0.0000,0.0000,0.00,0.00,57.05,64.08,67,0,0.00000,0.00000,0.00000,0.00000,0,0,0,0.00000,0.00000,1.00000,0.0000,0.0000,0.0000,0.0000,0.0000,0.0000,0.00,0.00,0.00,1,1,1,67,199,60,60,60,0,0,60.00,2232,2869,60,0,0,0,2232,333.33,0.00,19,490,0.0000,0.0000,0.0000,0.0000,0.0000
2026-04-20T18:47:17.035,1.137,1,-0.01,-0.04,-5.40,-1.93,0,0.0000,0.0000,0.3500,0.0000,0.0000,0.0000,0.00,0.00,59.07,59.56,68,0,0.00000,0.00000,0.00000,0.00000,0,0,0,0.00000,0.00000,1.00000,0.0000,0.0000,0.0000,0.0000,0.0000,0.0000,0.00,0.00,0.00,1,1,1,68,199,60,60,60,0,0,60.00,2232,2869,60,0,0,0,2232,333.33,0.00,19,490,0.0000,0.0000,0.0000,0.0000,0.0000
2026-04-20T18:47:17.050,1.151,1,-0.01,-0.04,-5.40,-1.93,0,0.0000,0.0000,0.3500,0.0000,0.0000,0.0000,0.00,0.00,60.10,60.40,69,0,0.00000,0.00000,0.00000,0.00000,0,0,0,0.00000,0.00000,1.00000,0.0000,0.0000,0.0000,0.0000,0.0000,0.0000,0.00,0.00,0.00,1,1,1,69,199,60,60,60,0,0,60.00,2232,2869,60,0,0,0,2232,333.33,0.00,19,490,0.0000,0.0000,0.0000,0.0000,0.0000
2026-04-20T18:47:17.067,1.169,1,-0.01,-0.04,-5.42,-1.96,0,0.0000,0.0000,0.3500,0.0000,0.0000,0.0000,0.00,0.00,63.77,56.47,70,0,0.00000,0.00000,0.00000,0.00000,0,0,0,0.00000,0.00000,1.00000,0.0000,0.0000,0.0000,0.0000,0.0000,0.0000,0.00,0.00,0.00,1,1,1,70,199,60,60,60,0,0,60.00,2232,2869,60,0,0,0,2232,333.33,0.00,19,490,0.0000,0.0000,0.0000,0.0000,0.0000
2026-04-20T18:47:17.085,1.186,1,-0.01,-0.04,-5.42,-1.96,0,0.0000,0.0000,0.3500,0.0000,0.0000,0.0000,0.00,0.00,56.97,59.71,71,0,0.00000,0.00000,0.00000,0.00000,0,0,0,0.00000,0.00000,1.00000,0.0000,0.0000,0.0000,0.0000,0.0000,0.0000,0.00,0.00,0.00,1,1,1,71,199,60,60,60,0,0,60.00,2232,2869,60,0,0,0,2232,333.33,0.00,19,490,0.0000,0.0000,0.0000,0.0000,0.0000
2026-04-20T18:47:17.100,1.202,1,-0.01,-0.04,-5.42,-1.96,0,0.0000,0.0000,0.3500,0.0000,0.0000,0.0000,0.00,0.00,58.75,67.63,72,0,0.00000,0.00000,0.00000,0.00000,0,0,0,0.00000,0.00000,1.00000,0.0000,0.0000,0.0000,0.0000,0.0000,0.0000,0.00,0.00,0.00,1,1,1,72,199,60,60,60,0,0,60.00,2232,2869,60,0,0,0,2232,333.33,0.00,19,490,0.0000,0.0000,0.0000,0.0000,0.0000
2026-04-20T18:47:17.116,1.218,1,-0.01,-0.04,-5.37,-1.93,0,0.0000,0.0000,0.3500,0.0000,0.0000,0.0000,0.00,0.00,63.55,57.45,73,0,0.00000,0.00000,0.00000,0.00000,0,0,0,0.00000,0.00000,1.00000,0.0000,0.0000,0.0000,0.0000,0.0000,0.0000,0.00,0.00,0.00,1,1,1,73,199,60,60,60,0,0,60.00,2232,2869,60,0,0,0,2232,333.33,0.00,19,490,0.0000,0.0000,0.0000,0.0000,0.0000
2026-04-20T18:47:17.133,1.234,1,-0.01,-0.04,-5.37,-1.93,0,0.0000,0.0000,0.3500,0.0000,0.0000,0.0000,0.00,0.00,62.18,60.12,74,0,0.00000,0.00000,0.00000,0.00000,0,0,0,0.00000,0.00000,1.00000,0.0000,0.0000,0.0000,0.0000,0.0000,0.0000,0.00,0.00,0.00,1,1,1,74,199,60,60,60,0,0,60.00,2232,2869,60,0,0,0,2232,333.33,0.00,19,490,0.0000,0.0000,0.0000,0.0000,0.0000
2026-04-20T18:47:17.150,1.251,1,-0.01,-0.04,-5.37,-1.93,0,0.0000,0.0000,0.3500,0.0000,0.0000,0.0000,0.00,0.00,59.58,60.02,75,0,0.00000,0.00000,0.00000,0.00000,0,0,0,0.00000,0.00000,1.00000,0.0000,0.0000,0.0000,0.0000,0.0000,0.0000,0.00,0.00,0.00,1,1,1,75,199,60,60,60,0,0,60.00,2232,2869,60,0,0,0,2232,333.33,0.00,19,490,0.0000,0.0000,0.0000,0.0000,0.0000
2026-04-20T18:47:17.166,1.268,1,-0.02,-0.04,-5.37,-2.04,0,0.0000,0.0000,0.3500,0.0000,0.0000,0.0000,0.00,0.00,55.41,59.96,76,0,0.00000,0.00000,0.00000,0.00000,0,0,0,0.00000,0.00000,1.00000,0.0000,0.0000,0.0000,0.0000,0.0000,0.0000,0.00,0.00,0.00,1,1,1,76,199,60,60,60,0,0,60.00,2232,2869,60,0,0,0,2232,333.33,0.00,19,490,0.0000,0.0000,0.0000,0.0000,0.0000
2026-04-20T18:47:17.183,1.284,1,-0.02,-0.04,-5.37,-2.04,0,0.0000,0.0000,0.3500,0.0000,0.0000,0.0000,0.00,0.00,61.89,59.97,77,0,0.00000,0.00000,0.00000,0.00000,0,0,0,0.00000,0.00000,1.00000,0.0000,0.0000,0.0000,0.0000,0.0000,0.0000,0.00,0.00,0.00,1,1,1,77,199,60,60,60,0,0,60.00,2232,2869,60,0,0,0,2232,333.33,0.00,19,490,0.0000,0.0000,0.0000,0.0000,0.0000
2026-04-20T18:47:17.200,1.301,1,-0.02,-0.04,-5.37,-2.04,0,0.0000,0.0000,0.3500,0.0000,0.0000,0.0000,0.00,0.00,63.68,59.97,78,0,0.00000,0.00000,0.00000,0.00000,0,0,0,0.00000,0.00000,1.00000,0.0000,0.0000,0.0000,0.0000,0.0000,0.0000,0.00,0.00,0.00,1,1,1,78,199,60,60,60,0,0,60.00,2232,2869,60,0,0,0,2232,333.33,0.00,19,490,0.0000,0.0000,0.0000,0.0000,0.0000
2026-04-20T18:47:17.216,1.318,1,-0.02,-0.03,-5.34,-1.98,0,0.0000,0.0000,0.3500,0.0000,0.0000,0.0000,0.00,0.00,59.20,60.13,79,0,0.00000,0.00000,0.00000,0.00000,0,0,0,0.00000,0.00000,1.00000,0.0000,0.0000,0.0000,0.0000,0.0000,0.0000,0.00,0.00,0.00,1,1,1,79,199,60,60,60,0,0,60.00,2232,2869,60,0,0,0,2232,333.33,0.00,19,490,0.0000,0.0000,0.0000,0.0000,0.0000
2026-04-20T18:47:17.233,1.335,1,-0.02,-0.03,-5.34,-1.98,0,0.0000,0.0000,0.3500,0.0000,0.0000,0.0000,0.00,0.00,60.66,59.94,80,0,0.00000,0.00000,0.00000,0.00000,0,0,0,0.00000,0.00000,1.00000,0.0000,0.0000,0.0000,0.0000,0.0000,0.0000,0.00,0.00,0.00,1,1,1,80,199,60,60,60,0,0,60.00,2232,2869,60,0,0,0,2232,333.33,0.00,19,490,0.0000,0.0000,0.0000,0.0000,0.0000
2026-04-20T18:47:17.252,1.354,1,-0.02,-0.03,-5.34,-1.98,0,0.0000,0.0000,0.3500,0.0000,0.0000,0.0000,0.00,0.00,58.80,60.06,81,0,0.00000,0.00000,0.00000,0.00000,0,0,0,0.00000,0.00000,1.00000,0.0000,0.0000,0.0000,0.0000,0.0000,0.0000,0.00,0.00,0.00,1,1,1,81,199,60,60,60,0,0,60.00,2232,2869,60,0,0,0,2232,333.33,0.00,19,490,0.0000,0.0000,0.0000,0.0000,0.0000
2026-04-20T18:47:17.266,1.368,1,-0.02,-0.03,-5.34,-1.98,0,0.0000,0.0000,0.3500,0.0000,0.0000,0.0000,0.00,0.00,53.42,56.18,82,0,0.00000,0.00000,0.00000,0.00000,0,0,0,0.00000,0.00000,1.00000,0.0000,0.0000,0.0000,0.0000,0.0000,0.0000,0.00,0.00,0.00,1,1,1,82,199,60,60,60,0,0,60.00,2232,2869,60,0,0,0,2232,333.33,0.00,19,490,0.0000,0.0000,0.0000,0.0000,0.0000
2026-04-20T18:47:17.283,1.385,1,-0.02,-0.03,-5.34,-1.98,0,0.0000,0.0000,0.3500,0.0000,0.0000,0.0000,0.00,0.00,63.74,63.41,83,0,0.00000,0.00000,0.00000,0.00000,0,0,0,0.00000,0.00000,1.00000,0.0000,0.0000,0.0000,0.0000,0.0000,0.0000,0.00,0.00,0.00,1,1,1,83,199,60,60,60,0,0,60.00,2232,2869,60,0,0,0,2232,333.33,0.00,19,490,0.0000,0.0000,0.0000,0.0000,0.0000
2026-04-20T18:47:17.300,1.401,1,-0.02,-0.03,-5.34,-1.98,0,0.0000,0.0000,0.3500,0.0000,0.0000,0.0000,0.00,0.00,69.59,60.96,84,0,0.00000,0.00000,0.00000,0.00000,0,0,0,0.00000,0.00000,1.00000,0.0000,0.0000,0.0000,0.0000,0.0000,0.0000,0.00,0.00,0.00,1,1,1,84,199,60,60,60,0,0,60.00,2232,2869,60,0,0,0,2232,333.33,0.00,19,490,0.0000,0.0000,0.0000,0.0000,0.0000
2026-04-20T18:47:17.316,1.418,1,-0.02,-0.03,-5.34,-1.98,0,0.0000,0.0000,0.3500,0.0000,0.0000,0.0000,0.00,0.00,56.79,60.04,85,0,0.00000,0.00000,0.00000,0.00000,0,0,0,0.00000,0.00000,1.00000,0.0000,0.0000,0.0000,0.0000,0.0000,0.0000,0.00,0.00,0.00,1,1,1,85,199,60,60,60,0,0,60.00,2232,2869,60,0,0,0,2232,333.33,0.00,19,490,0.0000,0.0000,0.0000,0.0000,0.0000
2026-04-20T18:47:17.333,1.434,1,-0.03,-0.02,-5.29,-1.98,0,0.0000,0.0000,0.3500,0.0000,0.0000,0.0000,0.00,0.00,60.43,56.34,86,0,0.00000,0.00000,0.00000,0.00000,0,0,0,0.00000,0.00000,1.00000,0.0000,0.0000,0.0000,0.0000,0.0000,0.0000,0.00,0.00,0.00,1,1,1,86,199,60,60,60,0,0,60.00,2232,2869,60,0,0,0,2232,333.33,0.00,19,490,0.0000,0.0000,0.0000,0.0000,0.0000
2026-04-20T18:47:17.350,1.451,1,-0.03,-0.02,-5.29,-1.98,0,0.0000,0.0000,0.3500,0.0000,0.0000,0.0000,0.00,0.00,59.00,64.15,87,0,0.00000,0.00000,0.00000,0.00000,0,0,0,0.00000,0.00000,1.00000,0.0000,0.0000,0.0000,0.0000,0.0000,0.0000,0.00,0.00,0.00,1,1,1,87,199,60,60,60,0,0,60.00,2232,2869,60,0,0,0,2232,333.33,0.00,19,490,0.0000,0.0000,0.0000,0.0000,0.0000
2026-04-20T18:47:17.368,1.469,1,-0.03,-0.02,-5.29,-1.98,0,0.0000,0.0000,0.3500,0.0000,0.0000,0.0000,0.00,0.00,59.46,56.07,88,0,0.00000,0.00000,0.00000,0.00000,0,0,0,0.00000,0.00000,1.00000,0.0000,0.0000,0.0000,0.0000,0.0000,0.0000,0.00,0.00,0.00,1,1,1,88,199,60,60,60,0,0,60.00,2232,2869,60,0,0,0,2232,333.33,0.00,19,490,0.0000,0.0000,0.0000,0.0000,0.0000
2026-04-20T18:47:17.382,1.484,1,-0.03,-0.02,-5.29,-1.98,0,0.0000,0.0000,0.3500,0.0000,0.0000,0.0000,0.00,0.00,56.31,64.57,89,0,0.00000,0.00000,0.00000,0.00000,0,0,0,0.00000,0.00000,1.00000,0.0000,0.0000,0.0000,0.0000,0.0000,0.0000,0.00,0.00,0.00,1,1,1,89,199,60,60,60,0,0,60.00,2232,2869,60,0,0,0,2232,333.33,0.00,19,490,0.0000,0.0000,0.0000,0.0000,0.0000
2026-04-20T18:47:17.400,1.501,1,-0.03,-0.02,-5.29,-1.98,0,0.0000,0.0000,0.3500,0.0000,0.0000,0.0000,0.00,0.00,67.19,60.08,90,0,0.00000,0.00000,0.00000,0.00000,0,0,0,0.00000,0.00000,1.00000,0.0000,0.0000,0.0000,0.0000,0.0000,0.0000,0.00,0.00,0.00,1,1,1,90,199,60,60,60,0,0,60.00,2232,2869,60,0,0,0,2232,333.33,0.00,19,490,0.0000,0.0000,0.0000,0.0000,0.0000
2026-04-20T18:47:17.417,1.518,1,-0.03,-0.02,-5.29,-1.98,0,0.0000,0.0000,0.3500,0.0000,0.0000,0.0000,0.00,0.00,63.03,59.63,91,0,0.00000,0.00000,0.00000,0.00000,0,0,0,0.00000,0.00000,1.00000,0.0000,0.0000,0.0000,0.0000,0.0000,0.0000,0.00,0.00,0.00,1,1,1,91,199,60,60,60,0,0,60.00,2232,2869,60,0,0,0,2232,333.33,0.00,19,490,0.0000,0.0000,0.0000,0.0000,0.0000
2026-04-20T18:47:17.434,1.535,1,-0.03,-0.04,-5.34,-1.95,0,0.0000,0.0000,0.3500,0.0000,0.0000,0.0000,0.00,0.00,59.14,56.64,92,0,0.00000,0.00000,0.00000,0.00000,0,0,0,0.00000,0.00000,1.00000,0.0000,0.0000,0.0000,0.0000,0.0000,0.0000,0.00,0.00,0.00,1,1,1,92,199,60,60,60,0,0,60.00,2232,2869,91,0,0,0,2263,249.81,0.00,2,1607,0.0000,0.0000,0.0000,0.0000,0.0000
2026-04-20T18:47:17.449,1.551,1,-0.03,-0.04,-5.34,-1.95,0,0.0000,0.0000,0.3500,0.0000,0.0000,0.0000,0.00,0.00,54.32,64.92,93,0,0.00000,0.00000,0.00000,0.00000,0,0,0,0.00000,0.00000,1.00000,0.0000,0.0000,0.0000,0.0000,0.0000,0.0000,0.00,0.00,0.00,1,1,1,93,199,60,60,60,0,0,60.00,2232,2869,91,0,0,0,2263,249.81,0.00,2,1607,0.0000,0.0000,0.0000,0.0000,0.0000
2026-04-20T18:47:17.467,1.569,1,-0.03,-0.04,-5.34,-1.95,0,0.0000,0.0000,0.3500,0.0000,0.0000,0.0000,0.00,0.00,63.38,58.85,94,0,0.00000,0.00000,0.00000,0.00000,0,0,0,0.00000,0.00000,1.00000,0.0000,0.0000,0.0000,0.0000,0.0000,0.0000,0.00,0.00,0.00,1,1,1,94,199,60,60,60,0,0,60.00,2232,2869,91,0,0,0,2263,249.81,0.00,2,1607,0.0000,0.0000,0.0000,0.0000,0.0000
2026-04-20T18:47:17.483,1.584,1,-0.03,-0.02,-5.39,-1.99,0,0.0000,0.0000,0.3500,0.0000,0.0000,0.0000,0.00,0.00,56.57,60.69,95,0,0.00000,0.00000,0.00000,0.00000,0,0,0,0.00000,0.00000,1.00000,0.0000,0.0000,0.0000,0.0000,0.0000,0.0000,0.00,0.00,0.00,1,1,1,95,199,60,60,60,0,0,60.00,2232,2869,91,0,0,0,2263,249.81,0.00,2,1607,0.0000,0.0000,0.0000,0.0000,0.0000
2026-04-20T18:47:17.500,1.601,1,-0.03,-0.02,-5.39,-1.99,0,0.0000,0.0000,0.3500,0.0000,0.0000,0.0000,0.00,0.00,63.80,59.98,96,0,0.00000,0.00000,0.00000,0.00000,0,0,0,0.00000,0.00000,1.00000,0.0000,0.0000,0.0000,0.0000,0.0000,0.0000,0.00,0.00,0.00,1,1,1,96,199,60,60,60,0,0,60.00,2232,2869,91,0,0,0,2263,249.81,0.00,2,1607,0.0000,0.0000,0.0000,0.0000,0.0000
2026-04-20T18:47:17.516,1.618,1,-0.03,-0.02,-5.39,-1.99,0,0.0000,0.0000,0.3500,0.0000,0.0000,0.0000,0.00,0.00,63.09,59.49,97,0,0.00000,0.00000,0.00000,0.00000,0,0,0,0.00000,0.00000,1.00000,0.0000,0.0000,0.0000,0.0000,0.0000,0.0000,0.00,0.00,0.00,1,1,1,97,199,60,60,60,0,0,60.00,2232,2869,91,0,0,0,2263,249.81,0.00,2,1607,0.0000,0.0000,0.0000,0.0000,0.0000
2026-04-20T18:47:17.533,1.634,1,-0.03,-0.02,-5.37,-2.01,0,0.0000,0.0000,0.3500,0.0000,0.0000,0.0000,0.00,0.00,56.98,60.61,98,0,0.00000,0.00000,0.00000,0.00000,0,0,0,0.00000,0.00000,1.00000,0.0000,0.0000,0.0000,0.0000,0.0000,0.0000,0.00,0.00,0.00,1,1,1,98,199,60,60,60,0,0,60.00,2232,2869,91,0,0,0,2263,249.81,0.00,2,1607,0.0000,0.0000,0.0000,0.0000,0.0000
2026-04-20T18:47:17.549,1.650,1,-0.03,-0.02,-5.37,-2.01,0,0.0000,0.0000,0.3500,0.0000,0.0000,0.0000,0.00,0.00,60.41,60.02,99,0,0.00000,0.00000,0.00000,0.00000,0,0,0,0.00000,0.00000,1.00000,0.0000,0.0000,0.0000,0.0000,0.0000,0.0000,0.00,0.00,0.00,1,1,1,99,199,60,60,60,0,0,60.00,2232,2869,91,0,0,0,2263,249.81,0.00,2,1607,0.0000,0.0000,0.0000,0.0000,0.0000
2026-04-20T18:47:17.568,1.669,1,-0.03,-0.02,-5.37,-2.01,0,0.0000,0.0000,0.3500,0.0000,0.0000,0.0000,0.00,0.00,61.51,55.86,100,0,0.00000,0.00000,0.00000,0.00000,0,0,0,0.00000,0.00000,1.00000,0.0000,0.0000,0.0000,0.0000,0.0000,0.0000,0.00,0.00,0.00,1,1,1,100,199,60,60,60,0,0,60.00,2232,2869,91,0,0,0,2263,249.81,0.00,2,1607,0.0000,0.0000,0.0000,0.0000,0.0000
2026-04-20T18:47:17.583,1.685,1,-0.03,-0.02,-5.40,-2.01,0,0.0000,0.0000,0.3500,0.0000,0.0000,0.0000,0.00,0.00,54.11,62.65,101,0,0.00000,0.00000,0.00000,0.00000,0,0,0,0.00000,0.00000,1.00000,0.0000,0.0000,0.0000,0.0000,0.0000,0.0000,0.00,0.00,0.00,1,1,1,101,199,60,60,60,0,0,60.00,2232,2869,91,0,0,0,2263,249.81,0.00,2,1607,0.0000,0.0000,0.0000,0.0000,0.0000
2026-04-20T18:47:17.600,1.701,1,-0.03,-0.02,-5.40,-2.01,0,0.0000,0.0000,0.3500,0.0000,0.0000,0.0000,0.00,0.00,64.24,61.25,102,0,0.00000,0.00000,0.00000,0.00000,0,0,0,0.00000,0.00000,1.00000,0.0000,0.0000,0.0000,0.0000,0.0000,0.0000,0.00,0.00,0.00,1,1,1,102,199,60,60,60,0,0,60.00,2232,2869,91,0,0,0,2263,249.81,0.00,2,1607,0.0000,0.0000,0.0000,0.0000,0.0000
2026-04-20T18:47:17.616,1.717,1,-0.03,-0.02,-5.40,-2.01,0,0.0000,0.0000,0.3500,0.0000,0.0000,0.0000,0.00,0.00,61.02,60.82,103,0,0.00000,0.00000,0.00000,0.00000,0,0,0,0.00000,0.00000,1.00000,0.0000,0.0000,0.0000,0.0000,0.0000,0.0000,0.00,0.00,0.00,1,1,1,103,199,60,60,60,0,0,60.00,2232,2869,91,0,0,0,2263,249.81,0.00,2,1607,0.0000,0.0000,0.0000,0.0000,0.0000
2026-04-20T18:47:17.634,1.735,1,-0.02,-0.02,-5.37,-1.99,0,0.0000,0.0000,0.3500,0.0000,0.0000,0.0000,0.00,0.00,60.41,57.63,104,0,0.00000,0.00000,0.00000,0.00000,0,0,0,0.00000,0.00000,1.00000,0.0000,0.0000,0.0000,0.0000,0.0000,0.0000,0.00,0.00,0.00,1,1,1,104,199,60,60,60,0,0,60.00,2232,2869,91,0,0,0,2263,249.81,0.00,2,1607,0.0000,0.0000,0.0000,0.0000,0.0000
2026-04-20T18:47:17.649,1.751,1,-0.02,-0.02,-5.37,-1.99,0,0.0000,0.0000,0.3500,0.0000,0.0000,0.0000,0.00,0.00,56.95,62.62,105,0,0.00000,0.00000,0.00000,0.00000,0,0,0,0.00000,0.00000,1.00000,0.0000,0.0000,0.0000,0.0000,0.0000,0.0000,0.00,0.00,0.00,1,1,1,105,199,60,60,60,0,0,60.00,2232,2869,91,0,0,0,2263,249.81,0.00,2,1607,0.0000,0.0000,0.0000,0.0000,0.0000
2026-04-20T18:47:17.666,1.767,1,-0.02,-0.02,-5.37,-1.99,0,0.0000,0.0000,0.3500,0.0000,0.0000,0.0000,0.00,0.00,62.39,60.25,106,0,0.00000,0.00000,0.00000,0.00000,0,0,0,0.00000,0.00000,1.00000,0.0000,0.0000,0.0000,0.0000,0.0000,0.0000,0.00,0.00,0.00,1,1,1,106,199,60,60,60,0,0,60.00,2232,2869,91,0,0,0,2263,249.81,0.00,2,1607,0.0000,0.0000,0.0000,0.0000,0.0000
2026-04-20T18:47:17.686,1.788,1,-0.02,-0.02,-5.39,-2.01,0,0.0000,0.0000,0.3500,0.0000,0.0000,0.0000,0.00,0.00,60.79,55.58,107,0,0.00000,0.00000,0.00000,0.00000,0,0,0,0.00000,0.00000,1.00000,0.0000,0.0000,0.0000,0.0000,0.0000,0.0000,0.00,0.00,0.00,1,1,1,107,199,60,60,60,0,0,60.00,2232,2869,91,0,0,0,2263,249.81,0.00,2,1607,0.0000,0.0000,0.0000,0.0000,0.0000
2026-04-20T18:47:17.699,1.800,1,-0.02,-0.02,-5.39,-2.01,0,0.0000,0.0000,0.3500,0.0000,0.0000,0.0000,0.00,0.00,49.78,64.32,108,0,0.00000,0.00000,0.00000,0.00000,0,0,0,0.00000,0.00000,1.00000,0.0000,0.0000,0.0000,0.0000,0.0000,0.0000,0.00,0.00,0.00,1,1,1,108,199,60,60,60,0,0,60.00,2232,2869,91,0,0,0,2263,249.81,0.00,2,1607,0.0000,0.0000,0.0000,0.0000,0.0000
2026-04-20T18:47:17.716,1.818,1,-0.02,-0.02,-5.39,-2.01,0,0.0000,0.0000,0.3500,0.0000,0.0000,0.0000,0.00,0.00,79.22,59.34,109,0,0.00000,0.00000,0.00000,0.00000,0,0,0,0.00000,0.00000,1.00000,0.0000,0.0000,0.0000,0.0000,0.0000,0.0000,0.00,0.00,0.00,1,1,1,109,199,60,60,60,0,0,60.00,2232,2869,91,0,0,0,2263,249.81,0.00,2,1607,0.0000,0.0000,0.0000,0.0000,0.0000
2026-04-20T18:47:17.733,1.834,1,-0.01,-0.03,-5.31,-1.95,0,0.0000,0.0000,0.3500,0.0000,0.0000,0.0000,0.00,0.00,57.57,61.21,110,0,0.00000,0.00000,0.00000,0.00000,0,0,0,0.00000,0.00000,1.00000,0.0000,0.0000,0.0000,0.0000,0.0000,0.0000,0.00,0.00,0.00,1,1,1,110,199,60,60,60,0,0,60.00,2232,2869,91,0,0,0,2263,249.81,0.00,2,1607,0.0000,0.0000,0.0000,0.0000,0.0000
2026-04-20T18:47:17.749,1.850,1,-0.01,-0.03,-5.31,-1.95,0,0.0000,0.0000,0.3500,0.0000,0.0000,0.0000,0.00,0.00,60.29,59.22,111,0,0.00000,0.00000,0.00000,0.00000,0,0,0,0.00000,0.00000,1.00000,0.0000,0.0000,0.0000,0.0000,0.0000,0.0000,0.00,0.00,0.00,1,1,1,111,199,60,60,60,0,0,60.00,2232,2869,91,0,0,0,2263,249.81,0.00,2,1607,0.0000,0.0000,0.0000,0.0000,0.0000
2026-04-20T18:47:17.766,1.868,1,-0.01,-0.03,-5.31,-1.95,0,0.0000,0.0000,0.3500,0.0000,0.0000,0.0000,0.00,0.00,62.25,59.55,112,0,0.00000,0.00000,0.00000,0.00000,0,0,0,0.00000,0.00000,1.00000,0.0000,0.0000,0.0000,0.0000,0.0000,0.0000,0.00,0.00,0.00,1,1,1,112,199,60,60,60,0,0,60.00,2232,2869,91,0,0,0,2263,249.81,0.00,2,1607,0.0000,0.0000,0.0000,0.0000,0.0000
2026-04-20T18:47:17.783,1.884,1,-0.01,-0.03,-5.37,-1.95,0,0.0000,0.0000,0.3500,0.0000,0.0000,0.0000,0.00,0.00,61.10,61.36,113,0,0.00000,0.00000,0.00000,0.00000,0,0,0,0.00000,0.00000,1.00000,0.0000,0.0000,0.0000,0.0000,0.0000,0.0000,0.00,0.00,0.00,1,1,1,113,199,60,60,60,0,0,60.00,2232,2869,91,0,0,0,2263,249.81,0.00,2,1607,0.0000,0.0000,0.0000,0.0000,0.0000
2026-04-20T18:47:17.800,1.901,1,-0.01,-0.03,-5.37,-1.95,0,0.0000,0.0000,0.3500,0.0000,0.0000,0.0000,0.00,0.00,57.03,59.10,114,0,0.00000,0.00000,0.00000,0.00000,0,0,0,0.00000,0.00000,1.00000,0.0000,0.0000,0.0000,0.0000,0.0000,0.0000,0.00,0.00,0.00,1,1,1,114,199,60,60,60,0,0,60.00,2232,2869,91,0,0,0,2263,249.81,0.00,2,1607,0.0000,0.0000,0.0000,0.0000,0.0000
2026-04-20T18:47:17.816,1.918,1,-0.01,-0.03,-5.37,-1.95,0,0.0000,0.0000,0.3500,0.0000,0.0000,0.0000,0.00,0.00,58.66,59.85,115,0,0.00000,0.00000,0.00000,0.00000,0,0,0,0.00000,0.00000,1.00000,0.0000,0.0000,0.0000,0.0000,0.0000,0.0000,0.00,0.00,0.00,1,1,1,115,199,60,60,60,0,0,60.00,2232,2869,91,0,0,0,2263,249.81,0.00,2,1607,0.0000,0.0000,0.0000,0.0000,0.0000
2026-04-20T18:47:17.832,1.933,1,-0.02,-0.02,-5.34,-2.02,0,0.0000,0.0000,0.3500,0.0000,0.0000,0.0000,0.00,0.00,60.80,60.06,116,0,0.00000,0.00000,0.00000,0.00000,0,0,0,0.00000,0.00000,1.00000,0.0000,0.0000,0.0000,0.0000,0.0000,0.0000,0.00,0.00,0.00,1,1,1,116,199,60,60,60,0,0,60.00,2232,2869,91,0,0,0,2263,249.81,0.00,2,1607,0.0000,0.0000,0.0000,0.0000,0.0000
2026-04-20T18:47:17.850,1.951,1,-0.02,-0.02,-5.34,-2.02,0,0.0000,0.0000,0.3500,0.0000,0.0000,0.0000,0.00,0.00,63.27,61.08,117,0,0.00000,0.00000,0.00000,0.00000,0,0,0,0.00000,0.00000,1.00000,0.0000,0.0000,0.0000,0.0000,0.0000,0.0000,0.00,0.00,0.00,1,1,1,117,199,60,60,60,0,0,60.00,2232,2869,91,0,0,0,2263,249.81,0.00,2,1607,0.0000,0.0000,0.0000,0.0000,0.0000
2026-04-20T18:47:17.866,1.968,1,-0.02,-0.02,-5.34,-2.02,0,0.0000,0.0000,0.3500,0.0000,0.0000,0.0000,0.00,0.00,56.84,59.22,118,0,0.00000,0.00000,0.00000,0.00000,0,0,0,0.00000,0.00000,1.00000,0.0000,0.0000,0.0000,0.0000,0.0000,0.0000,0.00,0.00,0.00,1,1,1,118,199,60,60,60,0,0,60.00,2232,2869,91,0,0,0,2263,249.81,0.00,2,1607,0.0000,0.0000,0.0000,0.0000,0.0000
2026-04-20T18:47:17.884,1.985,1,-0.01,-0.02,-5.34,-1.99,0,0.0000,0.0000,0.3500,0.0000,0.0000,0.0000,0.00,0.00,64.55,60.85,119,0,0.00000,0.00000,0.00000,0.00000,0,0,0,0.00000,0.00000,1.00000,0.0000,0.0000,0.0000,0.0000,0.0000,0.0000,0.00,0.00,0.00,1,1,1,119,199,60,60,60,0,0,60.00,2232,2869,91,0,0,0,2263,249.81,0.00,2,1607,0.0000,0.0000,0.0000,0.0000,0.0000
2026-04-20T18:47:17.902,2.004,1,-0.01,-0.02,-5.34,-1.99,0,0.0000,0.0000,0.3500,0.0000,0.0000,0.0000,0.00,0.00,58.33,57.13,120,0,0.00000,0.00000,0.00000,0.00000,0,0,0,0.00000,0.00000,1.00000,0.0000,0.0000,0.0000,0.0000,0.0000,0.0000,0.00,0.00,0.00,1,1,1,120,199,60,60,60,0,0,60.00,2232,2869,91,0,0,0,2263,249.81,0.00,2,1607,0.0000,0.0000,0.0000,0.0000,0.0000
2026-04-20T18:47:17.916,2.018,1,-0.01,-0.02,-5.34,-1.99,0,0.0000,0.0000,0.3500,0.0000,0.0000,0.0000,0.00,0.00,53.39,61.39,121,0,0.00000,0.00000,0.00000,0.00000,0,0,0,0.00000,0.00000,1.00000,0.0000,0.0000,0.0000,0.0000,0.0000,0.0000,0.00,0.00,0.00,1,1,1,121,199,60,60,60,0,0,60.00,2232,2869,91,0,0,0,2263,249.81,0.00,2,1607,0.0000,0.0000,0.0000,0.0000,0.0000
2026-04-20T18:47:17.933,2.035,1,-0.01,-0.03,-5.34,-1.89,0,0.0000,0.0000,0.3500,0.0000,0.0000,0.0000,0.00,0.00,71.58,60.75,122,0,0.00000,0.00000,0.00000,0.00000,0,0,0,0.00000,0.00000,1.00000,0.0000,0.0000,0.0000,0.0000,0.0000,0.0000,0.00,0.00,0.00,1,1,1,122,199,60,60,60,0,0,60.00,2232,2869,121,0,0,0,2293,259.00,0.00,6,435,0.0000,0.0000,0.0000,0.0000,0.0000
2026-04-20T18:47:17.950,2.051,1,-0.01,-0.03,-5.34,-1.89,0,0.0000,0.0000,0.3500,0.0000,0.0000,0.0000,0.00,0.00,55.36,59.97,123,0,0.00000,0.00000,0.00000,0.00000,0,0,0,0.00000,0.00000,1.00000,0.0000,0.0000,0.0000,0.0000,0.0000,0.0000,0.00,0.00,0.00,1,1,1,123,199,60,60,60,0,0,60.00,2232,2869,121,0,0,0,2293,259.00,0.00,6,435,0.0000,0.0000,0.0000,0.0000,0.0000
2026-04-20T18:47:17.966,2.068,1,-0.01,-0.03,-5.34,-1.89,0,0.0000,0.0000,0.3500,0.0000,0.0000,0.0000,0.00,0.00,64.85,60.03,124,0,0.00000,0.00000,0.00000,0.00000,0,0,0,0.00000,0.00000,1.00000,0.0000,0.0000,0.0000,0.0000,0.0000,0.0000,0.00,0.00,0.00,1,1,1,124,199,60,60,60,0,0,60.00,2232,2869,121,0,0,0,2293,259.00,0.00,6,435,0.0000,0.0000,0.0000,0.0000,0.0000
2026-04-20T18:47:17.985,2.086,1,0.00,-0.03,-5.34,-1.98,0,0.0000,0.0000,0.3500,0.0000,0.0000,0.0000,0.00,0.00,56.64,59.65,125,0,0.00000,0.00000,0.00000,0.00000,0,0,0,0.00000,0.00000,1.00000,0.0000,0.0000,0.0000,0.0000,0.0000,0.0000,0.00,0.00,0.00,1,1,1,125,199,60,60,60,0,0,60.00,2232,2869,121,0,0,0,2293,259.00,0.00,6,435,0.0000,0.0000,0.0000,0.0000,0.0000
2026-04-20T18:47:18.001,2.102,1,0.00,-0.03,-5.34,-1.98,0,0.0000,0.0000,0.3500,0.0000,0.0000,0.0000,0.00,0.00,55.07,60.00,126,0,0.00000,0.00000,0.00000,0.00000,0,0,0,0.00000,0.00000,1.00000,0.0000,0.0000,0.0000,0.0000,0.0000,0.0000,0.00,0.00,0.00,1,1,1,126,199,60,60,60,0,0,60.00,2232,2869,121,0,0,0,2293,259.00,0.00,6,435,0.0000,0.0000,0.0000,0.0000,0.0000
2026-04-20T18:47:18.016,2.117,1,0.00,-0.03,-5.34,-1.98,0,0.0000,0.0000,0.3500,0.0000,0.0000,0.0000,0.00,0.00,61.33,62.29,127,0,0.00000,0.00000,0.00000,0.00000,0,0,0,0.00000,0.00000,1.00000,0.0000,0.0000,0.0000,0.0000,0.0000,0.0000,0.00,0.00,0.00,1,1,1,127,199,60,60,60,0,0,60.00,2232,2869,121,0,0,0,2293,259.00,0.00,6,435,0.0000,0.0000,0.0000,0.0000,0.0000
2026-04-20T18:47:18.033,2.134,1,0.00,-0.03,-5.34,-1.98,0,0.0000,0.0000,0.3500,0.0000,0.0000,0.0000,0.00,0.00,66.70,58.15,128,0,0.00000,0.00000,0.00000,0.00000,0,0,0,0.00000,0.00000,1.00000,0.0000,0.0000,0.0000,0.0000,0.0000,0.0000,0.00,0.00,0.00,1,1,1,128,199,60,60,60,0,0,60.00,2232,2869,121,0,0,0,2293,259.00,0.00,6,435,0.0000,0.0000,0.0000,0.0000,0.0000
2026-04-20T18:47:18.049,2.150,1,0.00,-0.03,-5.34,-1.98,0,0.0000,0.0000,0.3500,0.0000,0.0000,0.0000,0.00,0.00,61.70,60.03,129,0,0.00000,0.00000,0.00000,0.00000,0,0,0,0.00000,0.00000,1.00000,0.0000,0.0000,0.0000,0.0000,0.0000,0.0000,0.00,0.00,0.00,1,1,1,129,199,60,60,60,0,0,60.00,2232,2869,121,0,0,0,2293,259.00,0.00,6,435,0.0000,0.0000,0.0000,0.0000,0.0000
2026-04-20T18:47:18.067,2.168,1,0.00,-0.03,-5.34,-1.98,0,0.0000,0.0000,0.3500,0.0000,0.0000,0.0000,0.00,0.00,58.74,56.56,130,0,0.00000,0.00000,0.00000,0.00000,0,0,0,0.00000,0.00000,1.00000,0.0000,0.0000,0.0000,0.0000,0.0000,0.0000,0.00,0.00,0.00,1,1,1,130,199,60,60,60,0,0,60.00,2232,2869,121,0,0,0,2293,259.00,0.00,6,435,0.0000,0.0000,0.0000,0.0000,0.0000
2026-04-20T18:47:18.083,2.184,1,0.00,-0.03,-5.34,-1.98,0,0.0000,0.0000,0.3500,0.0000,0.0000,0.0000,0.00,0.00,56.98,63.85,131,0,0.00000,0.00000,0.00000,0.00000,0,0,0,0.00000,0.00000,1.00000,0.0000,0.0000,0.0000,0.0000,0.0000,0.0000,0.00,0.00,0.00,1,1,1,131,199,60,60,60,0,0,60.00,2232,2869,121,0,0,0,2293,259.00,0.00,6,435,0.0000,0.0000,0.0000,0.0000,0.0000
2026-04-20T18:47:18.102,2.203,1,0.00,-0.06,-5.34,-1.99,0,0.0000,0.0000,0.3500,0.0000,0.0000,0.0000,0.00,0.00,60.81,56.12,132,0,0.00000,0.00000,0.00000,0.00000,0,0,0,0.00000,0.00000,1.00000,0.0000,0.0000,0.0000,0.0000,0.0000,0.0000,0.00,0.00,0.00,1,1,1,132,199,60,60,60,0,0,60.00,2232,2869,121,0,0,0,2293,259.00,0.00,6,435,0.0000,0.0000,0.0000,0.0000,0.0000
2026-04-20T18:47:18.115,2.217,1,0.00,-0.06,-5.34,-1.99,0,0.0000,0.0000,0.3500,0.0000,0.0000,0.0000,0.00,0.00,52.23,66.26,133,0,0.00000,0.00000,0.00000,0.00000,0,0,0,0.00000,0.00000,1.00000,0.0000,0.0000,0.0000,0.0000,0.0000,0.0000,0.00,0.00,0.00,1,1,1,133,199,60,60,60,0,0,60.00,2232,2869,121,0,0,0,2293,259.00,0.00,6,435,0.0000,0.0000,0.0000,0.0000,0.0000
2026-04-20T18:47:18.132,2.233,1,0.00,-0.06,-5.34,-1.99,0,0.0000,0.0000,0.3500,0.0000,0.0000,0.0000,0.00,0.00,75.47,59.86,134,0,0.00000,0.00000,0.00000,0.00000,0,0,0,0.00000,0.00000,1.00000,0.0000,0.0000,0.0000,0.0000,0.0000,0.0000,0.00,0.00,0.00,1,1,1,134,199,60,60,60,0,0,60.00,2232,2869,121,0,0,0,2293,259.00,0.00,6,435,0.0000,0.0000,0.0000,0.0000,0.0000
2026-04-20T18:47:18.150,2.251,1,0.00,-0.06,-5.34,-1.99,0,0.0000,0.0000,0.3500,0.0000,0.0000,0.0000,0.00,0.00,60.44,58.68,135,0,0.00000,0.00000,0.00000,0.00000,0,0,0,0.00000,0.00000,1.00000,0.0000,0.0000,0.0000,0.0000,0.0000,0.0000,0.00,0.00,0.00,1,1,1,135,199,60,60,60,0,0,60.00,2232,2869,121,0,0,0,2293,259.00,0.00,6,435,0.0000,0.0000,0.0000,0.0000,0.0000
2026-04-20T18:47:18.166,2.268,1,0.00,-0.06,-5.34,-1.99,0,0.0000,0.0000,0.3500,0.0000,0.0000,0.0000,0.00,0.00,59.91,60.02,136,0,0.00000,0.00000,0.00000,0.00000,0,0,0,0.00000,0.00000,1.00000,0.0000,0.0000,0.0000,0.0000,0.0000,0.0000,0.00,0.00,0.00,1,1,1,136,199,60,60,60,0,0,60.00,2232,2869,121,0,0,0,2293,259.00,0.00,6,435,0.0000,0.0000,0.0000,0.0000,0.0000
2026-04-20T18:47:18.183,2.284,1,0.00,-0.06,-5.34,-1.99,0,0.0000,0.0000,0.3500,0.0000,0.0000,0.0000,0.00,0.00,56.64,60.01,137,0,0.00000,0.00000,0.00000,0.00000,0,0,0,0.00000,0.00000,1.00000,0.0000,0.0000,0.0000,0.0000,0.0000,0.0000,0.00,0.00,0.00,1,1,1,137,199,60,60,60,0,0,60.00,2232,2869,121,0,0,0,2293,259.00,0.00,6,435,0.0000,0.0000,0.0000,0.0000,0.0000
2026-04-20T18:47:18.201,2.302,1,-0.00,-0.03,-5.40,-1.96,0,0.0000,0.0000,0.3500,0.0000,0.0000,0.0000,0.00,0.00,59.98,59.43,138,0,0.00000,0.00000,0.00000,0.00000,0,0,0,0.00000,0.00000,1.00000,0.0000,0.0000,0.0000,0.0000,0.0000,0.0000,0.00,0.00,0.00,1,1,1,138,199,60,60,60,0,0,60.00,2232,2869,121,0,0,0,2293,259.00,0.00,6,435,0.0000,0.0000,0.0000,0.0000,0.0000
2026-04-20T18:47:18.215,2.317,1,-0.00,-0.03,-5.40,-1.96,0,0.0000,0.0000,0.3500,0.0000,0.0000,0.0000,0.00,0.00,56.13,62.70,139,0,0.00000,0.00000,0.00000,0.00000,0,0,0,0.00000,0.00000,1.00000,0.0000,0.0000,0.0000,0.0000,0.0000,0.0000,0.00,0.00,0.00,1,1,1,139,199,60,60,60,0,0,60.00,2232,2869,121,0,0,0,2293,259.00,0.00,6,435,0.0000,0.0000,0.0000,0.0000,0.0000
2026-04-20T18:47:18.233,2.335,1,-0.00,-0.03,-5.40,-1.96,0,0.0000,0.0000,0.3500,0.0000,0.0000,0.0000,0.00,0.00,66.73,57.78,140,0,0.00000,0.00000,0.00000,0.00000,0,0,0,0.00000,0.00000,1.00000,0.0000,0.0000,0.0000,0.0000,0.0000,0.0000,0.00,0.00,0.00,1,1,1,140,199,60,60,60,0,0,60.00,2232,2869,121,0,0,0,2293,259.00,0.00,6,435,0.0000,0.0000,0.0000,0.0000,0.0000
2026-04-20T18:47:18.250,2.351,1,0.01,-0.02,-5.39,-1.98,0,0.0000,0.0000,0.3500,0.0000,0.0000,0.0000,0.00,0.00,60.98,60.28,141,0,0.00000,0.00000,0.00000,0.00000,0,0,0,0.00000,0.00000,1.00000,0.0000,0.0000,0.0000,0.0000,0.0000,0.0000,0.00,0.00,0.00,1,1,1,141,199,60,60,60,0,0,60.00,2232,2869,121,0,0,0,2293,259.00,0.00,6,435,0.0000,0.0000,0.0000,0.0000,0.0000
2026-04-20T18:47:18.266,2.368,1,0.01,-0.02,-5.39,-1.98,0,0.0000,0.0000,0.3500,0.0000,0.0000,0.0000,0.00,0.00,60.57,60.10,142,0,0.00000,0.00000,0.00000,0.00000,0,0,0,0.00000,0.00000,1.00000,0.0000,0.0000,0.0000,0.0000,0.0000,0.0000,0.00,0.00,0.00,1,1,1,142,199,60,60,60,0,0,60.00,2232,2869,121,0,0,0,2293,259.00,0.00,6,435,0.0000,0.0000,0.0000,0.0000,0.0000
2026-04-20T18:47:18.283,2.384,1,0.01,-0.02,-5.39,-1.98,0,0.0000,0.0000,0.3500,0.0000,0.0000,0.0000,0.00,0.00,56.70,59.79,143,0,0.00000,0.00000,0.00000,0.00000,0,0,0,0.00000,0.00000,1.00000,0.0000,0.0000,0.0000,0.0000,0.0000,0.0000,0.00,0.00,0.00,1,1,1,143,199,60,60,60,0,0,60.00,2232,2869,121,0,0,0,2293,259.00,0.00,6,435,0.0000,0.0000,0.0000,0.0000,0.0000
2026-04-20T18:47:18.300,2.401,1,0.01,-0.02,-5.39,-1.98,0,0.0000,0.0000,0.3500,0.0000,0.0000,0.0000,0.00,0.00,59.91,60.19,144,0,0.00000,0.00000,0.00000,0.00000,0,0,0,0.00000,0.00000,1.00000,0.0000,0.0000,0.0000,0.0000,0.0000,0.0000,0.00,0.00,0.00,1,1,1,144,199,60,60,60,0,0,60.00,2232,2869,121,0,0,0,2293,259.00,0.00,6,435,0.0000,0.0000,0.0000,0.0000,0.0000
2026-04-20T18:47:18.317,2.419,1,0.01,-0.02,-5.39,-1.98,0,0.0000,0.0000,0.3500,0.0000,0.0000,0.0000,0.00,0.00,59.89,59.52,145,0,0.00000,0.00000,0.00000,0.00000,0,0,0,0.00000,0.00000,1.00000,0.0000,0.0000,0.0000,0.0000,0.0000,0.0000,0.00,0.00,0.00,1,1,1,145,199,60,60,60,0,0,60.00,2232,2869,121,0,0,0,2293,259.00,0.00,6,435,0.0000,0.0000,0.0000,0.0000,0.0000
2026-04-20T18:47:18.332,2.433,1,0.01,-0.02,-5.39,-1.98,0,0.0000,0.0000,0.3500,0.0000,0.0000,0.0000,0.00,0.00,53.45,61.46,146,0,0.00000,0.00000,0.00000,0.00000,0,0,0,0.00000,0.00000,1.00000,0.0000,0.0000,0.0000,0.0000,0.0000,0.0000,0.00,0.00,0.00,1,1,1,146,199,60,60,60,0,0,60.00,2232,2869,121,0,0,0,2293,259.00,0.00,6,435,0.0000,0.0000,0.0000,0.0000,0.0000
2026-04-20T18:47:18.350,2.451,1,0.01,-0.02,-5.39,-1.98,0,0.0000,0.0000,0.3500,0.0000,0.0000,0.0000,0.00,0.00,70.26,58.91,147,0,0.00000,0.00000,0.00000,0.00000,0,0,0,0.00000,0.00000,1.00000,0.0000,0.0000,0.0000,0.0000,0.0000,0.0000,0.00,0.00,0.00,1,1,1,147,199,60,60,60,0,0,60.00,2232,2869,121,0,0,0,2293,259.00,0.00,6,435,0.0000,0.0000,0.0000,0.0000,0.0000
2026-04-20T18:47:18.365,2.467,1,0.01,-0.02,-5.39,-1.98,0,0.0000,0.0000,0.3500,0.0000,0.0000,0.0000,0.00,0.00,62.50,60.08,148,0,0.00000,0.00000,0.00000,0.00000,0,0,0,0.00000,0.00000,1.00000,0.0000,0.0000,0.0000,0.0000,0.0000,0.0000,0.00,0.00,0.00,1,1,1,148,199,60,60,60,0,0,60.00,2232,2869,121,0,0,0,2293,259.00,0.00,6,435,0.0000,0.0000,0.0000,0.0000,0.0000
2026-04-20T18:47:18.383,2.484,1,0.01,-0.02,-5.39,-1.98,0,0.0000,0.0000,0.3500,0.0000,0.0000,0.0000,0.00,0.00,58.60,60.08,149,0,0.00000,0.00000,0.00000,0.00000,0,0,0,0.00000,0.00000,1.00000,0.0000,0.0000,0.0000,0.0000,0.0000,0.0000,0.00,0.00,0.00,1,1,1,149,199,60,60,60,0,0,60.00,2232,2869,121,0,0,0,2293,259.00,0.00,6,435,0.0000,0.0000,0.0000,0.0000,0.0000
2026-04-20T18:47:18.400,2.502,1,0.01,-0.02,-5.39,-1.98,0,0.0000,0.0000,0.3500,0.0000,0.0000,0.0000,0.00,0.00,58.01,60.41,150,0,0.00000,0.00000,0.00000,0.00000,0,0,0,0.00000,0.00000,1.00000,0.0000,0.0000,0.0000,0.0000,0.0000,0.0000,0.00,0.00,0.00,1,1,1,150,199,60,60,60,0,0,60.00,2232,2869,121,0,0,0,2293,259.00,0.00,6,435,0.0000,0.0000,0.0000,0.0000,0.0000
2026-04-20T18:47:18.415,2.517,1,0.01,-0.02,-5.39,-1.98,0,0.0000,0.0000,0.3500,0.0000,0.0000,0.0000,0.00,0.00,57.83,63.52,151,0,0.00000,0.00000,0.00000,0.00000,0,0,0,0.00000,0.00000,1.00000,0.0000,0.0000,0.0000,0.0000,0.0000,0.0000,0.00,0.00,0.00,1,1,1,151,199,60,60,60,0,0,60.00,2232,2869,121,0,0,0,2293,259.00,0.00,6,435,0.0000,0.0000,0.0000,0.0000,0.0000
2026-04-20T18:47:18.432,2.533,1,0.01,-0.02,-5.39,-1.98,0,0.0000,0.0000,0.3500,0.0000,0.0000,0.0000,0.00,0.00,65.15,58.02,152,0,0.00000,0.00000,0.00000,0.00000,0,0,0,0.00000,0.00000,1.00000,0.0000,0.0000,0.0000,0.0000,0.0000,0.0000,0.00,0.00,0.00,1,1,1,152,199,60,60,60,0,0,60.00,2232,2869,151,0,0,0,2323,250.00,0.00,6,3579,0.0000,0.0000,0.0000,0.0000,0.0000
2026-04-20T18:47:18.449,2.550,1,-0.02,-0.00,-5.37,-2.02,0,0.0000,0.0000,0.3500,0.0000,0.0000,0.0000,0.00,0.00,60.88,59.98,153,0,0.00000,0.00000,0.00000,0.00000,0,0,0,0.00000,0.00000,1.00000,0.0000,0.0000,0.0000,0.0000,0.0000,0.0000,0.00,0.00,0.00,1,1,1,153,199,60,60,60,0,0,60.00,2232,2869,151,0,0,0,2323,250.00,0.00,6,3579,0.0000,0.0000,0.0000,0.0000,0.0000
2026-04-20T18:47:18.465,2.567,1,-0.02,-0.00,-5.37,-2.02,0,0.0000,0.0000,0.3500,0.0000,0.0000,0.0000,0.00,0.00,59.01,60.04,154,0,0.00000,0.00000,0.00000,0.00000,0,0,0,0.00000,0.00000,1.00000,0.0000,0.0000,0.0000,0.0000,0.0000,0.0000,0.00,0.00,0.00,1,1,1,154,199,60,60,60,0,0,60.00,2232,2869,151,0,0,0,2323,250.00,0.00,6,3579,0.0000,0.0000,0.0000,0.0000,0.0000
2026-04-20T18:47:18.481,2.583,1,-0.02,-0.00,-5.37,-2.02,0,0.0000,0.0000,0.3500,0.0000,0.0000,0.0000,0.00,0.00,60.13,60.07,155,0,0.00000,0.00000,0.00000,0.00000,0,0,0,0.00000,0.00000,1.00000,0.0000,0.0000,0.0000,0.0000,0.0000,0.0000,0.00,0.00,0.00,1,1,1,155,199,60,60,60,0,0,60.00,2232,2869,151,0,0,0,2323,250.00,0.00,6,3579,0.0000,0.0000,0.0000,0.0000,0.0000
2026-04-20T18:47:18.500,2.601,1,-0.02,-0.00,-5.37,-2.02,0,0.0000,0.0000,0.3500,0.0000,0.0000,0.0000,0.00,0.00,61.37,58.24,156,0,0.00000,0.00000,0.00000,0.00000,0,0,0,0.00000,0.00000,1.00000,0.0000,0.0000,0.0000,0.0000,0.0000,0.0000,0.00,0.00,0.00,1,1,1,156,199,60,60,60,0,0,60.00,2232,2869,151,0,0,0,2323,250.00,0.00,6,3579,0.0000,0.0000,0.0000,0.0000,0.0000
2026-04-20T18:47:18.515,2.617,1,-0.02,-0.00,-5.37,-2.02,0,0.0000,0.0000,0.3500,0.0000,0.0000,0.0000,0.00,0.00,56.11,61.83,157,0,0.00000,0.00000,0.00000,0.00000,0,0,0,0.00000,0.00000,1.00000,0.0000,0.0000,0.0000,0.0000,0.0000,0.0000,0.00,0.00,0.00,1,1,1,157,199,60,60,60,0,0,60.00,2232,2869,151,0,0,0,2323,250.00,0.00,6,3579,0.0000,0.0000,0.0000,0.0000,0.0000
2026-04-20T18:47:18.533,2.635,1,-0.02,-0.00,-5.37,-2.02,0,0.0000,0.0000,0.3500,0.0000,0.0000,0.0000,0.00,0.00,62.95,58.64,158,0,0.00000,0.00000,0.00000,0.00000,0,0,0,0.00000,0.00000,1.00000,0.0000,0.0000,0.0000,0.0000,0.0000,0.0000,0.00,0.00,0.00,1,1,1,158,199,60,60,60,0,0,60.00,2232,2869,151,0,0,0,2323,250.00,0.00,6,3579,0.0000,0.0000,0.0000,0.0000,0.0000
2026-04-20T18:47:18.549,2.650,1,-0.02,-0.00,-5.37,-2.02,0,0.0000,0.0000,0.3500,0.0000,0.0000,0.0000,0.00,0.00,56.51,61.52,159,0,0.00000,0.00000,0.00000,0.00000,0,0,0,0.00000,0.00000,1.00000,0.0000,0.0000,0.0000,0.0000,0.0000,0.0000,0.00,0.00,0.00,1,1,1,159,199,60,60,60,0,0,60.00,2232,2869,151,0,0,0,2323,250.00,0.00,6,3579,0.0000,0.0000,0.0000,0.0000,0.0000
2026-04-20T18:47:18.565,2.667,1,-0.02,-0.00,-5.37,-2.02,0,0.0000,0.0000,0.3500,0.0000,0.0000,0.0000,0.00,0.00,63.72,59.70,160,0,0.00000,0.00000,0.00000,0.00000,0,0,0,0.00000,0.00000,1.00000,0.0000,0.0000,0.0000,0.0000,0.0000,0.0000,0.00,0.00,0.00,1,1,1,160,199,60,60,60,0,0,60.00,2232,2869,151,0,0,0,2323,250.00,0.00,6,3579,0.0000,0.0000,0.0000,0.0000,0.0000
2026-04-20T18:47:18.583,2.684,1,-0.02,-0.00,-5.37,-2.02,0,0.0000,0.0000,0.3500,0.0000,0.0000,0.0000,0.00,0.00,60.42,58.35,161,0,0.00000,0.00000,0.00000,0.00000,0,0,0,0.00000,0.00000,1.00000,0.0000,0.0000,0.0000,0.0000,0.0000,0.0000,0.00,0.00,0.00,1,1,1,161,199,60,60,60,0,0,60.00,2232,2869,151,0,0,0,2323,250.00,0.00,6,3579,0.0000,0.0000,0.0000,0.0000,0.0000
2026-04-20T18:47:18.599,2.700,1,-0.02,-0.01,-5.42,-1.98,0,0.0000,0.0000,0.3500,0.0000,0.0000,0.0000,0.00,0.00,60.74,62.74,162,0,0.00000,0.00000,0.00000,0.00000,0,0,0,0.00000,0.00000,1.00000,0.0000,0.0000,0.0000,0.0000,0.0000,0.0000,0.00,0.00,0.00,1,1,1,162,199,60,60,60,0,0,60.00,2232,2869,151,0,0,0,2323,250.00,0.00,6,3579,0.0000,0.0000,0.0000,0.0000,0.0000
2026-04-20T18:47:18.615,2.717,1,-0.02,-0.01,-5.42,-1.98,0,0.0000,0.0000,0.3500,0.0000,0.0000,0.0000,0.00,0.00,59.07,57.75,163,0,0.00000,0.00000,0.00000,0.00000,0,0,0,0.00000,0.00000,1.00000,0.0000,0.0000,0.0000,0.0000,0.0000,0.0000,0.00,0.00,0.00,1,1,1,163,199,60,60,60,0,0,60.00,2232,2869,151,0,0,0,2323,250.00,0.00,6,3579,0.0000,0.0000,0.0000,0.0000,0.0000
2026-04-20T18:47:18.632,2.733,1,-0.02,-0.01,-5.42,-1.98,0,0.0000,0.0000,0.3500,0.0000,0.0000,0.0000,0.00,0.00,60.23,61.84,164,0,0.00000,0.00000,0.00000,0.00000,0,0,0,0.00000,0.00000,1.00000,0.0000,0.0000,0.0000,0.0000,0.0000,0.0000,0.00,0.00,0.00,1,1,1,164,199,60,60,60,0,0,60.00,2232,2869,151,0,0,0,2323,250.00,0.00,6,3579,0.0000,0.0000,0.0000,0.0000,0.0000
2026-04-20T18:47:18.649,2.750,1,-0.02,-0.01,-5.42,-1.98,0,0.0000,0.0000,0.3500,0.0000,0.0000,0.0000,0.00,0.00,60.34,62.99,165,0,0.00000,0.00000,0.00000,0.00000,0,0,0,0.00000,0.00000,1.00000,0.0000,0.0000,0.0000,0.0000,0.0000,0.0000,0.00,0.00,0.00,1,1,1,165,199,60,60,60,0,0,60.00,2232,2869,151,0,0,0,2323,250.00,0.00,6,3579,0.0000,0.0000,0.0000,0.0000,0.0000
2026-04-20T18:47:18.665,2.767,1,-0.01,-0.00,-5.35,-1.96,0,0.0000,0.0000,0.3500,0.0000,0.0000,0.0000,0.00,0.00,58.98,57.36,166,0,0.00000,0.00000,0.00000,0.00000,0,0,0,0.00000,0.00000,1.00000,0.0000,0.0000,0.0000,0.0000,0.0000,0.0000,0.00,0.00,0.00,1,1,1,166,199,60,60,60,0,0,60.00,2232,2869,151,0,0,0,2323,250.00,0.00,6,3579,0.0000,0.0000,0.0000,0.0000,0.0000
2026-04-20T18:47:18.682,2.783,1,-0.01,-0.00,-5.35,-1.96,0,0.0000,0.0000,0.3500,0.0000,0.0000,0.0000,0.00,0.00,61.15,60.02,167,0,0.00000,0.00000,0.00000,0.00000,0,0,0,0.00000,0.00000,1.00000,0.0000,0.0000,0.0000,0.0000,0.0000,0.0000,0.00,0.00,0.00,1,1,1,167,199,60,60,60,0,0,60.00,2232,2869,151,0,0,0,2323,250.00,0.00,6,3579,0.0000,0.0000,0.0000,0.0000,0.0000
