iso_time,elapsed_s,imu_ready,imu_pitch_deg,imu_roll_deg,imu_pitch_rate_deg_s,imu_roll_rate_deg_s,mocap_valid,mocap_x_error_m,mocap_y_error_m,mocap_z_error_m,mocap_vx_m_s,mocap_vy_m_s,mocap_vz_m_s,mocap_yaw_error_deg,mocap_yaw_rate_deg_s,backend_loop_hz,tracking_loop_hz,frames_processed,valid_pose_frames,pose_success_rate,full_marker_detection_rate,cam1_full_detection_rate,cam2_full_detection_rate,cam1_leds,cam2_leds,spatial_data_valid,mapping_error_px,model_fit_error_m,scale_factor,position_x_m,position_y_m,position_z_m,velocity_x_m_s,velocity_y_m_s,velocity_z_m_s,yaw_deg,pitch_deg,roll_deg,serial_connected,serial_send_enabled,serial_send_ok,serial_payload_seq,serial_payload_size_bytes,bridge_serial_frames_rx,bridge_espnow_tx_attempts,bridge_espnow_tx_ok,bridge_espnow_tx_fail,bridge_oversize_drops,bridge_tx_rate_hz,bridge_last_tx_seq,bridge_last_tx_latency_us,controller_rx_packets,controller_rx_missing_packets,controller_rx_duplicate_packets,controller_rx_out_of_order_packets,controller_last_rx_seq,controller_loop_hz,controller_control_hz,controller_command_age_ms,controller_apply_latency_us,controller_motor_imbalance,motor_1_output,motor_2_output,motor_3_output,motor_4_output
2026-04-20T17:41:26.936,0.015,0,0.00,0.00,0.00,0.00,1,0.0074,0.0931,0.2535,0.0000,0.0000,0.0000,4.12,-1.66,49.97,59.83,1,1,1.00000,1.00000,1.00000,1.00000,3,3,1,24.82118,0.00213,1.06437,-0.0074,-0.0931,0.0965,0.0000,0.0000,0.0000,-4.12,-11.92,176.33,1,1,1,1,221,0,0,0,0,0,0.00,0,0,0,0,0,0,0,0.00,0.00,0,0,0.0000,0.0000,0.0000,0.0000,0.0000
2026-04-20T17:41:26.951,0.030,0,0.00,0.00,0.00,0.00,1,0.0075,0.0932,0.2535,0.0000,0.0000,0.0000,4.18,-4.00,70.75,58.77,2,2,1.00000,1.00000,1.00000,1.00000,3,3,1,24.80521,0.00214,1.06234,-0.0075,-0.0932,0.0965,0.0000,0.0000,0.0000,-4.18,-12.12,176.44,1,1,1,2,221,0,0,0,0,0,0.00,0,0,0,0,0,0,0,0.00,0.00,0,0,0.0000,0.0000,0.0000,0.0000,0.0000
2026-04-20T17:41:26.967,0.046,0,0.00,0.00,0.00,0.00,1,0.0073,0.0932,0.2533,0.0000,0.0000,0.0000,4.17,0.61,66.94,59.85,3,3,1.00000,1.00000,1.00000,1.00000,3,3,1,24.87929,0.00206,1.06038,-0.0073,-0.0932,0.0967,0.0000,0.0000,0.0000,-4.17,-11.93,176.45,1,1,1,3,221,0,0,0,0,0,0.00,0,0,0,0,0,0,0,0.00,0.00,0,0,0.0000,0.0000,0.0000,0.0000,0.0000
2026-04-20T17:41:26.985,0.065,0,0.00,0.00,0.00,0.00,1,0.0073,0.0931,0.2534,0.0000,0.0000,0.0000,4.14,1.63,60.94,59.18,4,4,1.00000,1.00000,1.00000,1.00000,3,3,1,24.77658,0.00218,1.06162,-0.0073,-0.0931,0.0966,0.0000,0.0000,0.0000,-4.14,-11.91,176.33,1,1,1,4,221,0,0,0,0,0,0.00,0,0,0,0,0,0,0,0.00,0.00,0,0,0.0000,0.0000,0.0000,0.0000,0.0000
2026-04-20T17:41:27.002,0.081,0,0.00,0.00,0.00,0.00,1,0.0072,0.0932,0.2534,0.0000,0.0000,0.0000,4.15,-0.62,57.59,60.55,5,5,1.00000,1.00000,1.00000,1.00000,3,3,1,24.86000,0.00208,1.05992,-0.0072,-0.0932,0.0966,0.0000,0.0000,0.0000,-4.15,-11.81,176.43,1,1,1,5,221,0,0,0,0,0,0.00,0,0,0,0,0,0,0,0.00,0.00,0,0,0.0000,0.0000,0.0000,0.0000,0.0000
2026-04-20T17:41:27.015,0.095,0,0.00,0.00,0.00,0.00,1,0.0072,0.0932,0.2534,0.0000,0.0000,0.0000,4.19,-2.69,58.16,60.24,6,6,1.00000,1.00000,1.00000,1.00000,3,3,1,24.80738,0.00208,1.06130,-0.0072,-0.0932,0.0966,0.0000,0.0000,0.0000,-4.19,-11.78,176.47,1,1,1,6,221,0,0,0,0,0,0.00,0,0,0,0,0,0,0,0.00,0.00,0,0,0.0000,0.0000,0.0000,0.0000,0.0000
2026-04-20T17:41:27.033,0.112,0,0.00,0.00,0.00,0.00,1,0.0074,0.0932,0.2534,0.0000,0.0000,0.0000,4.10,5.52,67.27,62.57,7,7,1.00000,1.00000,1.00000,1.00000,3,3,1,24.82448,0.00233,1.06349,-0.0074,-0.0932,0.0966,0.0000,0.0000,0.0000,-4.10,-12.00,176.41,1,1,1,7,217,0,0,0,0,0,0.00,0,0,0,0,0,0,0,0.00,0.00,0,0,0.0000,0.0000,0.0000,0.0000,0.0000
2026-04-20T17:41:27.052,0.131,0,0.00,0.00,0.00,0.00,1,0.0073,0.0932,0.2534,0.0000,0.0000,0.0000,4.12,-1.04,61.35,58.27,8,8,1.00000,1.00000,1.00000,1.00000,3,3,1,24.79437,0.00208,1.06148,-0.0073,-0.0932,0.0966,0.0000,0.0000,0.0000,-4.12,-11.94,176.44,1,1,1,8,221,0,0,0,0,0,0.00,0,0,0,0,0,0,0,0.00,0.00,0,0,0.0000,0.0000,0.0000,0.0000,0.0000
2026-04-20T17:41:27.065,0.145,0,0.00,0.00,0.00,0.00,1,0.0072,0.0932,0.2532,0.0000,0.0000,0.0000,4.13,-0.69,52.23,59.56,9,9,1.00000,1.00000,1.00000,1.00000,3,3,1,24.82719,0.00208,1.06272,-0.0072,-0.0932,0.0968,0.0000,0.0000,0.0000,-4.13,-11.71,176.39,1,1,1,9,221,0,0,0,0,0,0.00,0,0,0,0,0,0,0,0.00,0.00,0,0,0.0000,0.0000,0.0000,0.0000,0.0000
2026-04-20T17:41:27.084,0.164,0,0.00,0.00,0.00,0.00,1,0.0072,0.0931,0.2532,0.0000,0.0000,0.0000,4.11,1.08,72.75,63.19,10,10,1.00000,1.00000,1.00000,1.00000,3,3,1,24.78655,0.00209,1.06361,-0.0072,-0.0931,0.0968,0.0000,0.0000,0.0000,-4.11,-11.62,176.28,1,1,1,10,221,0,0,0,0,0,0.00,0,0,0,0,0,0,0,0.00,0.00,0,0,0.0000,0.0000,0.0000,0.0000,0.0000
2026-04-20T17:41:27.100,0.180,0,0.00,0.00,0.00,0.00,1,0.0073,0.0932,0.2533,0.0000,0.0000,0.0000,4.10,0.66,53.12,60.33,11,11,1.00000,1.00000,1.00000,1.00000,3,3,1,24.82421,0.00217,1.06217,-0.0073,-0.0932,0.0967,0.0000,0.0000,0.0000,-4.10,-11.73,176.38,1,1,1,11,220,0,0,0,0,0,0.00,0,0,0,0,0,0,0,0.00,0.00,0,0,0.0000,0.0000,0.0000,0.0000,0.0000
2026-04-20T17:41:27.118,0.198,0,0.00,0.00,0.00,0.00,1,0.0073,0.0932,0.2533,0.0000,0.0000,0.0000,4.11,-0.55,62.17,58.28,12,12,1.00000,1.00000,1.00000,1.00000,3,3,1,24.83457,0.00220,1.06198,-0.0073,-0.0932,0.0967,0.0000,0.0000,0.0000,-4.11,-12.00,176.43,1,1,1,12,218,0,0,0,0,0,0.00,0,0,0,0,0,0,0,0.00,0.00,0,0,0.0000,0.0000,0.0000,0.0000,0.0000
2026-04-20T17:41:27.133,0.212,0,0.00,0.00,0.00,0.00,1,0.0073,0.0932,0.2534,0.0000,0.0000,0.0000,4.13,-1.28,60.05,62.36,13,13,1.00000,1.00000,1.00000,1.00000,3,3,1,24.79794,0.00216,1.06405,-0.0073,-0.0932,0.0966,0.0000,0.0000,0.0000,-4.13,-12.01,176.41,1,1,1,13,218,0,0,0,0,0,0.00,0,0,0,0,0,0,0,0.00,0.00,0,0,0.0000,0.0000,0.0000,0.0000,0.0000
2026-04-20T17:41:27.151,0.230,0,0.00,0.00,0.00,0.00,1,0.0073,0.0931,0.2533,0.0000,0.0000,0.0000,4.11,1.17,58.50,55.47,14,14,1.00000,1.00000,1.00000,1.00000,3,3,1,24.84699,0.00220,1.06331,-0.0073,-0.0931,0.0967,0.0000,0.0000,0.0000,-4.11,-11.97,176.35,1,1,1,14,221,0,0,0,0,0,0.00,0,0,0,0,0,0,0,0.00,0.00,0,0,0.0000,0.0000,0.0000,0.0000,0.0000
2026-04-20T17:41:27.171,0.250,0,0.00,0.00,0.00,0.00,1,0.0073,0.0932,0.2532,0.0000,0.0000,0.0000,4.07,1.94,60.03,47.49,15,15,1.00000,1.00000,1.00000,1.00000,3,3,1,24.84378,0.00223,1.06201,-0.0073,-0.0932,0.0968,0.0000,0.0000,0.0000,-4.07,-11.99,176.24,1,1,1,15,221,0,0,0,0,0,0.00,0,0,0,0,0,0,0,0.00,0.00,0,0,0.0000,0.0000,0.0000,0.0000,0.0000
2026-04-20T17:41:27.185,0.264,0,0.00,0.00,0.00,0.00,1,0.0072,0.0932,0.2532,0.0000,0.0000,0.0000,4.10,-2.24,50.00,78.13,16,16,1.00000,1.00000,1.00000,1.00000,3,3,1,24.87782,0.00206,1.06183,-0.0072,-0.0932,0.0968,0.0000,0.0000,0.0000,-4.10,-11.83,176.25,1,1,1,16,220,0,0,0,0,0,0.00,0,0,0,0,0,0,0,0.00,0.00,0,0,0.0000,0.0000,0.0000,0.0000,0.0000
2026-04-20T17:41:27.202,0.281,0,0.00,0.00,0.00,0.00,1,0.0072,0.0933,0.2533,0.0000,0.0000,0.0000,4.10,0.00,74.13,66.61,17,17,1.00000,1.00000,1.00000,1.00000,3,3,1,24.87267,0.00209,1.05979,-0.0072,-0.0933,0.0967,0.0000,0.0000,0.0000,-4.10,-11.84,176.40,1,1,1,17,219,0,0,0,0,0,0.00,0,0,0,0,0,0,0,0.00,0.00,0,0,0.0000,0.0000,0.0000,0.0000,0.0000
2026-04-20T17:41:27.216,0.296,0,0.00,0.00,0.00,0.00,1,0.0073,0.0931,0.2534,0.0000,0.0000,0.0000,4.12,-1.37,57.09,55.96,18,18,1.00000,1.00000,1.00000,1.00000,3,3,1,24.81137,0.00218,1.06342,-0.0073,-0.0931,0.0966,0.0000,0.0000,0.0000,-4.12,-11.94,176.40,1,1,1,18,220,0,0,0,0,0,0.00,0,0,0,0,0,0,0,0.00,0.00,0,0,0.0000,0.0000,0.0000,0.0000,0.0000
2026-04-20T17:41:27.234,0.313,0,0.00,0.00,0.00,0.00,1,0.0072,0.0931,0.2534,0.0000,0.0000,0.0000,4.07,2.85,69.87,65.26,19,19,1.00000,1.00000,1.00000,1.00000,3,3,1,24.82674,0.00214,1.06254,-0.0072,-0.0931,0.0966,0.0000,0.0000,0.0000,-4.07,-11.81,176.33,1,1,1,19,221,0,0,0,0,0,0.00,0,0,0,0,0,0,0,0.00,0.00,0,0,0.0000,0.0000,0.0000,0.0000,0.0000
2026-04-20T17:41:27.252,0.331,0,0.00,0.00,0.00,0.00,1,0.0073,0.0932,0.2535,0.0000,0.0000,0.0000,4.10,-1.69,55.65,58.56,20,20,1.00000,1.00000,1.00000,1.00000,3,3,1,24.83549,0.00228,1.06174,-0.0073,-0.0932,0.0965,0.0000,0.0000,0.0000,-4.10,-12.08,176.39,1,1,1,20,220,0,0,0,0,0,0.00,0,0,0,0,0,0,0,0.00,0.00,0,0,0.0000,0.0000,0.0000,0.0000,0.0000
2026-04-20T17:41:27.266,0.346,0,0.00,0.00,0.00,0.00,1,0.0073,0.0932,0.2532,0.0000,0.0000,0.0000,4.14,-2.67,57.16,58.33,21,21,1.00000,1.00000,1.00000,1.00000,3,3,1,24.80978,0.00218,1.06289,-0.0073,-0.0932,0.0968,0.0000,0.0000,0.0000,-4.14,-12.00,176.34,1,1,1,21,218,0,0,0,0,0,0.00,0,0,0,0,0,0,0,0.00,0.00,0,0,0.0000,0.0000,0.0000,0.0000,0.0000
2026-04-20T17:41:27.286,0.365,0,0.00,0.00,0.00,0.00,1,0.0072,0.0933,0.2533,0.0000,0.0000,0.0000,4.12,1.01,69.44,61.07,22,22,1.00000,1.00000,1.00000,1.00000,3,3,1,24.83651,0.00211,1.06028,-0.0072,-0.0933,0.0967,0.0000,0.0000,0.0000,-4.12,-11.93,176.50,1,1,1,22,220,0,0,0,0,0,0.00,0,0,0,0,0,0,0,0.00,0.00,0,0,0.0000,0.0000,0.0000,0.0000,0.0000
2026-04-20T17:41:27.301,0.380,0,0.00,0.00,0.00,0.00,1,0.0072,0.0931,0.2534,0.0000,0.0000,0.0000,4.14,-1.38,47.54,59.90,23,23,1.00000,1.00000,1.00000,1.00000,3,3,1,24.79979,0.00218,1.06311,-0.0072,-0.0931,0.0966,0.0000,0.0000,0.0000,-4.14,-11.89,176.44,1,1,1,23,221,0,0,0,0,0,0.00,0,0,0,0,0,0,0,0.00,0.00,0,0,0.0000,0.0000,0.0000,0.0000,0.0000
2026-04-20T17:41:27.316,0.396,0,0.00,0.00,0.00,0.00,1,0.0071,0.0932,0.2533,0.0000,0.0000,0.0000,4.13,0.64,79.92,58.48,24,24,1.00000,1.00000,1.00000,1.00000,3,3,1,24.83549,0.00197,1.06119,-0.0071,-0.0932,0.0967,0.0000,0.0000,0.0000,-4.13,-11.70,176.49,1,1,1,24,220,0,0,0,0,0,0.00,0,0,0,0,0,0,0,0.00,0.00,0,0,0.0000,0.0000,0.0000,0.0000,0.0000
2026-04-20T17:41:27.333,0.412,0,0.00,0.00,0.00,0.00,1,0.0072,0.0932,0.2533,0.0000,0.0000,0.0000,4.15,-1.23,60.12,61.75,25,25,1.00000,1.00000,1.00000,1.00000,3,3,1,24.80358,0.00211,1.06228,-0.0072,-0.0932,0.0967,0.0000,0.0000,0.0000,-4.15,-11.73,176.47,1,1,1,25,221,0,0,0,0,0,0.00,0,0,0,0,0,0,0,0.00,0.00,0,0,0.0000,0.0000,0.0000,0.0000,0.0000
2026-04-20T17:41:27.349,0.428,0,0.00,0.00,0.00,0.00,1,0.0072,0.0932,0.2533,0.0000,0.0000,0.0000,4.10,2.87,61.45,61.16,26,26,1.00000,1.00000,1.00000,1.00000,3,3,1,24.82485,0.00215,1.06101,-0.0072,-0.0932,0.0967,0.0000,0.0000,0.0000,-4.10,-11.83,176.45,1,1,1,26,220,0,0,0,0,0,0.00,0,0,0,0,0,0,0,0.00,0.00,0,0,0.0000,0.0000,0.0000,0.0000,0.0000
2026-04-20T17:41:27.366,0.446,0,0.00,0.00,0.00,0.00,1,0.0073,0.0932,0.2533,0.0000,0.0000,0.0000,4.12,-1.22,60.71,59.12,27,27,1.00000,1.00000,1.00000,1.00000,3,3,1,24.82699,0.00218,1.06228,-0.0073,-0.0932,0.0967,0.0000,0.0000,0.0000,-4.12,-11.91,176.38,1,1,1,27,221,0,0,0,0,0,0.00,0,0,0,0,0,0,0,0.00,0.00,0,0,0.0000,0.0000,0.0000,0.0000,0.0000
2026-04-20T17:41:27.383,0.462,0,0.00,0.00,0.00,0.00,1,0.0071,0.0932,0.2533,0.0000,0.0000,0.0000,4.08,2.30,59.27,57.07,28,28,1.00000,1.00000,1.00000,1.00000,3,3,1,24.81046,0.00220,1.06069,-0.0071,-0.0932,0.0967,0.0000,0.0000,0.0000,-4.08,-11.79,176.37,1,1,1,28,221,0,0,0,0,0,0.00,0,0,0,0,0,0,0,0.00,0.00,0,0,0.0000,0.0000,0.0000,0.0000,0.0000
2026-04-20T17:41:27.399,0.479,0,0.00,0.00,0.00,0.00,1,0.0071,0.0932,0.2532,0.0000,0.0000,0.0000,4.06,1.31,54.43,65.02,29,29,1.00000,1.00000,1.00000,1.00000,3,3,1,24.84105,0.00202,1.06239,-0.0071,-0.0932,0.0968,0.0000,0.0000,0.0000,-4.06,-11.66,176.34,1,1,1,29,221,0,0,0,0,0,0.00,0,0,0,0,0,0,0,0.00,0.00,0,0,0.0000,0.0000,0.0000,0.0000,0.0000
2026-04-20T17:41:27.416,0.496,0,0.00,0.00,0.00,0.00,1,0.0072,0.0933,0.2533,0.0000,0.0000,0.0000,4.08,-1.15,67.69,57.65,30,30,1.00000,1.00000,1.00000,1.00000,3,3,1,24.87678,0.00204,1.06115,-0.0072,-0.0933,0.0967,0.0000,0.0000,0.0000,-4.08,-11.75,176.41,1,1,1,30,221,0,0,0,0,0,0.00,0,0,0,0,0,0,0,0.00,0.00,0,0,0.0000,0.0000,0.0000,0.0000,0.0000
2026-04-20T17:41:27.434,0.514,0,0.00,0.00,0.00,0.00,1,0.0074,0.0932,0.2535,0.0000,0.0000,0.0000,4.09,-0.58,57.53,62.57,31,31,1.00000,1.00000,1.00000,1.00000,3,3,1,24.85314,0.00229,1.06059,-0.0074,-0.0932,0.0965,0.0000,0.0000,0.0000,-4.09,-12.16,176.43,1,1,1,31,221,0,0,0,0,0,0.00,0,0,0,0,0,0,0,0.00,0.00,0,0,0.0000,0.0000,0.0000,0.0000,0.0000
2026-04-20T17:41:27.449,0.529,0,0.00,0.00,0.00,0.00,1,0.0072,0.0933,0.2531,0.0000,0.0000,0.0000,4.12,-1.93,55.87,59.55,32,32,1.00000,1.00000,1.00000,1.00000,3,3,1,24.84324,0.00210,1.06167,-0.0072,-0.0933,0.0969,0.0000,0.0000,0.0000,-4.12,-11.96,176.37,1,1,1,32,221,0,0,0,0,0,0.00,0,0,0,0,0,0,0,0.00,0.00,0,0,0.0000,0.0000,0.0000,0.0000,0.0000
2026-04-20T17:41:27.467,0.546,0,0.00,0.00,0.00,0.00,1,0.0072,0.0932,0.2532,0.0000,0.0000,0.0000,4.11,0.58,65.71,57.05,33,33,1.00000,1.00000,1.00000,1.00000,3,3,1,24.83448,0.00214,1.06452,-0.0072,-0.0932,0.0968,0.0000,0.0000,0.0000,-4.11,-11.92,176.37,1,1,1,33,221,0,0,0,0,0,0.00,0,0,0,0,0,0,0,0.00,0.00,0,0,0.0000,0.0000,0.0000,0.0000,0.0000
2026-04-20T17:41:27.483,0.563,0,0.00,0.00,0.00,0.00,1,0.0072,0.0931,0.2532,0.0000,0.0000,0.0000,4.07,2.24,58.97,59.40,34,34,1.00000,1.00000,1.00000,1.00000,3,3,1,24.82190,0.00226,1.06586,-0.0072,-0.0931,0.0968,0.0000,0.0000,0.0000,-4.07,-11.82,176.19,1,1,1,34,221,0,0,0,0,0,0.00,0,0,0,0,0,0,0,0.00,0.00,0,0,0.0000,0.0000,0.0000,0.0000,0.0000
2026-04-20T17:41:27.498,0.578,0,0.00,0.00,0.00,0.00,1,0.0073,0.0932,0.2533,0.0000,0.0000,0.0000,4.12,-3.76,55.85,61.02,35,35,1.00000,1.00000,1.00000,1.00000,3,3,1,24.79618,0.00226,1.06139,-0.0073,-0.0932,0.0967,0.0000,0.0000,0.0000,-4.12,-11.97,176.30,1,1,1,35,220,0,0,0,0,0,0.00,0,0,0,0,0,0,0,0.00,0.00,0,0,0.0000,0.0000,0.0000,0.0000,0.0000
2026-04-20T17:41:27.516,0.596,0,0.00,0.00,0.00,0.00,1,0.0073,0.0931,0.2534,0.0000,0.0000,0.0000,4.09,1.61,72.75,59.76,36,36,1.00000,1.00000,1.00000,1.00000,3,3,1,24.79788,0.00223,1.06486,-0.0073,-0.0931,0.0966,0.0000,0.0000,0.0000,-4.09,-12.04,176.20,1,1,1,36,220,0,0,0,0,0,0.00,0,0,0,0,0,0,0,0.00,0.00,0,0,0.0000,0.0000,0.0000,0.0000,0.0000
2026-04-20T17:41:27.537,0.616,0,0.00,0.00,0.00,0.00,1,0.0074,0.0932,0.2534,0.0000,0.0000,0.0000,4.13,-1.98,55.11,63.68,37,37,1.00000,1.00000,1.00000,1.00000,3,3,1,24.80716,0.00219,1.06149,-0.0074,-0.0932,0.0966,0.0000,0.0000,0.0000,-4.13,-12.22,176.40,1,1,1,37,220,0,0,0,0,0,0.00,0,0,0,0,0,0,0,0.00,0.00,0,0,0.0000,0.0000,0.0000,0.0000,0.0000
2026-04-20T17:41:27.551,0.630,0,0.00,0.00,0.00,0.00,1,0.0074,0.0932,0.2534,0.0000,0.0000,0.0000,4.12,0.74,48.66,56.80,38,38,1.00000,1.00000,1.00000,1.00000,3,3,1,24.81241,0.00221,1.06346,-0.0074,-0.0932,0.0966,0.0000,0.0000,0.0000,-4.12,-12.28,176.37,1,1,1,38,221,0,0,0,0,0,0.00,0,0,0,0,0,0,0,0.00,0.00,0,0,0.0000,0.0000,0.0000,0.0000,0.0000
2026-04-20T17:41:27.567,0.647,0,0.00,0.00,0.00,0.00,1,0.0072,0.0931,0.2534,0.0000,0.0000,0.0000,4.09,1.70,72.82,59.33,39,39,1.00000,1.00000,1.00000,1.00000,3,3,1,24.80659,0.00213,1.06227,-0.0072,-0.0931,0.0966,0.0000,0.0000,0.0000,-4.09,-11.97,176.38,1,1,1,39,221,0,0,0,0,0,0.00,0,0,0,0,0,0,0,0.00,0.00,0,0,0.0000,0.0000,0.0000,0.0000,0.0000
2026-04-20T17:41:27.583,0.662,0,0.00,0.00,0.00,0.00,1,0.0072,0.0932,0.2532,0.0000,0.0000,0.0000,4.07,1.32,56.90,59.64,40,40,1.00000,1.00000,1.00000,1.00000,3,3,1,24.84783,0.00215,1.06408,-0.0072,-0.0932,0.0968,0.0000,0.0000,0.0000,-4.07,-11.73,176.31,1,1,1,40,221,0,0,0,0,0,0.00,0,0,0,0,0,0,0,0.00,0.00,0,0,0.0000,0.0000,0.0000,0.0000,0.0000
2026-04-20T17:41:27.600,0.679,0,0.00,0.00,0.00,0.00,1,0.0073,0.0932,0.2534,0.0000,0.0000,0.0000,4.09,-1.21,65.89,64.33,41,41,1.00000,1.00000,1.00000,1.00000,3,3,1,24.80751,0.00219,1.06353,-0.0073,-0.0932,0.0966,0.0000,0.0000,0.0000,-4.09,-11.92,176.37,1,1,1,41,221,0,0,0,0,0,0.00,0,0,0,0,0,0,0,0.00,0.00,0,0,0.0000,0.0000,0.0000,0.0000,0.0000
2026-04-20T17:41:27.614,0.694,0,0.00,0.00,0.00,0.00,1,0.0072,0.0930,0.2533,0.0000,0.0000,0.0000,4.08,0.62,65.73,59.85,42,42,1.00000,1.00000,1.00000,1.00000,3,3,1,24.82393,0.00212,1.06378,-0.0072,-0.0930,0.0967,0.0000,0.0000,0.0000,-4.08,-11.78,176.24,1,1,1,42,221,0,0,0,0,0,0.00,0,0,0,0,0,0,0,0.00,0.00,0,0,0.0000,0.0000,0.0000,0.0000,0.0000
2026-04-20T17:41:27.634,0.713,0,0.00,0.00,0.00,0.00,1,0.0073,0.0931,0.2535,0.0000,0.0000,0.0000,4.05,1.57,62.97,55.77,43,43,1.00000,1.00000,1.00000,1.00000,3,3,1,24.82858,0.00227,1.06434,-0.0073,-0.0931,0.0965,0.0000,0.0000,0.0000,-4.05,-11.94,176.23,1,1,1,43,221,0,0,0,0,0,0.00,0,0,0,0,0,0,0,0.00,0.00,0,0,0.0000,0.0000,0.0000,0.0000,0.0000
2026-04-20T17:41:27.650,0.729,0,0.00,0.00,0.00,0.00,1,0.0072,0.0931,0.2533,0.0000,0.0000,0.0000,4.11,-3.75,52.32,62.31,44,44,1.00000,1.00000,1.00000,1.00000,3,3,1,24.81847,0.00212,1.06199,-0.0072,-0.0931,0.0967,0.0000,0.0000,0.0000,-4.11,-11.94,176.37,1,1,1,44,221,0,0,0,0,0,0.00,0,0,0,0,0,0,0,0.00,0.00,0,0,0.0000,0.0000,0.0000,0.0000,0.0000
2026-04-20T17:41:27.667,0.746,0,0.00,0.00,0.00,0.00,1,0.0073,0.0930,0.2534,0.0000,0.0000,0.0000,4.12,-0.59,60.84,59.29,45,45,1.00000,1.00000,1.00000,1.00000,3,3,1,24.80306,0.00226,1.06458,-0.0073,-0.0930,0.0966,0.0000,0.0000,0.0000,-4.12,-11.91,176.28,1,1,1,45,221,0,0,0,0,0,0.00,0,0,0,0,0,0,0,0.00,0.00,0,0,0.0000,0.0000,0.0000,0.0000,0.0000
2026-04-20T17:41:27.685,0.765,0,0.00,0.00,0.00,0.00,1,0.0072,0.0931,0.2534,0.0000,0.0000,0.0000,4.07,2.75,58.78,60.36,46,46,1.00000,1.00000,1.00000,1.00000,3,3,1,24.82385,0.00216,1.06122,-0.0072,-0.0931,0.0966,0.0000,0.0000,0.0000,-4.07,-11.79,176.28,1,1,1,46,221,0,0,0,0,0,0.00,0,0,0,0,0,0,0,0.00,0.00,0,0,0.0000,0.0000,0.0000,0.0000,0.0000
2026-04-20T17:41:27.699,0.779,0,0.00,0.00,0.00,0.00,1,0.0072,0.0932,0.2533,0.0000,0.0000,0.0000,4.10,-2.23,55.95,63.44,47,47,1.00000,1.00000,1.00000,1.00000,3,3,1,24.80989,0.00213,1.06290,-0.0072,-0.0932,0.0967,0.0000,0.0000,0.0000,-4.10,-11.79,176.40,1,1,1,47,219,0,0,0,0,0,0.00,0,0,0,0,0,0,0,0.00,0.00,0,0,0.0000,0.0000,0.0000,0.0000,0.0000
2026-04-20T17:41:27.716,0.795,0,0.00,0.00,0.00,0.00,1,0.0073,0.0932,0.2532,0.0000,0.0000,0.0000,4.07,1.82,67.64,59.28,48,48,1.00000,1.00000,1.00000,1.00000,3,3,1,24.81751,0.00226,1.06166,-0.0073,-0.0932,0.0968,0.0000,0.0000,0.0000,-4.07,-11.89,176.34,1,1,1,48,221,0,0,0,0,0,0.00,0,0,0,0,0,0,0,0.00,0.00,0,0,0.0000,0.0000,0.0000,0.0000,0.0000
2026-04-20T17:41:27.733,0.812,0,0.00,0.00,0.00,0.00,1,0.0072,0.0933,0.2532,0.0000,0.0000,0.0000,4.13,-3.59,62.64,60.45,49,49,1.00000,1.00000,1.00000,1.00000,3,3,1,24.87930,0.00203,1.06065,-0.0072,-0.0933,0.0968,0.0000,0.0000,0.0000,-4.13,-11.87,176.46,1,1,1,49,221,0,0,0,0,0,0.00,0,0,0,0,0,0,0,0.00,0.00,0,0,0.0000,0.0000,0.0000,0.0000,0.0000
2026-04-20T17:41:27.749,0.828,0,0.00,0.00,0.00,0.00,1,0.0074,0.0931,0.2535,0.0000,0.0000,0.0000,4.14,-0.58,56.55,59.23,50,50,1.00000,1.00000,1.00000,1.00000,3,3,1,24.80340,0.00225,1.06335,-0.0074,-0.0931,0.0965,0.0000,0.0000,0.0000,-4.14,-12.22,176.44,1,1,1,50,221,0,0,0,0,0,0.00,0,0,0,0,0,0,0,0.00,0.00,0,0,0.0000,0.0000,0.0000,0.0000,0.0000
2026-04-20T17:41:27.765,0.845,0,0.00,0.00,0.00,0.00,1,0.0072,0.0932,0.2534,0.0000,0.0000,0.0000,4.17,-1.92,65.39,60.94,51,51,1.00000,1.00000,1.00000,1.00000,3,3,1,24.86570,0.00211,1.06063,-0.0072,-0.0932,0.0966,0.0000,0.0000,0.0000,-4.17,-12.11,176.47,1,1,1,51,221,0,0,0,0,0,0.00,0,0,0,0,0,0,0,0.00,0.00,0,0,0.0000,0.0000,0.0000,0.0000,0.0000
2026-04-20T17:41:27.782,0.862,0,0.00,0.00,0.00,0.00,1,0.0071,0.0934,0.2532,0.0000,0.0000,0.0000,4.11,3.35,59.92,56.03,52,52,1.00000,1.00000,1.00000,1.00000,3,3,1,24.87772,0.00204,1.05979,-0.0071,-0.0934,0.0968,0.0000,0.0000,0.0000,-4.11,-11.80,176.47,1,1,1,52,220,0,0,0,0,0,0.00,0,0,0,0,0,0,0,0.00,0.00,0,0,0.0000,0.0000,0.0000,0.0000,0.0000
2026-04-20T17:41:27.798,0.877,0,0.00,0.00,0.00,0.00,1,0.0072,0.0932,0.2533,0.0000,0.0000,0.0000,4.08,1.91,58.61,64.63,53,53,1.00000,1.00000,1.00000,1.00000,3,3,1,24.82191,0.00223,1.06136,-0.0072,-0.0932,0.0967,0.0000,0.0000,0.0000,-4.08,-11.78,176.38,1,1,1,53,221,0,0,0,0,0,0.00,0,0,0,0,0,0,0,0.00,0.00,0,0,0.0000,0.0000,0.0000,0.0000,0.0000
2026-04-20T17:41:27.815,0.895,0,0.00,0.00,0.00,0.00,1,0.0073,0.0932,0.2533,0.0000,0.0000,0.0000,4.13,-3.03,64.54,58.25,54,54,1.00000,1.00000,1.00000,1.00000,3,3,1,24.82989,0.00217,1.06310,-0.0073,-0.0932,0.0967,0.0000,0.0000,0.0000,-4.13,-12.00,176.34,1,1,1,54,218,0,0,0,0,0,0.00,0,0,0,0,0,0,0,0.00,0.00,0,0,0.0000,0.0000,0.0000,0.0000,0.0000
2026-04-20T17:41:27.833,0.912,0,0.00,0.00,0.00,0.00,1,0.0071,0.0933,0.2532,0.0000,0.0000,0.0000,4.07,3.56,55.06,60.16,55,55,1.00000,1.00000,1.00000,1.00000,3,3,1,24.86292,0.00208,1.06120,-0.0071,-0.0933,0.0968,0.0000,0.0000,0.0000,-4.07,-11.81,176.30,1,1,1,55,220,0,0,0,0,0,0.00,0,0,0,0,0,0,0,0.00,0.00,0,0,0.0000,0.0000,0.0000,0.0000,0.0000
2026-04-20T17:41:27.848,0.927,0,0.00,0.00,0.00,0.00,1,0.0072,0.0932,0.2533,0.0000,0.0000,0.0000,4.08,-0.61,64.04,59.75,56,56,1.00000,1.00000,1.00000,1.00000,3,3,1,24.82702,0.00211,1.06294,-0.0072,-0.0932,0.0967,0.0000,0.0000,0.0000,-4.08,-11.76,176.30,1,1,1,56,220,0,0,0,0,0,0.00,0,0,0,0,0,0,0,0.00,0.00,0,0,0.0000,0.0000,0.0000,0.0000,0.0000
2026-04-20T17:41:27.865,0.945,0,0.00,0.00,0.00,0.00,1,0.0072,0.0932,0.2534,0.0000,0.0000,0.0000,4.07,0.59,62.03,60.47,57,57,1.00000,1.00000,1.00000,1.00000,3,3,1,24.82968,0.00219,1.06358,-0.0072,-0.0932,0.0966,0.0000,0.0000,0.0000,-4.07,-11.81,176.28,1,1,1,57,221,0,0,0,0,0,0.00,0,0,0,0,0,0,0,0.00,0.00,0,0,0.0000,0.0000,0.0000,0.0000,0.0000
2026-04-20T17:41:27.883,0.962,0,0.00,0.00,0.00,0.00,1,0.0073,0.0932,0.2534,0.0000,0.0000,0.0000,4.12,-2.94,57.27,56.46,58,58,1.00000,1.00000,1.00000,1.00000,3,3,1,24.81383,0.00217,1.06249,-0.0073,-0.0932,0.0966,0.0000,0.0000,0.0000,-4.12,-11.97,176.46,1,1,1,58,221,0,0,0,0,0,0.00,0,0,0,0,0,0,0,0.00,0.00,0,0,0.0000,0.0000,0.0000,0.0000,0.0000
2026-04-20T17:41:27.901,0.981,0,0.00,0.00,0.00,0.00,1,0.0073,0.0931,0.2534,0.0000,0.0000,0.0000,4.13,-0.55,57.14,57.13,59,59,1.00000,1.00000,1.00000,1.00000,3,3,1,24.79573,0.00220,1.06390,-0.0073,-0.0931,0.0966,0.0000,0.0000,0.0000,-4.13,-11.99,176.35,1,1,1,59,221,0,0,0,0,0,0.00,0,0,0,0,0,0,0,0.00,0.00,0,0,0.0000,0.0000,0.0000,0.0000,0.0000
2026-04-20T17:41:27.916,0.996,0,0.00,0.00,0.00,0.00,1,0.0072,0.0932,0.2533,0.0000,0.0000,0.0000,4.10,1.97,54.52,70.26,60,60,1.00000,1.00000,1.00000,1.00000,3,3,1,24.84635,0.00215,1.06115,-0.0072,-0.0932,0.0967,0.0000,0.0000,0.0000,-4.10,-11.94,176.38,1,1,1,60,220,0,0,0,0,0,0.00,0,0,0,0,0,0,0,0.00,0.00,0,0,0.0000,0.0000,0.0000,0.0000,0.0000
2026-04-20T17:41:27.935,1.014,0,0.00,0.00,0.00,0.00,1,0.0073,0.0931,0.2535,0.0000,0.0000,0.0000,4.09,0.54,70.50,60.24,61,61,1.00000,1.00000,1.00000,1.00000,3,3,1,24.80562,0.00227,1.06458,-0.0073,-0.0931,0.0965,0.0000,0.0000,0.0000,-4.09,-11.95,176.25,1,1,1,61,221,0,0,0,0,0,0.00,0,0,0,0,0,0,0,0.00,0.00,0,0,0.0000,0.0000,0.0000,0.0000,0.0000
2026-04-20T17:41:27.952,1.031,0,0.00,0.00,0.00,0.00,1,0.0072,0.0933,0.2533,0.0000,0.0000,0.0000,4.16,-4.46,51.15,58.75,62,62,1.00000,1.00000,1.00000,1.00000,3,3,1,24.85022,0.00198,1.06021,-0.0072,-0.0933,0.0967,0.0000,0.0000,0.0000,-4.16,-11.91,176.44,1,1,1,62,221,0,0,0,0,0,0.00,0,0,0,0,0,0,0,0.00,0.00,0,0,0.0000,0.0000,0.0000,0.0000,0.0000
2026-04-20T17:41:27.967,1.047,0,0.00,0.00,0.00,0.00,1,0.0071,0.0932,0.2531,0.0000,0.0000,0.0000,4.11,2.84,58.84,57.58,63,63,1.00000,1.00000,1.00000,1.00000,3,3,1,24.85395,0.00210,1.06286,-0.0071,-0.0932,0.0969,0.0000,0.0000,0.0000,-4.11,-11.67,176.32,1,1,1,63,221,0,0,0,0,0,0.00,0,0,0,0,0,0,0,0.00,0.00,0,0,0.0000,0.0000,0.0000,0.0000,0.0000
2026-04-20T17:41:27.984,1.063,0,0.00,0.00,0.00,0.00,1,0.0072,0.0932,0.2533,0.0000,0.0000,0.0000,4.14,-1.91,65.55,60.77,64,64,1.00000,1.00000,1.00000,1.00000,3,3,1,24.81171,0.00220,1.06098,-0.0072,-0.0932,0.0967,0.0000,0.0000,0.0000,-4.14,-11.71,176.34,1,1,1,64,221,0,0,0,0,0,0.00,0,0,0,0,0,0,0,0.00,0.00,0,0,0.0000,0.0000,0.0000,0.0000,0.0000
2026-04-20T17:41:27.999,1.078,0,0.00,0.00,0.00,0.00,1,0.0073,0.0931,0.2533,0.0000,0.0000,0.0000,4.08,3.95,61.48,58.58,65,65,1.00000,1.00000,1.00000,1.00000,3,3,1,24.83828,0.00223,1.06608,-0.0073,-0.0931,0.0967,0.0000,0.0000,0.0000,-4.08,-11.83,176.22,1,1,1,65,221,0,0,0,0,0,0.00,0,0,0,0,0,0,0,0.00,0.00,0,0,0.0000,0.0000,0.0000,0.0000,0.0000
2026-04-20T17:41:28.017,1.096,0,0.00,0.00,0.00,0.00,1,0.0073,0.0933,0.2533,0.0000,0.0000,0.0000,4.13,-2.83,63.99,59.65,66,66,1.00000,1.00000,1.00000,1.00000,3,3,1,24.83588,0.00214,1.05985,-0.0073,-0.0933,0.0967,0.0000,0.0000,0.0000,-4.13,-11.93,176.39,1,1,1,66,221,0,0,0,0,0,0.00,0,0,0,0,0,0,0,0.00,0.00,0,0,0.0000,0.0000,0.0000,0.0000,0.0000
2026-04-20T17:41:28.032,1.111,0,0.00,0.00,0.00,0.00,1,0.0072,0.0931,0.2533,0.0000,0.0000,0.0000,4.07,3.92,55.87,63.35,67,67,1.00000,1.00000,1.00000,1.00000,3,3,1,24.85961,0.00221,1.06362,-0.0072,-0.0931,0.0967,0.0000,0.0000,0.0000,-4.07,-11.80,176.23,1,1,1,67,220,0,0,0,0,0,0.00,0,0,0,0,0,0,0,0.00,0.00,0,0,0.0000,0.0000,0.0000,0.0000,0.0000
2026-04-20T17:41:28.049,1.129,0,0.00,0.00,0.00,0.00,1,0.0072,0.0932,0.2533,0.0000,0.0000,0.0000,4.08,-0.57,66.10,59.86,68,68,1.00000,1.00000,1.00000,1.00000,3,3,1,24.83905,0.00217,1.06140,-0.0072,-0.0932,0.0967,0.0000,0.0000,0.0000,-4.08,-11.83,176.32,1,1,1,68,221,0,0,0,0,0,0.00,0,0,0,0,0,0,0,0.00,0.00,0,0,0.0000,0.0000,0.0000,0.0000,0.0000
2026-04-20T17:41:28.067,1.146,0,0.00,0.00,0.00,0.00,1,0.0072,0.0931,0.2534,0.0000,0.0000,0.0000,4.08,0.00,56.97,59.17,69,69,1.00000,1.00000,1.00000,1.00000,3,3,1,24.78664,0.00212,1.06259,-0.0072,-0.0931,0.0966,0.0000,0.0000,0.0000,-4.08,-11.77,176.32,1,1,1,69,221,0,0,0,0,0,0.00,0,0,0,0,0,0,0,0.00,0.00,0,0,0.0000,0.0000,0.0000,0.0000,0.0000
2026-04-20T17:41:28.087,1.166,0,0.00,0.00,0.00,0.00,1,0.0072,0.0931,0.2534,0.0000,0.0000,0.0000,4.13,-2.47,57.56,62.14,70,70,1.00000,1.00000,1.00000,1.00000,3,3,1,24.82150,0.00220,1.06065,-0.0072,-0.0931,0.0966,0.0000,0.0000,0.0000,-4.13,-11.84,176.39,1,1,1,70,221,0,0,0,0,0,0.00,0,0,0,0,0,0,0,0.00,0.00,0,0,0.0000,0.0000,0.0000,0.0000,0.0000
2026-04-20T17:41:28.102,1.182,0,0.00,0.00,0.00,0.00,1,0.0073,0.0930,0.2533,0.0000,0.0000,0.0000,4.08,3.42,49.59,59.20,71,71,1.00000,1.00000,1.00000,1.00000,3,3,1,24.83956,0.00224,1.06550,-0.0073,-0.0930,0.0967,0.0000,0.0000,0.0000,-4.08,-11.80,176.21,1,1,1,71,220,0,0,0,0,0,0.00,0,0,0,0,0,0,0,0.00,0.00,0,0,0.0000,0.0000,0.0000,0.0000,0.0000
2026-04-20T17:41:28.119,1.199,0,0.00,0.00,0.00,0.00,1,0.0073,0.0932,0.2533,0.0000,0.0000,0.0000,4.13,-3.04,69.75,58.27,72,72,1.00000,1.00000,1.00000,1.00000,3,3,1,24.86047,0.00205,1.06188,-0.0073,-0.0932,0.0967,0.0000,0.0000,0.0000,-4.13,-11.99,176.39,1,1,1,72,221,0,0,0,0,0,0.00,0,0,0,0,0,0,0,0.00,0.00,0,0,0.0000,0.0000,0.0000,0.0000,0.0000
2026-04-20T17:41:28.133,1.213,0,0.00,0.00,0.00,0.00,1,0.0071,0.0932,0.2531,0.0000,0.0000,0.0000,4.08,3.27,55.22,56.40,73,73,1.00000,1.00000,1.00000,1.00000,3,3,1,24.84520,0.00211,1.06107,-0.0071,-0.0932,0.0969,0.0000,0.0000,0.0000,-4.08,-11.73,176.38,1,1,1,73,221,0,0,0,0,0,0.00,0,0,0,0,0,0,0,0.00,0.00,0,0,0.0000,0.0000,0.0000,0.0000,0.0000
2026-04-20T17:41:28.151,1.231,0,0.00,0.00,0.00,0.00,1,0.0073,0.0932,0.2533,0.0000,0.0000,0.0000,4.11,-1.76,70.81,64.90,74,74,1.00000,1.00000,1.00000,1.00000,3,3,1,24.79911,0.00224,1.06164,-0.0073,-0.0932,0.0967,0.0000,0.0000,0.0000,-4.11,-11.95,176.41,1,1,1,74,221,0,0,0,0,0,0.00,0,0,0,0,0,0,0,0.00,0.00,0,0,0.0000,0.0000,0.0000,0.0000,0.0000
2026-04-20T17:41:28.165,1.245,0,0.00,0.00,0.00,0.00,1,0.0073,0.0931,0.2533,0.0000,0.0000,0.0000,4.15,-2.96,59.75,60.74,75,75,1.00000,1.00000,1.00000,1.00000,3,3,1,24.82258,0.00220,1.06212,-0.0073,-0.0931,0.0967,0.0000,0.0000,0.0000,-4.15,-12.10,176.41,1,1,1,75,220,0,0,0,0,0,0.00,0,0,0,0,0,0,0,0.00,0.00,0,0,0.0000,0.0000,0.0000,0.0000,0.0000
2026-04-20T17:41:28.183,1.263,0,0.00,0.00,0.00,0.00,1,0.0072,0.0931,0.2532,0.0000,0.0000,0.0000,4.10,2.65,67.16,57.61,76,76,1.00000,1.00000,1.00000,1.00000,3,3,1,24.80917,0.00220,1.06343,-0.0072,-0.0931,0.0968,0.0000,0.0000,0.0000,-4.10,-11.89,176.30,1,1,1,76,219,0,0,0,0,0,0.00,0,0,0,0,0,0,0,0.00,0.00,0,0,0.0000,0.0000,0.0000,0.0000,0.0000
2026-04-20T17:41:28.198,1.277,0,0.00,0.00,0.00,0.00,1,0.0073,0.0930,0.2534,0.0000,0.0000,0.0000,4.11,-0.66,55.89,62.61,77,77,1.00000,1.00000,1.00000,1.00000,3,3,1,24.81327,0.00221,1.06337,-0.0073,-0.0930,0.0966,0.0000,0.0000,0.0000,-4.11,-12.01,176.30,1,1,1,77,217,0,0,0,0,0,0.00,0,0,0,0,0,0,0,0.00,0.00,0,0,0.0000,0.0000,0.0000,0.0000,0.0000
2026-04-20T17:41:28.215,1.295,0,0.00,0.00,0.00,0.00,1,0.0072,0.0931,0.2532,0.0000,0.0000,0.0000,4.10,0.59,66.12,62.34,78,78,1.00000,1.00000,1.00000,1.00000,3,3,1,24.79823,0.00218,1.06290,-0.0072,-0.0931,0.0968,0.0000,0.0000,0.0000,-4.10,-11.76,176.27,1,1,1,78,220,0,0,0,0,0,0.00,0,0,0,0,0,0,0,0.00,0.00,0,0,0.0000,0.0000,0.0000,0.0000,0.0000
2026-04-20T17:41:28.233,1.312,0,0.00,0.00,0.00,0.00,1,0.0073,0.0931,0.2533,0.0000,0.0000,0.0000,4.14,-2.44,58.98,58.21,79,79,1.00000,1.00000,1.00000,1.00000,3,3,1,24.82213,0.00214,1.06342,-0.0073,-0.0931,0.0967,0.0000,0.0000,0.0000,-4.14,-11.85,176.36,1,1,1,79,221,0,0,0,0,0,0.00,0,0,0,0,0,0,0,0.00,0.00,0,0,0.0000,0.0000,0.0000,0.0000,0.0000
2026-04-20T17:41:28.251,1.330,0,0.00,0.00,0.00,0.00,1,0.0072,0.0931,0.2533,0.0000,0.0000,0.0000,4.13,0.54,57.66,58.65,80,80,1.00000,1.00000,1.00000,1.00000,3,3,1,24.83468,0.00217,1.06142,-0.0072,-0.0931,0.0967,0.0000,0.0000,0.0000,-4.13,-11.83,176.41,1,1,1,80,221,0,0,0,0,0,0.00,0,0,0,0,0,0,0,0.00,0.00,0,0,0.0000,0.0000,0.0000,0.0000,0.0000
2026-04-20T17:41:28.266,1.346,0,0.00,0.00,0.00,0.00,1,0.0073,0.0932,0.2533,0.0000,0.0000,0.0000,4.08,3.16,54.86,62.50,81,81,1.00000,1.00000,1.00000,1.00000,3,3,1,24.82316,0.00222,1.06198,-0.0073,-0.0932,0.0967,0.0000,0.0000,0.0000,-4.08,-11.94,176.35,1,1,1,81,221,0,0,0,0,0,0.00,0,0,0,0,0,0,0,0.00,0.00,0,0,0.0000,0.0000,0.0000,0.0000,0.0000
2026-04-20T17:41:28.282,1.361,0,0.00,0.00,0.00,0.00,1,0.0072,0.0931,0.2531,0.0000,0.0000,0.0000,4.07,0.61,64.33,58.40,82,82,1.00000,1.00000,1.00000,1.00000,3,3,1,24.85063,0.00210,1.06446,-0.0072,-0.0931,0.0969,0.0000,0.0000,0.0000,-4.07,-11.77,176.26,1,1,1,82,221,0,0,0,0,0,0.00,0,0,0,0,0,0,0,0.00,0.00,0,0,0.0000,0.0000,0.0000,0.0000,0.0000
2026-04-20T17:41:28.300,1.379,0,0.00,0.00,0.00,0.00,1,0.0073,0.0931,0.2533,0.0000,0.0000,0.0000,4.08,-0.59,64.67,61.73,83,83,1.00000,1.00000,1.00000,1.00000,3,3,1,24.86224,0.00223,1.06214,-0.0073,-0.0931,0.0967,0.0000,0.0000,0.0000,-4.08,-11.98,176.26,1,1,1,83,221,0,0,0,0,0,0.00,0,0,0,0,0,0,0,0.00,0.00,0,0,0.0000,0.0000,0.0000,0.0000,0.0000
2026-04-20T17:41:28.315,1.395,0,0.00,0.00,0.00,0.00,1,0.0072,0.0931,0.2533,0.0000,0.0000,0.0000,4.11,-1.79,55.72,56.54,84,84,1.00000,1.00000,1.00000,1.00000,3,3,1,24.78478,0.00220,1.06380,-0.0072,-0.0931,0.0967,0.0000,0.0000,0.0000,-4.11,-11.85,176.29,1,1,1,84,221,0,0,0,0,0,0.00,0,0,0,0,0,0,0,0.00,0.00,0,0,0.0000,0.0000,0.0000,0.0000,0.0000
2026-04-20T17:41:28.332,1.411,0,0.00,0.00,0.00,0.00,1,0.0073,0.0932,0.2534,0.0000,0.0000,0.0000,4.13,-1.21,63.27,63.71,85,85,1.00000,1.00000,1.00000,1.00000,3,3,1,24.85716,0.00208,1.06240,-0.0073,-0.0932,0.0966,0.0000,0.0000,0.0000,-4.13,-11.93,176.41,1,1,1,85,221,0,0,0,0,0,0.00,0,0,0,0,0,0,0,0.00,0.00,0,0,0.0000,0.0000,0.0000,0.0000,0.0000
2026-04-20T17:41:28.351,1.430,0,0.00,0.00,0.00,0.00,1,0.0072,0.0931,0.2533,0.0000,0.0000,0.0000,4.10,1.68,61.06,57.73,86,86,1.00000,1.00000,1.00000,1.00000,3,3,1,24.83391,0.00220,1.06429,-0.0072,-0.0931,0.0967,0.0000,0.0000,0.0000,-4.10,-11.86,176.28,1,1,1,86,220,0,0,0,0,0,0.00,0,0,0,0,0,0,0,0.00,0.00,0,0,0.0000,0.0000,0.0000,0.0000,0.0000
2026-04-20T17:41:28.365,1.445,0,0.00,0.00,0.00,0.00,1,0.0072,0.0931,0.2533,0.0000,0.0000,0.0000,4.08,1.34,52.92,60.03,87,87,1.00000,1.00000,1.00000,1.00000,3,3,1,24.85654,0.00217,1.06280,-0.0072,-0.0931,0.0967,0.0000,0.0000,0.0000,-4.08,-11.88,176.33,1,1,1,87,221,0,0,0,0,0,0.00,0,0,0,0,0,0,0,0.00,0.00,0,0,0.0000,0.0000,0.0000,0.0000,0.0000
2026-04-20T17:41:28.384,1.463,0,0.00,0.00,0.00,0.00,1,0.0073,0.0932,0.2533,0.0000,0.0000,0.0000,4.10,-1.13,69.21,60.94,88,88,1.00000,1.00000,1.00000,1.00000,3,3,1,24.83509,0.00222,1.06162,-0.0073,-0.0932,0.0967,0.0000,0.0000,0.0000,-4.10,-11.96,176.41,1,1,1,88,220,0,0,0,0,0,0.00,0,0,0,0,0,0,0,0.00,0.00,0,0,0.0000,0.0000,0.0000,0.0000,0.0000
2026-04-20T17:41:28.400,1.479,0,0.00,0.00,0.00,0.00,1,0.0073,0.0931,0.2535,0.0000,0.0000,0.0000,4.06,2.30,53.38,59.69,89,89,1.00000,1.00000,1.00000,1.00000,3,3,1,24.85881,0.00211,1.06162,-0.0073,-0.0931,0.0965,0.0000,0.0000,0.0000,-4.06,-11.88,176.42,1,1,1,89,221,0,0,0,0,0,0.00,0,0,0,0,0,0,0,0.00,0.00,0,0,0.0000,0.0000,0.0000,0.0000,0.0000
2026-04-20T17:41:28.416,1.495,0,0.00,0.00,0.00,0.00,1,0.0073,0.0931,0.2534,0.0000,0.0000,0.0000,4.09,-1.88,58.90,58.28,90,90,1.00000,1.00000,1.00000,1.00000,3,3,1,24.79405,0.00220,1.06391,-0.0073,-0.0931,0.0966,0.0000,0.0000,0.0000,-4.09,-11.89,176.42,1,1,1,90,221,0,0,0,0,0,0.00,0,0,0,0,0,0,0,0.00,0.00,0,0,0.0000,0.0000,0.0000,0.0000,0.0000
2026-04-20T17:41:28.433,1.513,0,0.00,0.00,0.00,0.00,1,0.0075,0.0931,0.2536,0.0000,0.0000,0.0000,4.11,-1.22,66.02,63.32,91,91,1.00000,1.00000,1.00000,1.00000,3,3,1,24.83033,0.00230,1.06370,-0.0075,-0.0931,0.0964,0.0000,0.0000,0.0000,-4.11,-12.15,176.42,1,1,1,91,221,0,0,0,0,0,0.00,0,0,0,0,0,0,0,0.00,0.00,0,0,0.0000,0.0000,0.0000,0.0000,0.0000
2026-04-20T17:41:28.452,1.532,0,0.00,0.00,0.00,0.00,1,0.0074,0.0931,0.2535,0.0000,0.0000,0.0000,4.09,1.01,58.35,60.39,92,92,1.00000,1.00000,1.00000,1.00000,3,3,1,24.80476,0.00221,1.06621,-0.0074,-0.0931,0.0965,0.0000,0.0000,0.0000,-4.09,-12.10,176.30,1,1,1,92,219,0,0,0,0,0,0.00,0,0,0,0,0,0,0,0.00,0.00,0,0,0.0000,0.0000,0.0000,0.0000,0.0000
2026-04-20T17:41:28.465,1.545,0,0.00,0.00,0.00,0.00,1,0.0073,0.0931,0.2536,0.0000,0.0000,0.0000,4.06,2.36,53.25,59.74,93,93,1.00000,1.00000,1.00000,1.00000,3,3,1,24.80499,0.00215,1.06270,-0.0073,-0.0931,0.0964,0.0000,0.0000,0.0000,-4.06,-11.89,176.33,1,1,1,93,221,0,0,0,0,0,0.00,0,0,0,0,0,0,0,0.00,0.00,0,0,0.0000,0.0000,0.0000,0.0000,0.0000
2026-04-20T17:41:28.483,1.562,0,0.00,0.00,0.00,0.00,1,0.0073,0.0932,0.2535,0.0000,0.0000,0.0000,4.09,-1.74,75.14,60.21,94,94,1.00000,1.00000,1.00000,1.00000,3,3,1,24.80645,0.00219,1.06078,-0.0073,-0.0932,0.0965,0.0000,0.0000,0.0000,-4.09,-11.98,176.40,1,1,1,94,220,0,0,0,0,0,0.00,0,0,0,0,0,0,0,0.00,0.00,0,0,0.0000,0.0000,0.0000,0.0000,0.0000
2026-04-20T17:41:28.499,1.579,0,0.00,0.00,0.00,0.00,1,0.0073,0.0931,0.2533,0.0000,0.0000,0.0000,4.06,1.85,60.10,57.73,95,95,1.00000,1.00000,1.00000,1.00000,3,3,1,24.80830,0.00217,1.06530,-0.0073,-0.0931,0.0967,0.0000,0.0000,0.0000,-4.06,-11.87,176.26,1,1,1,95,221,0,0,0,0,0,0.00,0,0,0,0,0,0,0,0.00,0.00,0,0,0.0000,0.0000,0.0000,0.0000,0.0000
2026-04-20T17:41:28.515,1.595,0,0.00,0.00,0.00,0.00,1,0.0072,0.0931,0.2534,0.0000,0.0000,0.0000,4.02,2.34,57.41,60.18,96,96,1.00000,1.00000,1.00000,1.00000,3,3,1,24.85273,0.00224,1.06323,-0.0072,-0.0931,0.0966,0.0000,0.0000,0.0000,-4.02,-11.81,176.19,1,1,1,96,221,0,0,0,0,0,0.00,0,0,0,0,0,0,0,0.00,0.00,0,0,0.0000,0.0000,0.0000,0.0000,0.0000
2026-04-20T17:41:28.532,1.612,0,0.00,0.00,0.00,0.00,1,0.0073,0.0932,0.2535,0.0000,0.0000,0.0000,4.08,-3.76,58.05,61.64,97,97,1.00000,1.00000,1.00000,1.00000,3,3,1,24.81459,0.00211,1.06241,-0.0073,-0.0932,0.0965,0.0000,0.0000,0.0000,-4.08,-11.78,176.31,1,1,1,97,221,0,0,0,0,0,0.00,0,0,0,0,0,0,0,0.00,0.00,0,0,0.0000,0.0000,0.0000,0.0000,0.0000
2026-04-20T17:41:28.550,1.630,0,0.00,0.00,0.00,0.00,1,0.0072,0.0931,0.2534,0.0000,0.0000,0.0000,4.04,2.24,63.70,58.50,98,98,1.00000,1.00000,1.00000,1.00000,3,3,1,24.80826,0.00224,1.06389,-0.0072,-0.0931,0.0966,0.0000,0.0000,0.0000,-4.04,-11.77,176.25,1,1,1,98,221,0,0,0,0,0,0.00,0,0,0,0,0,0,0,0.00,0.00,0,0,0.0000,0.0000,0.0000,0.0000,0.0000
2026-04-20T17:41:28.566,1.645,0,0.00,0.00,0.00,0.00,1,0.0073,0.0931,0.2535,0.0000,0.0000,0.0000,4.08,-2.60,53.90,62.30,99,99,1.00000,1.00000,1.00000,1.00000,3,3,1,24.78936,0.00218,1.06354,-0.0073,-0.0931,0.0965,0.0000,0.0000,0.0000,-4.08,-11.80,176.29,1,1,1,99,220,0,0,0,0,0,0.00,0,0,0,0,0,0,0,0.00,0.00,0,0,0.0000,0.0000,0.0000,0.0000,0.0000
2026-04-20T17:41:28.583,1.662,0,0.00,0.00,0.00,0.00,1,0.0072,0.0932,0.2533,0.0000,0.0000,0.0000,4.13,-2.88,69.92,60.43,100,100,1.00000,1.00000,1.00000,1.00000,3,3,1,24.77614,0.00211,1.06253,-0.0072,-0.0932,0.0967,0.0000,0.0000,0.0000,-4.13,-11.67,176.36,1,1,1,100,221,0,0,0,0,0,0.00,0,0,0,0,0,0,0,0.00,0.00,0,0,0.0000,0.0000,0.0000,0.0000,0.0000
2026-04-20T17:41:28.599,1.678,0,0.00,0.00,0.00,0.00,1,0.0073,0.0932,0.2534,0.0000,0.0000,0.0000,4.16,-1.76,55.07,57.91,101,101,1.00000,1.00000,1.00000,1.00000,3,3,1,24.77967,0.00221,1.06385,-0.0073,-0.0932,0.0966,0.0000,0.0000,0.0000,-4.16,-11.88,176.39,1,1,1,101,221,0,0,0,0,0,0.00,0,0,0,0,0,0,0,0.00,0.00,0,0,0.0000,0.0000,0.0000,0.0000,0.0000
2026-04-20T17:41:28.615,1.695,0,0.00,0.00,0.00,0.00,1,0.0072,0.0933,0.2534,0.0000,0.0000,0.0000,4.16,0.00,63.39,59.62,102,102,1.00000,1.00000,1.00000,1.00000,3,3,1,24.83288,0.00207,1.06058,-0.0072,-0.0933,0.0966,0.0000,0.0000,0.0000,-4.16,-11.94,176.48,1,1,1,102,221,0,0,0,0,0,0.00,0,0,0,0,0,0,0,0.00,0.00,0,0,0.0000,0.0000,0.0000,0.0000,0.0000
2026-04-20T17:41:28.634,1.713,0,0.00,0.00,0.00,0.00,1,0.0072,0.0932,0.2534,0.0000,0.0000,0.0000,4.15,0.56,66.25,59.02,103,103,1.00000,1.00000,1.00000,1.00000,3,3,1,24.81970,0.00215,1.06180,-0.0072,-0.0932,0.0966,0.0000,0.0000,0.0000,-4.15,-11.82,176.40,1,1,1,103,220,0,0,0,0,0,0.00,0,0,0,0,0,0,0,0.00,0.00,0,0,0.0000,0.0000,0.0000,0.0000,0.0000
2026-04-20T17:41:28.651,1.730,0,0.00,0.00,0.00,0.00,1,0.0072,0.0932,0.2533,0.0000,0.0000,0.0000,4.10,2.95,51.90,62.53,104,104,1.00000,1.00000,1.00000,1.00000,3,3,1,24.84432,0.00211,1.06197,-0.0072,-0.0932,0.0967,0.0000,0.0000,0.0000,-4.10,-11.76,176.35,1,1,1,104,220,0,0,0,0,0,0.00,0,0,0,0,0,0,0,0.00,0.00,0,0,0.0000,0.0000,0.0000,0.0000,0.0000
2026-04-20T17:41:28.668,1.748,0,0.00,0.00,0.00,0.00,1,0.0073,0.0933,0.2535,0.0000,0.0000,0.0000,4.10,0.00,58.19,60.09,105,105,1.00000,1.00000,1.00000,1.00000,3,3,1,24.84962,0.00210,1.06181,-0.0073,-0.0933,0.0965,0.0000,0.0000,0.0000,-4.10,-11.95,176.45,1,1,1,105,220,0,0,0,0,0,0.00,0,0,0,0,0,0,0,0.00,0.00,0,0,0.0000,0.0000,0.0000,0.0000,0.0000
2026-04-20T17:41:28.684,1.764,0,0.00,0.00,0.00,0.00,1,0.0072,0.0932,0.2534,0.0000,0.0000,0.0000,4.11,-0.65,57.00,60.68,106,106,1.00000,1.00000,1.00000,1.00000,3,3,1,24.81782,0.00218,1.06445,-0.0072,-0.0932,0.0966,0.0000,0.0000,0.0000,-4.11,-11.89,176.39,1,1,1,106,221,0,0,0,0,0,0.00,0,0,0,0,0,0,0,0.00,0.00,0,0,0.0000,0.0000,0.0000,0.0000,0.0000
2026-04-20T17:41:28.698,1.778,0,0.00,0.00,0.00,0.00,1,0.0072,0.0932,0.2534,0.0000,0.0000,0.0000,4.10,0.68,62.21,59.58,107,107,1.00000,1.00000,1.00000,1.00000,3,3,1,24.85483,0.00214,1.06139,-0.0072,-0.0932,0.0966,0.0000,0.0000,0.0000,-4.10,-11.91,176.42,1,1,1,107,220,0,0,0,0,0,0.00,0,0,0,0,0,0,0,0.00,0.00,0,0,0.0000,0.0000,0.0000,0.0000,0.0000
2026-04-20T17:41:28.716,1.795,0,0.00,0.00,0.00,0.00,1,0.0072,0.0932,0.2532,0.0000,0.0000,0.0000,4.09,0.55,72.10,60.26,108,108,1.00000,1.00000,1.00000,1.00000,3,3,1,24.83854,0.00211,1.06374,-0.0072,-0.0932,0.0968,0.0000,0.0000,0.0000,-4.09,-11.79,176.33,1,1,1,108,221,0,0,0,0,0,0.00,0,0,0,0,0,0,0,0.00,0.00,0,0,0.0000,0.0000,0.0000,0.0000,0.0000
2026-04-20T17:41:28.733,1.812,0,0.00,0.00,0.00,0.00,1,0.0073,0.0933,0.2533,0.0000,0.0000,0.0000,4.10,-0.57,56.07,54.99,109,109,1.00000,1.00000,1.00000,1.00000,3,3,1,24.84826,0.00216,1.06339,-0.0073,-0.0933,0.0967,0.0000,0.0000,0.0000,-4.10,-11.96,176.34,1,1,1,109,220,0,0,0,0,0,0.00,0,0,0,0,0,0,0,0.00,0.00,0,0,0.0000,0.0000,0.0000,0.0000,0.0000
2026-04-20T17:41:28.748,1.828,0,0.00,0.00,0.00,0.00,1,0.0072,0.0931,0.2535,0.0000,0.0000,0.0000,4.14,-2.81,57.52,62.87,110,110,1.00000,1.00000,1.00000,1.00000,3,3,1,24.78945,0.00221,1.06363,-0.0072,-0.0931,0.0965,0.0000,0.0000,0.0000,-4.14,-11.96,176.34,1,1,1,110,221,0,0,0,0,0,0.00,0,0,0,0,0,0,0,0.00,0.00,0,0,0.0000,0.0000,0.0000,0.0000,0.0000
2026-04-20T17:41:28.766,1.845,0,0.00,0.00,0.00,0.00,1,0.0072,0.0932,0.2533,0.0000,0.0000,0.0000,4.10,2.23,67.89,63.45,111,111,1.00000,1.00000,1.00000,1.00000,3,3,1,24.83979,0.00213,1.06338,-0.0072,-0.0932,0.0967,0.0000,0.0000,0.0000,-4.10,-11.87,176.34,1,1,1,111,220,0,0,0,0,0,0.00,0,0,0,0,0,0,0,0.00,0.00,0,0,0.0000,0.0000,0.0000,0.0000,0.0000
2026-04-20T17:41:28.782,1.861,0,0.00,0.00,0.00,0.00,1,0.0074,0.0932,0.2534,0.0000,0.0000,0.0000,4.10,0.00,57.26,59.84,112,112,1.00000,1.00000,1.00000,1.00000,3,3,1,24.81106,0.00228,1.06373,-0.0074,-0.0932,0.0966,0.0000,0.0000,0.0000,-4.10,-12.00,176.35,1,1,1,112,217,0,0,0,0,0,0.00,0,0,0,0,0,0,0,0.00,0.00,0,0,0.0000,0.0000,0.0000,0.0000,0.0000
2026-04-20T17:41:28.797,1.877,0,0.00,0.00,0.00,0.00,1,0.0072,0.0932,0.2533,0.0000,0.0000,0.0000,4.13,-1.80,61.76,61.15,113,113,1.00000,1.00000,1.00000,1.00000,3,3,1,24.82516,0.00203,1.06350,-0.0072,-0.0932,0.0967,0.0000,0.0000,0.0000,-4.13,-11.72,176.31,1,1,1,113,221,0,0,0,0,0,0.00,0,0,0,0,0,0,0,0.00,0.00,0,0,0.0000,0.0000,0.0000,0.0000,0.0000
2026-04-20T17:41:28.815,1.894,0,0.00,0.00,0.00,0.00,1,0.0072,0.0932,0.2533,0.0000,0.0000,0.0000,4.12,0.64,64.00,59.12,114,114,1.00000,1.00000,1.00000,1.00000,3,3,1,24.79863,0.00218,1.06331,-0.0072,-0.0932,0.0967,0.0000,0.0000,0.0000,-4.12,-11.80,176.35,1,1,1,114,220,0,0,0,0,0,0.00,0,0,0,0,0,0,0,0.00,0.00,0,0,0.0000,0.0000,0.0000,0.0000,0.0000
2026-04-20T17:41:28.832,1.912,0,0.00,0.00,0.00,0.00,1,0.0073,0.0932,0.2535,0.0000,0.0000,0.0000,4.17,-2.78,58.38,59.46,115,115,1.00000,1.00000,1.00000,1.00000,3,3,1,24.83701,0.00221,1.06033,-0.0073,-0.0932,0.0965,0.0000,0.0000,0.0000,-4.17,-12.12,176.51,1,1,1,115,221,0,0,0,0,0,0.00,0,0,0,0,0,0,0,0.00,0.00,0,0,0.0000,0.0000,0.0000,0.0000,0.0000
2026-04-20T17:41:28.848,1.927,0,0.00,0.00,0.00,0.00,1,0.0073,0.0932,0.2533,0.0000,0.0000,0.0000,4.14,1.89,56.94,59.18,116,116,1.00000,1.00000,1.00000,1.00000,3,3,1,24.83703,0.00222,1.06368,-0.0073,-0.0932,0.0967,0.0000,0.0000,0.0000,-4.14,-12.09,176.36,1,1,1,116,221,0,0,0,0,0,0.00,0,0,0,0,0,0,0,0.00,0.00,0,0,0.0000,0.0000,0.0000,0.0000,0.0000
2026-04-20T17:41:28.865,1.944,0,0.00,0.00,0.00,0.00,1,0.0074,0.0931,0.2534,0.0000,0.0000,0.0000,4.13,0.62,63.45,60.01,117,117,1.00000,1.00000,1.00000,1.00000,3,3,1,24.83825,0.00222,1.06410,-0.0074,-0.0931,0.0966,0.0000,0.0000,0.0000,-4.13,-12.17,176.32,1,1,1,117,221,0,0,0,0,0,0.00,0,0,0,0,0,0,0,0.00,0.00,0,0,0.0000,0.0000,0.0000,0.0000,0.0000
2026-04-20T17:41:28.884,1.963,0,0.00,0.00,0.00,0.00,1,0.0074,0.0932,0.2534,0.0000,0.0000,0.0000,4.10,1.53,63.54,60.26,118,118,1.00000,1.00000,1.00000,1.00000,3,3,1,24.82851,0.00224,1.06354,-0.0074,-0.0932,0.0966,0.0000,0.0000,0.0000,-4.10,-12.15,176.24,1,1,1,118,220,0,0,0,0,0,0.00,0,0,0,0,0,0,0,0.00,0.00,0,0,0.0000,0.0000,0.0000,0.0000,0.0000
2026-04-20T17:41:28.900,1.980,0,0.00,0.00,0.00,0.00,1,0.0074,0.0932,0.2535,0.0000,0.0000,0.0000,4.17,-3.96,48.20,57.80,119,119,1.00000,1.00000,1.00000,1.00000,3,3,1,24.83064,0.00215,1.06180,-0.0074,-0.0932,0.0965,0.0000,0.0000,0.0000,-4.17,-12.29,176.45,1,1,1,119,221,0,0,0,0,0,0.00,0,0,0,0,0,0,0,0.00,0.00,0,0,0.0000,0.0000,0.0000,0.0000,0.0000
2026-04-20T17:41:28.915,1.995,0,0.00,0.00,0.00,0.00,1,0.0072,0.0931,0.2533,0.0000,0.0000,0.0000,4.19,-1.55,61.30,63.75,120,120,1.00000,1.00000,1.00000,1.00000,3,3,1,24.76582,0.00215,1.06337,-0.0072,-0.0931,0.0967,0.0000,0.0000,0.0000,-4.19,-12.07,176.46,1,1,1,120,221,0,0,0,0,0,0.00,0,0,0,0,0,0,0,0.00,0.00,0,0,0.0000,0.0000,0.0000,0.0000,0.0000
2026-04-20T17:41:28.932,2.012,0,0.00,0.00,0.00,0.00,1,0.0072,0.0931,0.2533,0.0000,0.0000,0.0000,4.16,1.58,68.49,58.66,121,121,1.00000,1.00000,1.00000,1.00000,3,3,1,24.83187,0.00218,1.06135,-0.0072,-0.0931,0.0967,0.0000,0.0000,0.0000,-4.16,-11.88,176.39,1,1,1,121,221,0,0,0,0,0,0.00,0,0,0,0,0,0,0,0.00,0.00,0,0,0.0000,0.0000,0.0000,0.0000,0.0000
2026-04-20T17:41:28.948,2.028,0,0.00,0.00,0.00,0.00,1,0.0072,0.0931,0.2533,0.0000,0.0000,0.0000,4.17,-0.68,59.03,63.32,122,122,1.00000,1.00000,1.00000,1.00000,3,3,1,24.77658,0.00221,1.06271,-0.0072,-0.0931,0.0967,0.0000,0.0000,0.0000,-4.17,-11.84,176.37,1,1,1,122,221,0,0,0,0,0,0.00,0,0,0,0,0,0,0,0.00,0.00,0,0,0.0000,0.0000,0.0000,0.0000,0.0000
2026-04-20T17:41:28.966,2.045,0,0.00,0.00,0.00,0.00,1,0.0073,0.0932,0.2532,0.0000,0.0000,0.0000,4.15,1.13,60.18,56.64,123,123,1.00000,1.00000,1.00000,1.00000,3,3,1,24.79141,0.00221,1.06463,-0.0073,-0.0932,0.0968,0.0000,0.0000,0.0000,-4.15,-11.85,176.32,1,1,1,123,221,0,0,0,0,0,0.00,0,0,0,0,0,0,0,0.00,0.00,0,0,0.0000,0.0000,0.0000,0.0000,0.0000
2026-04-20T17:41:28.983,2.062,0,0.00,0.00,0.00,0.00,1,0.0073,0.0931,0.2534,0.0000,0.0000,0.0000,4.11,2.31,57.77,60.77,124,124,1.00000,1.00000,1.00000,1.00000,3,3,1,24.80265,0.00220,1.06262,-0.0073,-0.0931,0.0966,0.0000,0.0000,0.0000,-4.11,-11.95,176.34,1,1,1,124,221,0,0,0,0,0,0.00,0,0,0,0,0,0,0,0.00,0.00,0,0,0.0000,0.0000,0.0000,0.0000,0.0000
2026-04-20T17:41:28.997,2.076,0,0.00,0.00,0.00,0.00,1,0.0072,0.0933,0.2532,0.0000,0.0000,0.0000,4.08,2.01,63.13,64.95,125,125,1.00000,1.00000,1.00000,1.00000,3,3,1,24.81228,0.00219,1.06372,-0.0072,-0.0933,0.0968,0.0000,0.0000,0.0000,-4.08,-11.84,176.46,1,1,1,125,221,0,0,0,0,0,0.00,0,0,0,0,0,0,0,0.00,0.00,0,0,0.0000,0.0000,0.0000,0.0000,0.0000
2026-04-20T17:41:29.015,2.094,0,0.00,0.00,0.00,0.00,1,0.0072,0.0932,0.2531,0.0000,0.0000,0.0000,4.11,-1.71,64.88,55.31,126,126,1.00000,1.00000,1.00000,1.00000,3,3,1,24.81811,0.00207,1.06360,-0.0072,-0.0932,0.0969,0.0000,0.0000,0.0000,-4.11,-11.77,176.44,1,1,1,126,221,0,0,0,0,0,0.00,0,0,0,0,0,0,0,0.00,0.00,0,0,0.0000,0.0000,0.0000,0.0000,0.0000
2026-04-20T17:41:29.031,2.111,0,0.00,0.00,0.00,0.00,1,0.0073,0.0933,0.2533,0.0000,0.0000,0.0000,4.14,-1.80,56.21,60.24,127,127,1.00000,1.00000,1.00000,1.00000,3,3,1,24.80114,0.00222,1.06198,-0.0073,-0.0933,0.0967,0.0000,0.0000,0.0000,-4.14,-12.03,176.49,1,1,1,127,221,0,0,0,0,0,0.00,0,0,0,0,0,0,0,0.00,0.00,0,0,0.0000,0.0000,0.0000,0.0000,0.0000
2026-04-20T17:41:29.048,2.127,0,0.00,0.00,0.00,0.00,1,0.0072,0.0932,0.2533,0.0000,0.0000,0.0000,4.18,-2.58,59.28,59.69,128,128,1.00000,1.00000,1.00000,1.00000,3,3,1,24.79770,0.00206,1.05927,-0.0072,-0.0932,0.0967,0.0000,0.0000,0.0000,-4.18,-11.92,176.49,1,1,1,128,221,0,0,0,0,0,0.00,0,0,0,0,0,0,0,0.00,0.00,0,0,0.0000,0.0000,0.0000,0.0000,0.0000
2026-04-20T17:41:29.064,2.144,0,0.00,0.00,0.00,0.00,1,0.0073,0.0933,0.2532,0.0000,0.0000,0.0000,4.17,0.56,64.59,62.47,129,129,1.00000,1.00000,1.00000,1.00000,3,3,1,24.84681,0.00212,1.06173,-0.0073,-0.0933,0.0968,0.0000,0.0000,0.0000,-4.17,-11.95,176.48,1,1,1,129,221,0,0,0,0,0,0.00,0,0,0,0,0,0,0,0.00,0.00,0,0,0.0000,0.0000,0.0000,0.0000,0.0000
2026-04-20T17:41:29.081,2.160,0,0.00,0.00,0.00,0.00,1,0.0073,0.0933,0.2531,0.0000,0.0000,0.0000,4.14,1.80,59.40,57.96,130,130,1.00000,1.00000,1.00000,1.00000,3,3,1,24.82094,0.00213,1.06246,-0.0073,-0.0933,0.0969,0.0000,0.0000,0.0000,-4.14,-11.97,176.42,1,1,1,130,221,0,0,0,0,0,0.00,0,0,0,0,0,0,0,0.00,0.00,0,0,0.0000,0.0000,0.0000,0.0000,0.0000
2026-04-20T17:41:29.097,2.177,0,0.00,0.00,0.00,0.00,1,0.0074,0.0933,0.2532,0.0000,0.0000,0.0000,4.11,1.96,56.51,64.83,131,131,1.00000,1.00000,1.00000,1.00000,3,3,1,24.86495,0.00212,1.06384,-0.0074,-0.0933,0.0968,0.0000,0.0000,0.0000,-4.11,-12.06,176.34,1,1,1,131,221,0,0,0,0,0,0.00,0,0,0,0,0,0,0,0.00,0.00,0,0,0.0000,0.0000,0.0000,0.0000,0.0000
2026-04-20T17:41:29.115,2.195,0,0.00,0.00,0.00,0.00,1,0.0072,0.0932,0.2532,0.0000,0.0000,0.0000,4.06,2.86,65.07,55.73,132,132,1.00000,1.00000,1.00000,1.00000,3,3,1,24.87350,0.00213,1.06237,-0.0072,-0.0932,0.0968,0.0000,0.0000,0.0000,-4.06,-11.89,176.24,1,1,1,132,221,0,0,0,0,0,0.00,0,0,0,0,0,0,0,0.00,0.00,0,0,0.0000,0.0000,0.0000,0.0000,0.0000
2026-04-20T17:41:29.131,2.211,0,0.00,0.00,0.00,0.00,1,0.0071,0.0932,0.2530,0.0000,0.0000,0.0000,4.02,2.30,59.18,60.04,133,133,1.00000,1.00000,1.00000,1.00000,3,3,1,24.80491,0.00205,1.06414,-0.0071,-0.0932,0.0970,0.0000,0.0000,0.0000,-4.02,-11.51,176.14,1,1,1,133,221,0,0,0,0,0,0.00,0,0,0,0,0,0,0,0.00,0.00,0,0,0.0000,0.0000,0.0000,0.0000,0.0000
2026-04-20T17:41:29.147,2.227,0,0.00,0.00,0.00,0.00,1,0.0073,0.0932,0.2532,0.0000,0.0000,0.0000,4.01,0.62,59.31,60.15,134,134,1.00000,1.00000,1.00000,1.00000,3,3,1,24.85988,0.00223,1.06496,-0.0073,-0.0932,0.0968,0.0000,0.0000,0.0000,-4.01,-11.79,176.12,1,1,1,134,218,0,0,0,0,0,0.00,0,0,0,0,0,0,0,0.00,0.00,0,0,0.0000,0.0000,0.0000,0.0000,0.0000
2026-04-20T17:41:29.165,2.245,0,0.00,0.00,0.00,0.00,1,0.0072,0.0933,0.2533,0.0000,0.0000,0.0000,4.10,-4.99,60.97,59.02,135,135,1.00000,1.00000,1.00000,1.00000,3,3,1,24.82093,0.00210,1.06219,-0.0072,-0.0933,0.0967,0.0000,0.0000,0.0000,-4.10,-11.80,176.31,1,1,1,135,219,0,0,0,0,0,0.00,0,0,0,0,0,0,0,0.00,0.00,0,0,0.0000,0.0000,0.0000,0.0000,0.0000
2026-04-20T17:41:29.182,2.262,0,0.00,0.00,0.00,0.00,1,0.0072,0.0933,0.2532,0.0000,0.0000,0.0000,4.14,-2.35,53.86,61.08,136,136,1.00000,1.00000,1.00000,1.00000,3,3,1,24.83906,0.00207,1.06151,-0.0072,-0.0933,0.0968,0.0000,0.0000,0.0000,-4.14,-11.68,176.46,1,1,1,136,221,0,0,0,0,0,0.00,0,0,0,0,0,0,0,0.00,0.00,0,0,0.0000,0.0000,0.0000,0.0000,0.0000
2026-04-20T17:41:29.199,2.278,0,0.00,0.00,0.00,0.00,1,0.0072,0.0932,0.2532,0.0000,0.0000,0.0000,4.17,-1.92,62.21,57.69,137,137,1.00000,1.00000,1.00000,1.00000,3,3,1,24.81708,0.00208,1.06104,-0.0072,-0.0932,0.0968,0.0000,0.0000,0.0000,-4.17,-11.75,176.49,1,1,1,137,221,0,0,0,0,0,0.00,0,0,0,0,0,0,0,0.00,0.00,0,0,0.0000,0.0000,0.0000,0.0000,0.0000
2026-04-20T17:41:29.215,2.295,0,0.00,0.00,0.00,0.00,1,0.0072,0.0931,0.2532,0.0000,0.0000,0.0000,4.10,4.23,60.02,60.61,138,138,1.00000,1.00000,1.00000,1.00000,3,3,1,24.81535,0.00214,1.06468,-0.0072,-0.0931,0.0968,0.0000,0.0000,0.0000,-4.10,-11.57,176.28,1,1,1,138,220,0,0,0,0,0,0.00,0,0,0,0,0,0,0,0.00,0.00,0,0,0.0000,0.0000,0.0000,0.0000,0.0000
2026-04-20T17:41:29.232,2.311,0,0.00,0.00,0.00,0.00,1,0.0071,0.0932,0.2532,0.0000,0.0000,0.0000,4.11,-0.63,60.38,62.60,139,139,1.00000,1.00000,1.00000,1.00000,3,3,1,24.84014,0.00210,1.06307,-0.0071,-0.0932,0.0968,0.0000,0.0000,0.0000,-4.11,-11.58,176.25,1,1,1,139,221,0,0,0,0,0,0.00,0,0,0,0,0,0,0,0.00,0.00,0,0,0.0000,0.0000,0.0000,0.0000,0.0000
2026-04-20T17:41:29.248,2.327,0,0.00,0.00,0.00,0.00,1,0.0072,0.0933,0.2531,0.0000,0.0000,0.0000,4.09,1.15,61.75,60.36,140,140,1.00000,1.00000,1.00000,1.00000,3,3,1,24.85558,0.00217,1.06277,-0.0072,-0.0933,0.0969,0.0000,0.0000,0.0000,-4.09,-11.81,176.29,1,1,1,140,221,0,0,0,0,0,0.00,0,0,0,0,0,0,0,0.00,0.00,0,0,0.0000,0.0000,0.0000,0.0000,0.0000
2026-04-20T17:41:29.266,2.346,0,0.00,0.00,0.00,0.00,1,0.0072,0.0933,0.2533,0.0000,0.0000,0.0000,4.06,1.71,62.07,59.11,141,141,1.00000,1.00000,1.00000,1.00000,3,3,1,24.83849,0.00213,1.06218,-0.0072,-0.0933,0.0967,0.0000,0.0000,0.0000,-4.06,-11.90,176.40,1,1,1,141,219,0,0,0,0,0,0.00,0,0,0,0,0,0,0,0.00,0.00,0,0,0.0000,0.0000,0.0000,0.0000,0.0000
2026-04-20T17:41:29.283,2.362,0,0.00,0.00,0.00,0.00,1,0.0072,0.0932,0.2532,0.0000,0.0000,0.0000,4.04,1.23,53.15,60.39,142,142,1.00000,1.00000,1.00000,1.00000,3,3,1,24.87971,0.00212,1.06254,-0.0072,-0.0932,0.0968,0.0000,0.0000,0.0000,-4.04,-11.82,176.28,1,1,1,142,221,0,0,0,0,0,0.00,0,0,0,0,0,0,0,0.00,0.00,0,0,0.0000,0.0000,0.0000,0.0000,0.0000
2026-04-20T17:41:29.298,2.378,0,0.00,0.00,0.00,0.00,1,0.0072,0.0931,0.2533,0.0000,0.0000,0.0000,4.06,-1.19,62.01,56.81,143,143,1.00000,1.00000,1.00000,1.00000,3,3,1,24.82592,0.00224,1.06398,-0.0072,-0.0931,0.0967,0.0000,0.0000,0.0000,-4.06,-11.81,176.22,1,1,1,143,221,0,0,0,0,0,0.00,0,0,0,0,0,0,0,0.00,0.00,0,0,0.0000,0.0000,0.0000,0.0000,0.0000
2026-04-20T17:41:29.316,2.396,0,0.00,0.00,0.00,0.00,1,0.0073,0.0932,0.2533,0.0000,0.0000,0.0000,4.06,0.00,63.73,61.61,144,144,1.00000,1.00000,1.00000,1.00000,3,3,1,24.85314,0.00223,1.06240,-0.0073,-0.0932,0.0967,0.0000,0.0000,0.0000,-4.06,-12.05,176.27,1,1,1,144,221,0,0,0,0,0,0.00,0,0,0,0,0,0,0,0.00,0.00,0,0,0.0000,0.0000,0.0000,0.0000,0.0000
2026-04-20T17:41:29.332,2.411,0,0.00,0.00,0.00,0.00,1,0.0072,0.0932,0.2533,0.0000,0.0000,0.0000,4.11,-3.25,55.16,60.97,145,145,1.00000,1.00000,1.00000,1.00000,3,3,1,24.84475,0.00217,1.06071,-0.0072,-0.0932,0.0967,0.0000,0.0000,0.0000,-4.11,-12.01,176.40,1,1,1,145,217,0,0,0,0,0,0.00,0,0,0,0,0,0,0,0.00,0.00,0,0,0.0000,0.0000,0.0000,0.0000,0.0000
2026-04-20T17:41:29.348,2.428,0,0.00,0.00,0.00,0.00,1,0.0072,0.0932,0.2532,0.0000,0.0000,0.0000,4.09,1.19,66.51,59.52,146,146,1.00000,1.00000,1.00000,1.00000,3,3,1,24.84443,0.00210,1.06308,-0.0072,-0.0932,0.0968,0.0000,0.0000,0.0000,-4.09,-11.85,176.36,1,1,1,146,221,0,0,0,0,0,0.00,0,0,0,0,0,0,0,0.00,0.00,0,0,0.0000,0.0000,0.0000,0.0000,0.0000
2026-04-20T17:41:29.365,2.444,0,0.00,0.00,0.00,0.00,1,0.0072,0.0932,0.2531,0.0000,0.0000,0.0000,4.10,-0.62,58.38,61.73,147,147,1.00000,1.00000,1.00000,1.00000,3,3,1,24.86123,0.00213,1.06153,-0.0072,-0.0932,0.0969,0.0000,0.0000,0.0000,-4.10,-11.74,176.43,1,1,1,147,220,0,0,0,0,0,0.00,0,0,0,0,0,0,0,0.00,0.00,0,0,0.0000,0.0000,0.0000,0.0000,0.0000
2026-04-20T17:41:29.382,2.461,0,0.00,0.00,0.00,0.00,1,0.0071,0.0932,0.2532,0.0000,0.0000,0.0000,4.10,0.00,62.06,59.54,148,148,1.00000,1.00000,1.00000,1.00000,3,3,1,24.82933,0.00217,1.06245,-0.0071,-0.0932,0.0968,0.0000,0.0000,0.0000,-4.10,-11.69,176.40,1,1,1,148,219,0,0,0,0,0,0.00,0,0,0,0,0,0,0,0.00,0.00,0,0,0.0000,0.0000,0.0000,0.0000,0.0000
2026-04-20T17:41:29.399,2.479,0,0.00,0.00,0.00,0.00,1,0.0072,0.0932,0.2533,0.0000,0.0000,0.0000,4.12,-1.12,62.89,58.52,149,149,1.00000,1.00000,1.00000,1.00000,3,3,1,24.86628,0.00212,1.06228,-0.0072,-0.0932,0.0967,0.0000,0.0000,0.0000,-4.12,-11.83,176.46,1,1,1,149,221,0,0,0,0,0,0.00,0,0,0,0,0,0,0,0.00,0.00,0,0,0.0000,0.0000,0.0000,0.0000,0.0000
2026-04-20T17:41:29.415,2.494,0,0.00,0.00,0.00,0.00,1,0.0071,0.0933,0.2529,0.0000,0.0000,0.0000,4.10,1.32,53.53,61.00,150,150,1.00000,1.00000,1.00000,1.00000,3,3,1,24.84483,0.00206,1.06151,-0.0071,-0.0933,0.0971,0.0000,0.0000,0.0000,-4.10,-11.59,176.45,1,1,1,150,220,0,0,0,0,0,0.00,0,0,0,0,0,0,0,0.00,0.00,0,0,0.0000,0.0000,0.0000,0.0000,0.0000
2026-04-20T17:41:29.432,2.511,0,0.00,0.00,0.00,0.00,1,0.0072,0.0932,0.2532,0.0000,0.0000,0.0000,4.05,2.73,64.06,60.63,151,151,1.00000,1.00000,1.00000,1.00000,3,3,1,24.86453,0.00229,1.06330,-0.0072,-0.0932,0.0968,0.0000,0.0000,0.0000,-4.05,-11.88,176.30,1,1,1,151,220,0,0,0,0,0,0.00,0,0,0,0,0,0,0,0.00,0.00,0,0,0.0000,0.0000,0.0000,0.0000,0.0000
2026-04-20T17:41:29.448,2.527,0,0.00,0.00,0.00,0.00,1,0.0070,0.0934,0.2530,0.0000,0.0000,0.0000,4.12,-4.53,56.26,61.97,152,152,1.00000,1.00000,1.00000,1.00000,3,3,1,24.84345,0.00207,1.06068,-0.0070,-0.0934,0.0970,0.0000,0.0000,0.0000,-4.12,-11.58,176.49,1,1,1,152,221,0,0,0,0,0,0.00,0,0,0,0,0,0,0,0.00,0.00,0,0,0.0000,0.0000,0.0000,0.0000,0.0000
2026-04-20T17:41:29.466,2.546,0,0.00,0.00,0.00,0.00,1,0.0070,0.0933,0.2530,0.0000,0.0000,0.0000,4.08,2.17,65.76,57.73,153,153,1.00000,1.00000,1.00000,1.00000,3,3,1,24.86045,0.00210,1.06128,-0.0070,-0.0933,0.0970,0.0000,0.0000,0.0000,-4.08,-11.51,176.41,1,1,1,153,221,0,0,0,0,0,0.00,0,0,0,0,0,0,0,0.00,0.00,0,0,0.0000,0.0000,0.0000,0.0000,0.0000
2026-04-20T17:41:29.483,2.563,0,0.00,0.00,0.00,0.00,1,0.0073,0.0931,0.2532,0.0000,0.0000,0.0000,4.09,-0.60,53.12,59.31,154,154,1.00000,1.00000,1.00000,1.00000,3,3,1,24.79603,0.00232,1.06590,-0.0073,-0.0931,0.0968,0.0000,0.0000,0.0000,-4.09,-11.86,176.21,1,1,1,154,221,0,0,0,0,0,0.00,0,0,0,0,0,0,0,0.00,0.00,0,0,0.0000,0.0000,0.0000,0.0000,0.0000
2026-04-20T17:41:29.498,2.577,0,0.00,0.00,0.00,0.00,1,0.0072,0.0932,0.2532,0.0000,0.0000,0.0000,4.07,1.28,65.19,61.94,155,155,1.00000,1.00000,1.00000,1.00000,3,3,1,24.83860,0.00215,1.06547,-0.0072,-0.0932,0.0968,0.0000,0.0000,0.0000,-4.07,-11.92,176.16,1,1,1,155,221,0,0,0,0,0,0.00,0,0,0,0,0,0,0,0.00,0.00,0,0,0.0000,0.0000,0.0000,0.0000,0.0000
2026-04-20T17:41:29.516,2.595,0,0.00,0.00,0.00,0.00,1,0.0071,0.0933,0.2531,0.0000,0.0000,0.0000,4.12,-2.98,58.18,57.70,156,156,1.00000,1.00000,1.00000,1.00000,3,3,1,24.86083,0.00206,1.05908,-0.0071,-0.0933,0.0969,0.0000,0.0000,0.0000,-4.12,-11.85,176.42,1,1,1,156,221,0,0,0,0,0,0.00,0,0,0,0,0,0,0,0.00,0.00,0,0,0.0000,0.0000,0.0000,0.0000,0.0000
2026-04-20T17:41:29.532,2.611,0,0.00,0.00,0.00,0.00,1,0.0072,0.0932,0.2531,0.0000,0.0000,0.0000,4.10,1.22,59.94,64.54,157,157,1.00000,1.00000,1.00000,1.00000,3,3,1,24.84658,0.00220,1.06129,-0.0072,-0.0932,0.0969,0.0000,0.0000,0.0000,-4.10,-11.97,176.35,1,1,1,157,220,0,0,0,0,0,0.00,0,0,0,0,0,0,0,0.00,0.00,0,0,0.0000,0.0000,0.0000,0.0000,0.0000
2026-04-20T17:41:29.548,2.627,0,0.00,0.00,0.00,0.00,1,0.0073,0.0931,0.2533,0.0000,0.0000,0.0000,4.06,2.53,62.40,59.37,158,158,1.00000,1.00000,1.00000,1.00000,3,3,1,24.80252,0.00218,1.06484,-0.0073,-0.0931,0.0967,0.0000,0.0000,0.0000,-4.06,-12.05,176.25,1,1,1,158,221,0,0,0,0,0,0.00,0,0,0,0,0,0,0,0.00,0.00,0,0,0.0000,0.0000,0.0000,0.0000,0.0000
2026-04-20T17:41:29.567,2.646,0,0.00,0.00,0.00,0.00,1,0.0071,0.0931,0.2532,0.0000,0.0000,0.0000,4.08,-1.07,63.24,58.59,159,159,1.00000,1.00000,1.00000,1.00000,3,3,1,24.84612,0.00203,1.06110,-0.0071,-0.0931,0.0968,0.0000,0.0000,0.0000,-4.08,-11.76,176.26,1,1,1,159,221,0,0,0,0,0,0.00,0,0,0,0,0,0,0,0.00,0.00,0,0,0.0000,0.0000,0.0000,0.0000,0.0000
2026-04-20T17:41:29.582,2.662,0,0.00,0.00,0.00,0.00,1,0.0072,0.0933,0.2531,0.0000,0.0000,0.0000,4.11,-1.79,53.61,59.23,160,160,1.00000,1.00000,1.00000,1.00000,3,3,1,24.82404,0.00206,1.05845,-0.0072,-0.0933,0.0969,0.0000,0.0000,0.0000,-4.11,-11.70,176.46,1,1,1,160,220,0,0,0,0,0,0.00,0,0,0,0,0,0,0,0.00,0.00,0,0,0.0000,0.0000,0.0000,0.0000,0.0000
2026-04-20T17:41:29.597,2.677,0,0.00,0.00,0.00,0.00,1,0.0072,0.0931,0.2532,0.0000,0.0000,0.0000,4.13,-1.33,62.44,59.52,161,161,1.00000,1.00000,1.00000,1.00000,3,3,1,24.82864,0.00214,1.06405,-0.0072,-0.0931,0.0968,0.0000,0.0000,0.0000,-4.13,-11.81,176.36,1,1,1,161,221,0,0,0,0,0,0.00,0,0,0,0,0,0,0,0.00,0.00,0,0,0.0000,0.0000,0.0000,0.0000,0.0000
2026-04-20T17:41:29.616,2.695,0,0.00,0.00,0.00,0.00,1,0.0073,0.0932,0.2533,0.0000,0.0000,0.0000,4.14,-0.59,66.09,60.97,162,162,1.00000,1.00000,1.00000,1.00000,3,3,1,24.82375,0.00220,1.06142,-0.0073,-0.0932,0.0967,0.0000,0.0000,0.0000,-4.14,-12.05,176.43,1,1,1,162,221,0,0,0,0,0,0.00,0,0,0,0,0,0,0,0.00,0.00,0,0,0.0000,0.0000,0.0000,0.0000,0.0000
2026-04-20T17:41:29.634,2.714,0,0.00,0.00,0.00,0.00,1,0.0072,0.0932,0.2532,0.0000,0.0000,0.0000,4.14,0.00,55.04,60.09,163,163,1.00000,1.00000,1.00000,1.00000,3,3,1,24.81045,0.00207,1.06160,-0.0072,-0.0932,0.0968,0.0000,0.0000,0.0000,-4.14,-11.86,176.43,1,1,1,163,221,0,0,0,0,0,0.00,0,0,0,0,0,0,0,0.00,0.00,0,0,0.0000,0.0000,0.0000,0.0000,0.0000
2026-04-20T17:41:29.648,2.727,0,0.00,0.00,0.00,0.00,1,0.0073,0.0931,0.2533,0.0000,0.0000,0.0000,4.04,8.23,51.42,60.23,164,164,1.00000,1.00000,1.00000,1.00000,3,3,1,24.85038,0.00211,1.06483,-0.0073,-0.0931,0.0967,0.0000,0.0000,0.0000,-4.04,-11.74,176.31,1,1,1,164,221,0,0,0,0,0,0.00,0,0,0,0,0,0,0,0.00,0.00,0,0,0.0000,0.0000,0.0000,0.0000,0.0000
2026-04-20T17:41:29.665,2.744,0,0.00,0.00,0.00,0.00,1,0.0073,0.0931,0.2533,0.0000,0.0000,0.0000,4.08,-2.23,78.24,61.12,165,165,1.00000,1.00000,1.00000,1.00000,3,3,1,24.83065,0.00218,1.06310,-0.0073,-0.0931,0.0967,0.0000,0.0000,0.0000,-4.08,-11.83,176.36,1,1,1,165,221,0,0,0,0,0,0.00,0,0,0,0,0,0,0,0.00,0.00,0,0,0.0000,0.0000,0.0000,0.0000,0.0000
2026-04-20T17:41:29.683,2.763,0,0.00,0.00,0.00,0.00,1,0.0072,0.0931,0.2533,0.0000,0.0000,0.0000,4.11,-1.65,58.82,57.18,166,166,1.00000,1.00000,1.00000,1.00000,3,3,1,24.82112,0.00204,1.06210,-0.0072,-0.0931,0.0967,0.0000,0.0000,0.0000,-4.11,-11.61,176.33,1,1,1,166,221,0,0,0,0,0,0.00,0,0,0,0,0,0,0,0.00,0.00,0,0,0.0000,0.0000,0.0000,0.0000,0.0000
2026-04-20T17:41:29.697,2.777,0,0.00,0.00,0.00,0.00,1,0.0072,0.0932,0.2532,0.0000,0.0000,0.0000,4.06,3.40,58.27,59.93,167,167,1.00000,1.00000,1.00000,1.00000,3,3,1,24.83461,0.00211,1.06275,-0.0072,-0.0932,0.0968,0.0000,0.0000,0.0000,-4.06,-11.64,176.28,1,1,1,167,221,0,0,0,0,0,0.00,0,0,0,0,0,0,0,0.00,0.00,0,0,0.0000,0.0000,0.0000,0.0000,0.0000
2026-04-20T17:41:29.716,2.795,0,0.00,0.00,0.00,0.00,1,0.0073,0.0932,0.2532,0.0000,0.0000,0.0000,4.09,-1.69,65.64,61.70,168,168,1.00000,1.00000,1.00000,1.00000,3,3,1,24.85303,0.00214,1.05962,-0.0073,-0.0932,0.0968,0.0000,0.0000,0.0000,-4.09,-11.85,176.37,1,1,1,168,221,0,0,0,0,0,0.00,0,0,0,0,0,0,0,0.00,0.00,0,0,0.0000,0.0000,0.0000,0.0000,0.0000
2026-04-20T17:41:29.733,2.812,0,0.00,0.00,0.00,0.00,1,0.0073,0.0930,0.2534,0.0000,0.0000,0.0000,4.10,-0.60,54.28,60.34,169,169,1.00000,1.00000,1.00000,1.00000,3,3,1,24.79690,0.00227,1.06539,-0.0073,-0.0930,0.0966,0.0000,0.0000,0.0000,-4.10,-11.89,176.23,1,1,1,169,220,0,0,0,0,0,0.00,0,0,0,0,0,0,0,0.00,0.00,0,0,0.0000,0.0000,0.0000,0.0000,0.0000
2026-04-20T17:41:29.747,2.827,0,0.00,0.00,0.00,0.00,1,0.0072,0.0932,0.2533,0.0000,0.0000,0.0000,4.14,-2.58,59.05,58.05,170,170,1.00000,1.00000,1.00000,1.00000,3,3,1,24.82761,0.00210,1.06225,-0.0072,-0.0932,0.0967,0.0000,0.0000,0.0000,-4.14,-11.82,176.33,1,1,1,170,221,0,0,0,0,0,0.00,0,0,0,0,0,0,0,0.00,0.00,0,0,0.0000,0.0000,0.0000,0.0000,0.0000
2026-04-20T17:41:29.764,2.844,0,0.00,0.00,0.00,0.00,1,0.0072,0.0932,0.2532,0.0000,0.0000,0.0000,4.10,2.49,68.89,62.24,171,171,1.00000,1.00000,1.00000,1.00000,3,3,1,24.79346,0.00216,1.06267,-0.0072,-0.0932,0.0968,0.0000,0.0000,0.0000,-4.10,-11.75,176.29,1,1,1,171,220,0,0,0,0,0,0.00,0,0,0,0,0,0,0,0.00,0.00,0,0,0.0000,0.0000,0.0000,0.0000,0.0000
