iso_time,elapsed_s,imu_ready,imu_pitch_deg,imu_roll_deg,imu_pitch_rate_deg_s,imu_roll_rate_deg_s,mocap_valid,mocap_x_error_m,mocap_y_error_m,mocap_z_error_m,mocap_vx_m_s,mocap_vy_m_s,mocap_vz_m_s,mocap_yaw_error_deg,mocap_yaw_rate_deg_s,backend_loop_hz,tracking_loop_hz,frames_processed,valid_pose_frames,pose_success_rate,full_marker_detection_rate,cam1_full_detection_rate,cam2_full_detection_rate,cam1_leds,cam2_leds,spatial_data_valid,mapping_error_px,model_fit_error_m,scale_factor,position_x_m,position_y_m,position_z_m,velocity_x_m_s,velocity_y_m_s,velocity_z_m_s,yaw_deg,pitch_deg,roll_deg,serial_connected,serial_send_enabled,serial_send_ok,serial_payload_seq,serial_payload_size_bytes,bridge_serial_frames_rx,bridge_espnow_tx_attempts,bridge_espnow_tx_ok,bridge_espnow_tx_fail,bridge_oversize_drops,bridge_tx_rate_hz,bridge_last_tx_seq,bridge_last_tx_latency_us,controller_rx_packets,controller_rx_missing_packets,controller_rx_duplicate_packets,controller_rx_out_of_order_packets,controller_last_rx_seq,controller_loop_hz,controller_control_hz,controller_command_age_ms,controller_apply_latency_us,controller_motor_imbalance,motor_1_output,motor_2_output,motor_3_output,motor_4_output
2026-04-20T19:18:22.611,0.018,1,0.09,-0.72,-0.06,-0.10,1,0.0158,0.0816,0.2559,0.0000,0.0000,0.0000,15.21,0.54,55.16,58.73,1,1,1.00000,1.00000,1.00000,1.00000,3,3,1,24.62881,0.00201,1.06122,-0.0158,-0.0816,0.0941,0.0000,0.0000,0.0000,-15.21,-12.77,179.02,1,1,1,1,223,0,0,0,0,0,0.00,0,0,0,0,0,0,0,0.00,0.00,0,0,0.0000,0.0000,0.0000,0.0000,0.0000
2026-04-20T19:18:22.627,0.033,1,0.09,-0.72,-0.01,0.04,1,0.0158,0.0815,0.2560,0.0000,0.0000,0.0000,15.19,1.32,59.71,59.05,2,2,1.00000,1.00000,1.00000,1.00000,3,3,1,24.61626,0.00224,1.06365,-0.0158,-0.0815,0.0940,0.0000,0.0000,0.0000,-15.19,-12.90,178.89,1,1,1,2,222,0,0,0,0,0,0.00,0,0,0,0,0,0,0,0.00,0.00,0,0,0.0000,0.0000,0.0000,0.0000,0.0000
2026-04-20T19:18:22.643,0.050,1,0.09,-0.72,-0.01,0.04,1,0.0158,0.0815,0.2561,0.0000,0.0000,0.0000,15.16,1.78,64.13,63.85,3,3,1.00000,1.00000,1.00000,1.00000,3,3,1,24.56746,0.00198,1.06022,-0.0158,-0.0815,0.0939,0.0000,0.0000,0.0000,-15.16,-12.90,178.97,1,1,1,3,222,0,0,0,0,0,0.00,0,0,0,0,0,0,0,0.00,0.00,0,0,0.0000,0.0000,0.0000,0.0000,0.0000
2026-04-20T19:18:22.661,0.067,1,0.09,-0.72,-0.01,0.04,1,0.0158,0.0816,0.2562,0.0000,0.0000,0.0000,15.16,0.00,61.64,55.51,4,4,1.00000,1.00000,1.00000,1.00000,3,3,1,24.59269,0.00211,1.06037,-0.0158,-0.0816,0.0938,0.0000,0.0000,0.0000,-15.16,-12.90,179.06,1,1,1,4,222,0,0,0,0,0,0.00,0,0,0,0,0,0,0,0.00,0.00,0,0,0.0000,0.0000,0.0000,0.0000,0.0000
2026-04-20T19:18:22.677,0.083,1,0.09,-0.72,-0.01,0.04,1,0.0158,0.0816,0.2561,0.0000,0.0000,0.0000,15.23,-4.16,56.98,64.25,5,5,1.00000,1.00000,1.00000,1.00000,3,3,1,24.58457,0.00203,1.06095,-0.0158,-0.0816,0.0939,0.0000,0.0000,0.0000,-15.23,-12.84,179.15,1,1,1,5,223,0,0,0,0,0,0.00,0,0,0,0,0,0,0,0.00,0.00,0,0,0.0000,0.0000,0.0000,0.0000,0.0000
2026-04-20T19:18:22.693,0.099,1,0.09,-0.72,-0.01,0.04,1,0.0159,0.0815,0.2562,0.0000,0.0000,0.0000,15.21,1.29,67.45,147.31,6,6,1.00000,1.00000,1.00000,1.00000,3,3,1,24.59346,0.00211,1.06056,-0.0159,-0.0815,0.0938,0.0000,0.0000,0.0000,-15.21,-13.00,179.12,1,1,1,6,220,0,0,0,0,0,0.00,0,0,0,0,0,0,0,0.00,0.00,0,0,0.0000,0.0000,0.0000,0.0000,0.0000
2026-04-20T19:18:22.709,0.116,1,0.09,-0.72,-0.01,0.04,1,0.0159,0.0815,0.2563,0.0000,0.0000,0.0000,15.19,1.21,56.96,36.92,7,7,1.00000,1.00000,1.00000,1.00000,3,3,1,24.56789,0.00204,1.05921,-0.0159,-0.0815,0.0937,0.0000,0.0000,0.0000,-15.19,-13.08,179.17,1,1,1,7,223,0,0,0,0,0,0.00,0,0,0,0,0,0,0,0.00,0.00,0,0,0.0000,0.0000,0.0000,0.0000,0.0000
2026-04-20T19:18:22.727,0.133,1,0.09,-0.72,-0.01,0.04,1,0.0158,0.0816,0.2561,0.0000,0.0000,0.0000,15.24,-3.00,62.27,105.90,8,8,1.00000,1.00000,1.00000,1.00000,3,3,1,24.64124,0.00206,1.05755,-0.0158,-0.0816,0.0939,0.0000,0.0000,0.0000,-15.24,-13.04,179.18,1,1,1,8,223,0,0,0,0,0,0.00,0,0,0,0,0,0,0,0.00,0.00,0,0,0.0000,0.0000,0.0000,0.0000,0.0000
2026-04-20T19:18:22.743,0.149,1,0.09,-0.72,-0.01,0.04,1,0.0158,0.0816,0.2561,0.0000,0.0000,0.0000,15.25,-0.58,56.60,52.09,9,9,1.00000,1.00000,1.00000,1.00000,3,3,1,24.62343,0.00204,1.05942,-0.0158,-0.0816,0.0939,0.0000,0.0000,0.0000,-15.25,-13.04,179.19,1,1,1,9,223,0,0,0,0,0,0.00,0,0,0,0,0,0,0,0.00,0.00,0,0,0.0000,0.0000,0.0000,0.0000,0.0000
2026-04-20T19:18:22.760,0.166,1,0.09,-0.72,-0.01,0.04,1,0.0158,0.0816,0.2561,0.0000,0.0000,0.0000,15.22,2.17,59.99,46.96,10,10,1.00000,1.00000,1.00000,1.00000,3,3,1,24.61493,0.00191,1.05829,-0.0158,-0.0816,0.0939,0.0000,0.0000,0.0000,-15.22,-12.90,179.16,1,1,1,10,222,0,0,0,0,0,0.00,0,0,0,0,0,0,0,0.00,0.00,0,0,0.0000,0.0000,0.0000,0.0000,0.0000
2026-04-20T19:18:22.775,0.182,1,0.39,-0.54,4.06,5.75,1,0.0159,0.0816,0.2562,0.0000,0.0000,0.0000,15.22,0.00,66.12,59.10,11,11,1.00000,1.00000,1.00000,1.00000,3,3,1,24.62321,0.00209,1.05851,-0.0159,-0.0816,0.0938,0.0000,0.0000,0.0000,-15.22,-13.07,179.22,1,1,1,11,223,0,0,0,0,0,0.00,0,0,0,0,0,0,0,0.00,0.00,0,0,0.0000,0.0000,0.0000,0.0000,0.0000
2026-04-20T19:18:22.794,0.200,1,0.39,-0.54,4.06,5.75,1,0.0159,0.0814,0.2563,0.0000,0.0000,0.0000,15.10,6.99,58.25,94.55,12,12,1.00000,1.00000,1.00000,1.00000,3,3,1,24.62819,0.00209,1.06082,-0.0159,-0.0814,0.0937,0.0000,0.0000,0.0000,-15.10,-13.10,178.96,1,1,1,12,221,0,0,0,0,0,0.00,0,0,0,0,0,0,0,0.00,0.00,0,0,0.0000,0.0000,0.0000,0.0000,0.0000
2026-04-20T19:18:22.807,0.213,1,0.39,-0.54,4.06,5.75,1,0.0160,0.0812,0.2563,0.0000,0.0000,0.0000,14.98,8.42,53.40,45.82,13,13,1.00000,1.00000,1.00000,1.00000,3,3,1,24.62557,0.00208,1.06252,-0.0160,-0.0812,0.0937,0.0000,0.0000,0.0000,-14.98,-13.07,178.58,1,1,1,13,223,0,0,0,0,0,0.00,0,0,0,0,0,0,0,0.00,0.00,0,0,0.0000,0.0000,0.0000,0.0000,0.0000
2026-04-20T19:18:22.828,0.234,1,0.37,-0.45,4.23,6.84,1,0.0160,0.0813,0.2564,0.0000,0.0000,0.0000,14.82,8.03,67.45,134.23,14,14,1.00000,1.00000,1.00000,1.00000,3,3,1,24.57351,0.00182,1.05913,-0.0160,-0.0813,0.0936,0.0000,0.0000,0.0000,-14.82,-12.84,178.62,1,1,1,14,223,0,0,0,0,0,0.00,0,0,0,0,0,0,0,0.00,0.00,0,0,0.0000,0.0000,0.0000,0.0000,0.0000
2026-04-20T19:18:22.844,0.250,1,0.37,-0.45,4.23,6.84,1,0.0161,0.0811,0.2565,0.0000,0.0000,0.0000,14.57,15.71,54.58,43.96,15,15,1.00000,1.00000,1.00000,1.00000,3,3,1,24.55577,0.00184,1.06161,-0.0161,-0.0811,0.0935,0.0000,0.0000,0.0000,-14.57,-12.75,178.56,1,1,1,15,223,0,0,0,0,0,0.00,0,0,0,0,0,0,0,0.00,0.00,0,0,0.0000,0.0000,0.0000,0.0000,0.0000
2026-04-20T19:18:22.859,0.265,1,0.37,-0.45,4.23,6.84,1,0.0160,0.0810,0.2564,0.0000,0.0000,0.0000,14.31,16.22,62.88,50.41,16,16,1.00000,1.00000,1.00000,1.00000,3,3,1,24.55475,0.00190,1.06174,-0.0160,-0.0810,0.0936,0.0000,0.0000,0.0000,-14.31,-12.47,178.50,1,1,1,16,222,0,0,0,0,0,0.00,0,0,0,0,0,0,0,0.00,0.00,0,0,0.0000,0.0000,0.0000,0.0000,0.0000
2026-04-20T19:18:22.876,0.282,1,0.37,-0.45,4.23,6.84,1,0.0162,0.0811,0.2566,0.0000,0.0000,0.0000,14.12,11.30,66.53,59.82,17,17,1.00000,1.00000,1.00000,1.00000,3,3,1,24.53120,0.00197,1.06096,-0.0162,-0.0811,0.0934,0.0000,0.0000,0.0000,-14.12,-12.35,178.61,1,1,1,17,223,0,0,0,0,0,0.00,0,0,0,0,0,0,0,0.00,0.00,0,0,0.0000,0.0000,0.0000,0.0000,0.0000
2026-04-20T19:18:22.893,0.299,1,0.11,-0.67,3.30,2.34,1,0.0163,0.0810,0.2567,0.0000,0.0000,0.0000,14.23,-6.60,57.77,137.69,18,18,1.00000,1.00000,1.00000,1.00000,3,3,1,24.54441,0.00183,1.06027,-0.0163,-0.0810,0.0933,0.0000,0.0000,0.0000,-14.23,-12.28,178.91,1,1,1,18,223,0,0,0,0,0,0.00,0,0,0,0,0,0,0,0.00,0.00,0,0,0.0000,0.0000,0.0000,0.0000,0.0000
2026-04-20T19:18:22.909,0.315,1,0.11,-0.67,3.30,2.34,1,0.0164,0.0810,0.2563,0.0000,0.0000,0.0000,14.28,-3.02,58.28,41.57,19,19,1.00000,1.00000,1.00000,1.00000,3,3,1,24.57404,0.00183,1.06067,-0.0164,-0.0810,0.0937,0.0000,0.0000,0.0000,-14.28,-12.16,178.83,1,1,1,19,223,0,0,0,0,0,0.00,0,0,0,0,0,0,0,0.00,0.00,0,0,0.0000,0.0000,0.0000,0.0000,0.0000
2026-04-20T19:18:22.926,0.332,1,0.11,-0.67,3.30,2.34,1,0.0165,0.0808,0.2563,0.0000,0.0000,0.0000,14.49,-12.40,60.41,52.00,20,20,1.00000,1.00000,1.00000,1.00000,3,3,1,24.58429,0.00185,1.06121,-0.0165,-0.0808,0.0937,0.0000,0.0000,0.0000,-14.49,-12.12,178.83,1,1,1,20,223,0,0,0,0,0,0.00,0,0,0,0,0,0,0,0.00,0.00,0,0,0.0000,0.0000,0.0000,0.0000,0.0000
2026-04-20T19:18:22.943,0.349,1,0.31,-0.86,1.87,-6.35,1,0.0166,0.0808,0.2564,0.0000,0.0000,0.0000,14.61,-7.28,62.75,63.12,21,21,1.00000,1.00000,1.00000,1.00000,3,3,1,24.54205,0.00190,1.06026,-0.0166,-0.0808,0.0936,0.0000,0.0000,0.0000,-14.61,-12.20,178.95,1,1,1,21,222,0,0,0,0,0,0.00,0,0,0,0,0,0,0,0.00,0.00,0,0,0.0000,0.0000,0.0000,0.0000,0.0000
2026-04-20T19:18:22.959,0.365,1,0.31,-0.86,1.87,-6.35,1,0.0172,0.0803,0.2569,-0.0102,0.0000,0.0000,14.79,-11.43,57.21,58.74,22,22,1.00000,1.00000,1.00000,1.00000,3,3,1,24.53329,0.00201,1.06252,-0.0172,-0.0803,0.0931,-0.0102,0.0000,0.0000,-14.79,-12.99,178.97,1,1,1,22,226,0,0,0,0,0,0.00,0,0,0,0,0,0,0,0.00,0.00,0,0,0.0000,0.0000,0.0000,0.0000,0.0000
2026-04-20T19:18:22.975,0.382,1,0.31,-0.86,1.87,-6.35,1,0.0173,0.0803,0.2569,0.0000,0.0000,0.0000,14.85,-3.43,63.34,63.88,23,23,1.00000,1.00000,1.00000,1.00000,3,3,1,24.52899,0.00204,1.06183,-0.0173,-0.0803,0.0931,0.0000,0.0000,0.0000,-14.85,-13.12,179.05,1,1,1,23,222,0,0,0,0,0,0.00,0,0,0,0,0,0,0,0.00,0.00,0,0,0.0000,0.0000,0.0000,0.0000,0.0000
2026-04-20T19:18:22.992,0.399,1,0.00,0.00,17.74,0.00,1,0.0175,0.0802,0.2570,0.0000,0.0000,0.0000,14.95,-6.30,59.07,58.31,24,24,1.00000,1.00000,1.00000,1.00000,3,3,1,24.52095,0.00198,1.06099,-0.0175,-0.0802,0.0930,0.0000,0.0000,0.0000,-14.95,-13.20,179.22,1,1,1,24,221,0,0,0,0,0,0.00,0,0,0,0,0,0,0,0.00,0.00,0,0,0.0000,0.0000,0.0000,0.0000,0.0000
2026-04-20T19:18:23.008,0.415,1,0.00,0.00,17.74,0.00,1,0.0176,0.0800,0.2570,0.0000,0.0000,0.0000,14.93,1.17,61.07,59.55,25,25,1.00000,1.00000,1.00000,1.00000,3,3,1,24.52719,0.00194,1.06168,-0.0176,-0.0800,0.0930,0.0000,0.0000,0.0000,-14.93,-13.15,179.13,1,1,1,25,222,0,0,0,0,0,0.00,0,0,0,0,0,0,0,0.00,0.00,0,0,0.0000,0.0000,0.0000,0.0000,0.0000
2026-04-20T19:18:23.027,0.433,1,0.00,0.00,17.74,0.00,1,0.0178,0.0799,0.2570,0.0000,0.0000,0.0000,14.95,-1.17,61.83,87.26,26,26,1.00000,1.00000,1.00000,1.00000,3,3,1,24.50290,0.00197,1.05941,-0.0178,-0.0799,0.0930,0.0000,0.0000,0.0000,-14.95,-12.99,179.13,1,1,1,26,222,0,0,0,0,0,0.00,0,0,0,0,0,0,0,0.00,0.00,0,0,0.0000,0.0000,0.0000,0.0000,0.0000
2026-04-20T19:18:23.042,0.448,1,0.00,0.00,17.74,0.00,1,0.0181,0.0797,0.2569,-0.0107,0.0000,0.0000,14.91,2.45,54.08,45.58,27,27,1.00000,1.00000,1.00000,1.00000,3,3,1,24.54649,0.00211,1.06001,-0.0181,-0.0797,0.0931,-0.0107,0.0000,0.0000,-14.91,-13.09,178.84,1,1,1,27,227,0,0,0,0,0,0.00,0,0,0,0,0,0,0,0.00,0.00,0,0,0.0000,0.0000,0.0000,0.0000,0.0000
2026-04-20T19:18:23.059,0.465,1,0.00,0.00,17.74,0.00,1,0.0183,0.0797,0.2568,-0.0101,0.0000,0.0000,14.80,7.02,67.63,60.27,28,28,1.00000,1.00000,1.00000,1.00000,3,3,1,24.53517,0.00214,1.05922,-0.0183,-0.0797,0.0932,-0.0101,0.0000,0.0000,-14.80,-13.08,178.81,1,1,1,28,225,0,0,0,0,0,0.00,0,0,0,0,0,0,0,0.00,0.00,0,0,0.0000,0.0000,0.0000,0.0000,0.0000
2026-04-20T19:18:23.075,0.482,1,0.00,0.00,17.74,0.00,1,0.0185,0.0795,0.2570,-0.0110,0.0000,0.0000,14.71,4.99,60.61,155.71,29,29,1.00000,1.00000,1.00000,1.00000,3,3,1,24.42221,0.00223,1.06089,-0.0185,-0.0795,0.0930,-0.0110,0.0000,0.0000,-14.71,-12.93,178.87,1,1,1,29,227,0,0,0,0,0,0.00,0,0,0,0,0,0,0,0.00,0.00,0,0,0.0000,0.0000,0.0000,0.0000,0.0000
2026-04-20T19:18:23.095,0.501,1,0.00,0.00,17.74,0.00,1,0.0186,0.0793,0.2571,0.0000,0.0000,0.0000,14.62,4.79,56.41,36.03,30,30,1.00000,1.00000,1.00000,1.00000,3,3,1,24.44037,0.00196,1.06033,-0.0186,-0.0793,0.0929,0.0000,0.0000,0.0000,-14.62,-12.40,178.85,1,1,1,30,222,0,0,0,0,0,0.00,0,0,0,0,0,0,0,0.00,0.00,0,0,0.0000,0.0000,0.0000,0.0000,0.0000
2026-04-20T19:18:23.112,0.519,1,0.00,0.00,17.74,0.00,1,0.0187,0.0793,0.2569,0.0000,0.0000,0.0000,14.57,2.94,51.84,64.38,31,31,1.00000,1.00000,1.00000,1.00000,3,3,1,24.47931,0.00170,1.05714,-0.0187,-0.0793,0.0931,0.0000,0.0000,0.0000,-14.57,-11.69,178.86,1,1,1,31,223,0,0,0,0,0,0.00,0,0,0,0,0,0,0,0.00,0.00,0,0,0.0000,0.0000,0.0000,0.0000,0.0000
2026-04-20T19:18:23.127,0.533,1,0.00,0.00,17.74,0.00,1,0.0195,0.0793,0.2571,-0.0157,0.0000,0.0000,14.54,1.91,58.71,56.04,32,32,1.00000,1.00000,1.00000,1.00000,3,3,1,24.42936,0.00176,1.06133,-0.0195,-0.0793,0.0929,-0.0157,0.0000,0.0000,-14.54,-11.88,179.17,1,1,1,32,228,0,0,0,0,0,0.00,0,0,0,0,0,0,0,0.00,0.00,0,0,0.0000,0.0000,0.0000,0.0000,0.0000
2026-04-20T19:18:23.146,0.553,1,0.00,0.00,17.74,0.00,1,0.0201,0.0791,0.2572,-0.0189,0.0000,0.0000,14.46,4.37,58.51,58.54,33,33,1.00000,1.00000,1.00000,1.00000,3,3,1,24.46580,0.00196,1.06155,-0.0201,-0.0791,0.0928,-0.0189,0.0000,0.0000,-14.46,-12.47,179.26,1,1,1,33,227,0,0,0,0,0,0.00,0,0,0,0,0,0,0,0.00,0.00,0,0,0.0000,0.0000,0.0000,0.0000,0.0000
2026-04-20T19:18:23.162,0.568,1,0.00,0.00,17.74,0.00,1,0.0205,0.0792,0.2571,-0.0202,0.0000,0.0000,14.29,10.27,59.18,63.83,34,34,1.00000,1.00000,1.00000,1.00000,3,3,1,24.40295,0.00199,1.05699,-0.0205,-0.0792,0.0929,-0.0202,0.0000,0.0000,-14.29,-12.48,179.35,1,1,1,34,227,0,0,0,0,0,0.00,0,0,0,0,0,0,0,0.00,0.00,0,0,0.0000,0.0000,0.0000,0.0000,0.0000
2026-04-20T19:18:23.177,0.584,1,0.00,0.00,17.74,0.00,1,0.0209,0.0789,0.2570,-0.0203,0.0000,0.0000,14.23,3.88,60.35,59.53,35,35,1.00000,1.00000,1.00000,1.00000,3,3,1,24.44882,0.00187,1.05827,-0.0209,-0.0789,0.0930,-0.0203,0.0000,0.0000,-14.23,-12.24,179.24,1,1,1,35,227,0,0,0,0,0,0.00,0,0,0,0,0,0,0,0.00,0.00,0,0,0.0000,0.0000,0.0000,0.0000,0.0000
2026-04-20T19:18:23.195,0.602,1,1.22,-1.20,50.83,0.74,1,0.0217,0.0788,0.2566,-0.0252,0.0000,0.0000,14.15,4.65,74.32,135.37,36,36,1.00000,1.00000,1.00000,1.00000,3,3,1,24.49454,0.00189,1.06049,-0.0217,-0.0788,0.0934,-0.0252,0.0000,0.0000,-14.15,-12.61,179.05,1,1,1,36,228,0,0,0,0,0,0.00,0,0,0,0,0,0,0,0.00,0.00,0,0,0.0000,0.0000,0.0000,0.0000,0.0000
2026-04-20T19:18:23.213,0.619,1,1.22,-1.20,50.83,0.74,1,0.0226,0.0785,0.2569,-0.0291,0.0000,0.0000,14.01,7.98,52.04,37.39,37,37,1.00000,1.00000,1.00000,1.00000,3,3,1,24.37426,0.00198,1.06261,-0.0226,-0.0785,0.0931,-0.0291,0.0000,0.0000,-14.01,-13.08,178.92,1,1,1,37,225,0,0,0,0,0,0.00,0,0,0,0,0,0,0,0.00,0.00,0,0,0.0000,0.0000,0.0000,0.0000,0.0000
2026-04-20T19:18:23.229,0.635,1,1.22,-1.20,50.83,0.74,1,0.0236,0.0782,0.2570,-0.0356,0.0107,0.0000,14.06,-3.13,57.05,58.53,38,38,1.00000,1.00000,1.00000,1.00000,3,3,1,24.38437,0.00198,1.06321,-0.0236,-0.0782,0.0930,-0.0356,0.0107,0.0000,-14.06,-13.87,179.04,1,1,1,38,232,0,0,0,0,0,0.00,0,0,0,0,0,0,0,0.00,0.00,0,0,0.0000,0.0000,0.0000,0.0000,0.0000
2026-04-20T19:18:23.244,0.651,1,1.22,-1.20,50.83,0.74,1,0.0250,0.0779,0.2571,-0.0436,0.0117,0.0000,13.97,5.88,62.35,65.57,39,39,1.00000,1.00000,1.00000,1.00000,3,3,1,24.30719,0.00211,1.06513,-0.0250,-0.0779,0.0929,-0.0436,0.0117,0.0000,-13.97,-14.76,179.20,1,1,1,39,231,0,0,0,0,0,0.00,0,0,0,0,0,0,0,0.00,0.00,0,0,0.0000,0.0000,0.0000,0.0000,0.0000
2026-04-20T19:18:23.260,0.666,1,2.81,-0.24,19.84,-7.83,1,0.0262,0.0776,0.2570,-0.0481,0.0128,0.0000,14.03,-3.86,65.63,60.70,40,40,1.00000,1.00000,1.00000,1.00000,3,3,1,24.30299,0.00196,1.06571,-0.0262,-0.0776,0.0930,-0.0481,0.0128,0.0000,-14.03,-15.22,179.47,1,1,1,40,232,0,0,0,0,0,0.00,0,0,0,0,0,0,0,0.00,0.00,0,0,0.0000,0.0000,0.0000,0.0000,0.0000
2026-04-20T19:18:23.276,0.682,1,2.81,-0.24,19.84,-7.83,1,0.0276,0.0774,0.2567,-0.0530,0.0121,0.0000,13.87,9.41,64.34,58.81,41,41,1.00000,1.00000,1.00000,1.00000,3,3,1,24.37105,0.00195,1.06407,-0.0276,-0.0774,0.0933,-0.0530,0.0121,0.0000,-13.87,-15.55,179.53,1,1,1,41,232,0,0,0,0,0,0.00,0,0,0,0,0,0,0,0.00,0.00,0,0,0.0000,0.0000,0.0000,0.0000,0.0000
2026-04-20T19:18:23.292,0.699,1,2.81,-0.24,19.84,-7.83,1,0.0293,0.0765,0.2573,-0.0616,0.0202,0.0000,13.82,3.22,60.59,60.43,42,42,1.00000,1.00000,1.00000,1.00000,3,3,1,24.20266,0.00217,1.06983,-0.0293,-0.0765,0.0927,-0.0616,0.0202,0.0000,-13.82,-16.22,179.26,1,1,1,42,231,0,0,0,0,0,0.00,0,0,0,0,0,0,0,0.00,0.00,0,0,0.0000,0.0000,0.0000,0.0000,0.0000
2026-04-20T19:18:23.309,0.715,1,2.03,-0.62,-12.30,-14.15,1,0.0309,0.0762,0.2572,-0.0666,0.0196,0.0000,13.66,9.69,62.32,60.59,43,43,1.00000,1.00000,1.00000,1.00000,3,3,1,24.26438,0.00212,1.06820,-0.0309,-0.0762,0.0928,-0.0666,0.0196,0.0000,-13.66,-16.27,179.14,1,1,1,43,231,0,0,0,0,0,0.00,0,0,0,0,0,0,0,0.00,0.00,0,0,0.0000,0.0000,0.0000,0.0000,0.0000
2026-04-20T19:18:23.325,0.732,1,2.03,-0.62,-12.30,-14.15,1,0.0326,0.0756,0.2573,-0.0723,0.0226,0.0000,13.49,9.71,60.59,60.59,44,44,1.00000,1.00000,1.00000,1.00000,3,3,1,24.18635,0.00205,1.06600,-0.0326,-0.0756,0.0927,-0.0723,0.0226,0.0000,-13.49,-15.96,179.03,1,1,1,44,232,0,0,0,0,0,0.00,0,0,0,0,0,0,0,0.00,0.00,0,0,0.0000,0.0000,0.0000,0.0000,0.0000
2026-04-20T19:18:23.342,0.749,1,2.03,-0.62,-12.30,-14.15,1,0.0348,0.0749,0.2574,-0.0813,0.0251,0.0000,13.33,9.97,58.80,60.43,45,45,1.00000,1.00000,1.00000,1.00000,3,3,1,24.16036,0.00217,1.06530,-0.0348,-0.0749,0.0926,-0.0813,0.0251,0.0000,-13.33,-15.95,178.63,1,1,1,45,232,0,0,0,0,0,0.00,0,0,0,0,0,0,0,0.00,0.00,0,0,0.0000,0.0000,0.0000,0.0000,0.0000
2026-04-20T19:18:23.359,0.766,1,2.03,-0.62,-12.30,-14.15,1,0.0372,0.0739,0.2574,-0.0906,0.0310,0.0000,13.16,9.44,60.43,57.12,46,46,1.00000,1.00000,1.00000,1.00000,3,3,1,24.11608,0.00239,1.07319,-0.0372,-0.0739,0.0926,-0.0906,0.0310,0.0000,-13.16,-16.15,178.04,1,1,1,46,232,0,0,0,0,0,0.00,0,0,0,0,0,0,0,0.00,0.00,0,0,0.0000,0.0000,0.0000,0.0000,0.0000
2026-04-20T19:18:23.375,0.782,1,2.03,-0.62,-12.30,-14.15,1,0.0392,0.0730,0.2574,-0.0951,0.0350,0.0000,12.92,16.00,58.81,62.49,47,47,1.00000,1.00000,1.00000,1.00000,3,3,1,24.14647,0.00227,1.06594,-0.0392,-0.0730,0.0926,-0.0951,0.0350,0.0000,-12.92,-15.53,177.51,1,1,1,47,232,0,0,0,0,0,0.00,0,0,0,0,0,0,0,0.00,0.00,0,0,0.0000,0.0000,0.0000,0.0000,0.0000
2026-04-20T19:18:23.395,0.801,1,2.03,-0.62,-12.30,-14.15,1,0.0416,0.0717,0.2575,-0.1022,0.0424,0.0000,12.78,7.20,66.65,56.91,48,48,1.00000,1.00000,1.00000,1.00000,3,3,1,24.00198,0.00251,1.06558,-0.0416,-0.0717,0.0925,-0.1022,0.0424,0.0000,-12.78,-14.83,176.73,1,1,1,48,232,0,0,0,0,0,0.00,0,0,0,0,0,0,0,0.00,0.00,0,0,0.0000,0.0000,0.0000,0.0000,0.0000
2026-04-20T19:18:23.411,0.818,1,2.03,-0.62,-12.30,-14.15,1,0.0441,0.0702,0.2574,-0.1070,0.0490,0.0000,12.59,11.14,51.22,125.77,49,49,1.00000,1.00000,1.00000,1.00000,3,3,1,23.92812,0.00245,1.06827,-0.0441,-0.0702,0.0926,-0.1070,0.0490,0.0000,-12.59,-14.13,175.75,1,1,1,49,231,0,0,0,0,0,0.00,0,0,0,0,0,0,0,0.00,0.00,0,0,0.0000,0.0000,0.0000,0.0000,0.0000
2026-04-20T19:18:23.426,0.832,1,2.03,-0.62,-12.30,-14.15,1,0.0467,0.0686,0.2578,-0.1181,0.0582,0.0000,12.32,19.23,57.18,40.78,50,50,1.00000,1.00000,1.00000,1.00000,3,3,1,23.87699,0.00241,1.06856,-0.0467,-0.0686,0.0922,-0.1181,0.0582,0.0000,-12.32,-13.48,175.02,1,1,1,50,232,0,0,0,0,0,0.00,0,0,0,0,0,0,0,0.00,0.00,0,0,0.0000,0.0000,0.0000,0.0000,0.0000
2026-04-20T19:18:23.445,0.851,1,2.03,-0.62,-12.30,-14.15,1,0.0500,0.0668,0.2582,-0.1268,0.0633,0.0000,12.11,11.30,68.80,57.70,51,51,1.00000,1.00000,1.00000,1.00000,3,3,1,23.76240,0.00244,1.07353,-0.0500,-0.0668,0.0918,-0.1268,0.0633,0.0000,-12.11,-13.46,174.78,1,1,1,51,231,0,0,0,0,0,0.00,0,0,0,0,0,0,0,0.00,0.00,0,0,0.0000,0.0000,0.0000,0.0000,0.0000
2026-04-20T19:18:23.460,0.867,1,-1.63,-6.81,-15.71,-26.77,1,0.0530,0.0652,0.2585,-0.1350,0.0687,-0.0103,12.13,-1.26,52.39,62.12,52,52,1.00000,1.00000,1.00000,1.00000,3,3,1,23.70927,0.00252,1.07564,-0.0530,-0.0652,0.0915,-0.1350,0.0687,-0.0103,-12.13,-13.22,175.00,1,1,1,52,233,0,0,0,0,0,0.00,0,0,0,0,0,0,0,0.00,0.00,0,0,0.0000,0.0000,0.0000,0.0000,0.0000
2026-04-20T19:18:23.477,0.883,1,-1.63,-6.81,-15.71,-26.77,1,0.0565,0.0635,0.2589,-0.1474,0.0736,-0.0130,12.10,1.73,64.14,55.79,53,53,1.00000,1.00000,1.00000,1.00000,3,3,1,23.64882,0.00236,1.08094,-0.0565,-0.0635,0.0911,-0.1474,0.0736,-0.0130,-12.10,-13.56,175.69,1,1,1,53,236,0,0,0,0,0,0.00,0,0,0,0,0,0,0,0.00,0.00,0,0,0.0000,0.0000,0.0000,0.0000,0.0000
2026-04-20T19:18:23.494,0.901,1,-1.63,-6.81,-15.71,-26.77,1,0.0597,0.0619,0.2592,-0.1522,0.0752,-0.0130,12.08,1.21,66.28,59.60,54,54,1.00000,1.00000,1.00000,1.00000,3,3,1,23.52322,0.00222,1.07952,-0.0597,-0.0619,0.0908,-0.1522,0.0752,-0.0130,-12.08,-13.31,176.86,1,1,1,54,236,0,0,0,0,0,0.00,0,0,0,0,0,0,0,0.00,0.00,0,0,0.0000,0.0000,0.0000,0.0000,0.0000
2026-04-20T19:18:23.511,0.917,1,-1.63,-6.81,-15.71,-26.77,1,0.0635,0.0600,0.2600,-0.1656,0.0819,-0.0193,12.13,-3.03,53.85,60.79,55,55,1.00000,1.00000,1.00000,1.00000,3,3,1,23.51366,0.00226,1.08245,-0.0635,-0.0600,0.0900,-0.1656,0.0819,-0.0193,-12.13,-13.61,178.06,1,1,1,55,235,0,0,0,0,0,0.00,0,0,0,0,0,0,0,0.00,0.00,0,0,0.0000,0.0000,0.0000,0.0000,0.0000
2026-04-20T19:18:23.527,0.933,1,-1.63,-6.81,-15.71,-26.77,1,0.0671,0.0583,0.2607,-0.1732,0.0847,-0.0232,12.13,0.00,57.16,59.60,56,56,1.00000,1.00000,1.00000,1.00000,3,3,1,23.43081,0.00183,1.08179,-0.0671,-0.0583,0.0893,-0.1732,0.0847,-0.0232,-12.13,-13.82,179.47,1,1,1,56,237,0,0,0,0,0,0.00,0,0,0,0,0,0,0,0.00,0.00,0,0,0.0000,0.0000,0.0000,0.0000,0.0000
2026-04-20T19:18:23.542,0.948,1,-1.63,-6.81,-15.71,-26.77,1,0.0713,0.0564,0.2614,-0.1874,0.0895,-0.0267,12.19,-3.64,70.24,65.62,57,57,1.00000,1.00000,1.00000,1.00000,3,3,1,23.35241,0.00174,1.08746,-0.0713,-0.0564,0.0886,-0.1874,0.0895,-0.0267,-12.19,-14.56,-179.34,1,1,1,57,238,0,0,0,0,0,0.00,0,0,0,0,0,0,0,0.00,0.00,0,0,0.0000,0.0000,0.0000,0.0000,0.0000
2026-04-20T19:18:23.560,0.966,1,-1.63,-6.81,-15.71,-26.77,1,0.0758,0.0544,0.2626,-0.1977,0.0925,-0.0339,12.27,-4.77,66.66,80.95,58,58,1.00000,1.00000,1.00000,1.00000,3,3,1,23.39661,0.00182,1.08977,-0.0758,-0.0544,0.0874,-0.1977,0.0925,-0.0339,-12.27,-15.40,-177.96,1,1,1,58,237,0,0,0,0,0,0.00,0,0,0,0,0,0,0,0.00,0.00,0,0,0.0000,0.0000,0.0000,0.0000,0.0000
2026-04-20T19:18:23.575,0.981,1,-1.63,-6.81,-15.71,-26.77,1,0.0806,0.0526,0.2645,-0.2157,0.0964,-0.0482,12.55,-17.39,53.31,46.69,59,59,1.00000,1.00000,1.00000,1.00000,3,3,1,23.26294,0.00198,1.09657,-0.0806,-0.0526,0.0855,-0.2157,0.0964,-0.0482,-12.55,-16.81,-176.44,1,1,1,59,238,0,0,0,0,0,0.00,0,0,0,0,0,0,0,0.00,0.00,0,0,0.0000,0.0000,0.0000,0.0000,0.0000
2026-04-20T19:18:23.592,0.999,1,-1.63,-6.81,-15.71,-26.77,1,0.0854,0.0506,0.2658,-0.2252,0.0992,-0.0521,12.44,6.33,62.11,141.63,60,60,1.00000,1.00000,1.00000,1.00000,3,3,1,23.18539,0.00185,1.09403,-0.0854,-0.0506,0.0842,-0.2252,0.0992,-0.0521,-12.44,-17.33,-175.41,1,1,1,60,238,0,0,0,0,0,0.00,0,0,0,0,0,0,0,0.00,0.00,0,0,0.0000,0.0000,0.0000,0.0000,0.0000
2026-04-20T19:18:23.611,1.017,1,-1.63,-6.81,-15.71,-26.77,1,0.0907,0.0486,0.2672,-0.2388,0.1013,-0.0561,12.20,14.18,61.04,40.29,61,61,1.00000,1.00000,1.00000,1.00000,3,3,1,23.26262,0.00204,1.09449,-0.0907,-0.0486,0.0828,-0.2388,0.1013,-0.0561,-12.20,-18.25,-175.02,1,1,1,61,237,0,0,0,0,0,0.00,0,0,0,0,0,0,0,0.00,0.00,0,0,0.0000,0.0000,0.0000,0.0000,0.0000
2026-04-20T19:18:23.627,1.033,1,-1.63,-6.81,-15.71,-26.77,1,0.0959,0.0464,0.2686,-0.2513,0.1063,-0.0600,11.66,34.09,54.27,56.92,62,62,1.00000,1.00000,1.00000,1.00000,3,3,1,23.28602,0.00213,1.10124,-0.0959,-0.0464,0.0814,-0.2513,0.1063,-0.0600,-11.66,-18.59,-175.59,1,1,1,62,237,0,0,0,0,0,0.00,0,0,0,0,0,0,0,0.00,0.00,0,0,0.0000,0.0000,0.0000,0.0000,0.0000
2026-04-20T19:18:23.644,1.050,1,-1.63,-6.81,-15.71,-26.77,1,0.1017,0.0445,0.2698,-0.2669,0.1078,-0.0616,11.19,26.87,62.85,82.27,63,63,1.00000,1.00000,1.00000,1.00000,3,3,1,23.28326,0.00236,1.10063,-0.1017,-0.0445,0.0802,-0.2669,0.1078,-0.0616,-11.19,-18.86,-176.14,1,1,1,63,237,0,0,0,0,0,0.00,0,0,0,0,0,0,0,0.00,0.00,0,0,0.0000,0.0000,0.0000,0.0000,0.0000
2026-04-20T19:18:23.657,1.064,1,-1.63,-6.81,-15.71,-26.77,1,0.1081,0.0424,0.2716,-0.2833,0.1094,-0.0678,10.73,31.08,58.95,47.15,64,64,1.00000,1.00000,1.00000,1.00000,3,3,1,23.23327,0.00242,1.10762,-0.1081,-0.0424,0.0784,-0.2833,0.1094,-0.0678,-10.73,-19.18,-176.97,1,1,1,64,238,0,0,0,0,0,0.00,0,0,0,0,0,0,0,0.00,0.00,0,0,0.0000,0.0000,0.0000,0.0000,0.0000
2026-04-20T19:18:23.675,1.082,1,2.54,-1.08,-17.84,2.69,1,0.1144,0.0408,0.2724,-0.2963,0.1063,-0.0628,10.32,22.69,78.43,100.91,65,65,1.00000,1.00000,1.00000,1.00000,3,3,1,23.20731,0.00225,1.10405,-0.1144,-0.0408,0.0776,-0.2963,0.1063,-0.0628,-10.32,-18.68,-177.46,1,1,1,65,238,0,0,0,0,0,0.00,0,0,0,0,0,0,0,0.00,0.00,0,0,0.0000,0.0000,0.0000,0.0000,0.0000
2026-04-20T19:18:23.693,1.099,1,2.54,-1.08,-17.84,2.69,1,0.1215,0.0391,0.2741,-0.3201,0.1059,-0.0697,10.14,10.75,51.10,49.50,66,66,1.00000,1.00000,1.00000,1.00000,3,3,1,23.22308,0.00244,1.10862,-0.1215,-0.0391,0.0759,-0.3201,0.1059,-0.0697,-10.14,-18.76,-177.62,1,1,1,66,236,0,0,0,0,0,0.00,0,0,0,0,0,0,0,0.00,0.00,0,0,0.0000,0.0000,0.0000,0.0000,0.0000
2026-04-20T19:18:23.711,1.117,1,2.54,-1.08,-17.84,2.69,1,0.1290,0.0376,0.2757,-0.3391,0.1030,-0.0733,9.85,16.70,56.33,50.08,67,67,1.00000,1.00000,1.00000,1.00000,3,3,1,23.19563,0.00217,1.11020,-0.1290,-0.0376,0.0743,-0.3391,0.1030,-0.0733,-9.85,-18.47,-177.52,1,1,1,67,237,0,0,0,0,0,0.00,0,0,0,0,0,0,0,0.00,0.00,0,0,0.0000,0.0000,0.0000,0.0000,0.0000
2026-04-20T19:18:23.729,1.135,1,2.54,-1.08,-17.84,2.69,1,0.1369,0.0363,0.2770,-0.3543,0.0964,-0.0714,9.64,11.30,62.71,70.05,68,68,1.00000,1.00000,1.00000,1.00000,3,3,1,23.15059,0.00234,1.11167,-0.1369,-0.0363,0.0730,-0.3543,0.0964,-0.0714,-9.64,-18.16,-177.15,1,1,1,68,237,0,0,0,0,0,0.00,0,0,0,0,0,0,0,0.00,0.00,0,0,0.0000,0.0000,0.0000,0.0000,0.0000
2026-04-20T19:18:23.746,1.152,1,2.54,-1.08,-17.84,2.69,1,0.1455,0.0352,0.2786,-0.3808,0.0920,-0.0752,9.52,7.20,54.06,51.79,69,69,1.00000,1.00000,1.00000,1.00000,3,3,1,23.31102,0.00223,1.11294,-0.1455,-0.0352,0.0714,-0.3808,0.0920,-0.0752,-9.52,-18.30,-176.58,1,1,1,69,236,0,0,0,0,0,0.00,0,0,0,0,0,0,0,0.00,0.00,0,0,0.0000,0.0000,0.0000,0.0000,0.0000
2026-04-20T19:18:23.760,1.166,1,2.54,-1.08,-17.84,2.69,1,0.1541,0.0344,0.2798,-0.4045,0.0856,-0.0746,9.31,14.56,55.24,55.92,70,70,1.00000,1.00000,1.00000,1.00000,3,3,1,23.26977,0.00213,1.11827,-0.1541,-0.0344,0.0702,-0.4045,0.0856,-0.0746,-9.31,-17.90,-176.13,1,1,1,70,235,0,0,0,0,0,0.00,0,0,0,0,0,0,0,0.00,0.00,0,0,0.0000,0.0000,0.0000,0.0000,0.0000
2026-04-20T19:18:23.777,1.183,1,1.06,0.70,1.85,35.27,1,0.1635,0.0334,0.2816,-0.4318,0.0828,-0.0810,9.09,13.60,71.44,68.72,71,71,1.00000,1.00000,1.00000,1.00000,3,3,1,23.35591,0.00237,1.12566,-0.1635,-0.0334,0.0684,-0.4318,0.0828,-0.0810,-9.09,-17.81,-175.95,1,1,1,71,237,0,0,0,0,0,0.00,0,0,0,0,0,0,0,0.00,0.00,0,0,0.0000,0.0000,0.0000,0.0000,0.0000
2026-04-20T19:18:23.795,1.201,1,1.06,0.70,1.85,35.27,1,0.1735,0.0328,0.2834,-0.4525,0.0752,-0.0848,8.74,19.52,59.66,56.83,72,72,1.00000,1.00000,1.00000,1.00000,3,3,1,23.50912,0.00220,1.13146,-0.1735,-0.0328,0.0666,-0.4525,0.0752,-0.0848,-8.74,-17.79,-175.70,1,1,1,72,236,0,0,0,0,0,0.00,0,0,0,0,0,0,0,0.00,0.00,0,0,0.0000,0.0000,0.0000,0.0000,0.0000
2026-04-20T19:18:23.811,1.218,1,1.06,0.70,1.85,35.27,1,0.1840,0.0325,0.2854,-0.4863,0.0676,-0.0908,8.53,12.78,56.01,102.22,73,73,1.00000,1.00000,1.00000,1.00000,3,3,1,23.54615,0.00232,1.13619,-0.1840,-0.0325,0.0646,-0.4863,0.0676,-0.0908,-8.53,-18.14,-175.26,1,1,1,73,237,0,0,0,0,0,0.00,0,0,0,0,0,0,0,0.00,0.00,0,0,0.0000,0.0000,0.0000,0.0000,0.0000
2026-04-20T19:18:23.826,1.232,1,1.89,2.00,44.22,38.60,1,0.1949,0.0324,0.2874,-0.5178,0.0586,-0.0966,8.39,8.79,60.87,43.08,74,74,1.00000,1.00000,1.00000,1.00000,3,3,1,23.66231,0.00238,1.14206,-0.1949,-0.0324,0.0626,-0.5178,0.0586,-0.0966,-8.39,-18.52,-174.77,1,1,1,74,237,0,0,0,0,0,0.00,0,0,0,0,0,0,0,0.00,0.00,0,0,0.0000,0.0000,0.0000,0.0000,0.0000
2026-04-20T19:18:23.844,1.250,1,1.89,2.00,44.22,38.60,1,0.2066,0.0322,0.2899,-0.5413,0.0521,-0.1055,8.21,10.29,69.35,104.27,75,75,1.00000,1.00000,1.00000,1.00000,3,3,1,23.81473,0.00225,1.14792,-0.2066,-0.0322,0.0601,-0.5413,0.0521,-0.1055,-8.21,-18.93,-174.44,1,1,1,75,236,0,0,0,0,0,0.00,0,0,0,0,0,0,0,0.00,0.00,0,0,0.0000,0.0000,0.0000,0.0000,0.0000
2026-04-20T19:18:23.860,1.266,1,1.89,2.00,44.22,38.60,1,0.2191,0.0326,0.2927,-0.5807,0.0408,-0.1164,8.09,7.68,54.10,41.24,76,76,1.00000,1.00000,1.00000,1.00000,3,3,1,24.07376,0.00266,1.15631,-0.2191,-0.0326,0.0573,-0.5807,0.0408,-0.1164,-8.09,-19.94,-173.93,1,1,1,76,237,0,0,0,0,0,0.00,0,0,0,0,0,0,0,0.00,0.00,0,0,0.0000,0.0000,0.0000,0.0000,0.0000
2026-04-20T19:18:23.877,1.283,1,4.22,2.39,68.74,24.91,1,0.2321,0.0330,0.2961,-0.6078,0.0312,-0.1309,8.09,0.00,63.99,60.06,77,77,1.00000,1.00000,1.00000,1.00000,3,3,1,24.18304,0.00252,1.15646,-0.2321,-0.0330,0.0539,-0.6078,0.0312,-0.1309,-8.09,-20.63,-173.17,1,1,1,77,237,0,0,0,0,0,0.00,0,0,0,0,0,0,0,0.00,0.00,0,0,0.0000,0.0000,0.0000,0.0000,0.0000
2026-04-20T19:18:23.894,1.300,1,4.22,2.39,68.74,24.91,1,0.2456,0.0339,0.2992,-0.6401,0.0188,-0.1391,8.01,4.57,59.53,96.80,78,78,1.00000,1.00000,1.00000,1.00000,3,3,1,24.39072,0.00257,1.16042,-0.2456,-0.0339,0.0508,-0.6401,0.0188,-0.1391,-8.01,-21.18,-172.56,1,1,1,78,233,0,0,0,0,0,0.00,0,0,0,0,0,0,0,0.00,0.00,0,0,0.0000,0.0000,0.0000,0.0000,0.0000
2026-04-20T19:18:23.911,1.317,1,4.22,2.39,68.74,24.91,1,0.2604,0.0350,0.3028,-0.6708,0.0000,-0.1502,7.88,7.08,58.83,43.53,79,79,1.00000,1.00000,1.00000,1.00000,3,3,1,24.66532,0.00274,1.17047,-0.2604,-0.0350,0.0472,-0.6708,0.0000,-0.1502,-7.88,-22.05,-172.17,1,1,1,79,231,0,0,0,0,0,0.00,0,0,0,0,0,0,0,0.00,0.00,0,0,0.0000,0.0000,0.0000,0.0000,0.0000
2026-04-20T19:18:23.927,1.333,1,4.22,2.39,68.74,24.91,1,0.2756,0.0367,0.3070,-0.7142,0.0000,-0.1675,7.78,6.86,54.26,97.84,80,80,1.00000,1.00000,1.00000,1.00000,3,3,1,25.03391,0.00292,1.17738,-0.2756,-0.0367,0.0430,-0.7142,0.0000,-0.1675,-7.78,-22.95,-171.56,1,1,1,80,233,0,0,0,0,0,0.00,0,0,0,0,0,0,0,0.00,0.00,0,0,0.0000,0.0000,0.0000,0.0000,0.0000
2026-04-20T19:18:23.941,1.348,1,4.22,2.39,68.74,24.91,0,0.0000,0.0000,0.3500,0.0000,0.0000,0.0000,0.00,0.00,62.24,43.45,81,80,0.98765,1.00000,1.00000,1.00000,3,3,0,20.92811,0.00000,1.00000,0.0000,0.0000,0.0000,0.0000,0.0000,0.0000,0.00,0.00,0.00,1,1,1,81,194,0,0,0,0,0,0.00,0,0,0,0,0,0,0,0.00,0.00,0,0,0.0000,0.0000,0.0000,0.0000,0.0000
2026-04-20T19:18:23.958,1.364,1,4.22,2.39,68.74,24.91,0,0.0000,0.0000,0.3500,0.0000,0.0000,0.0000,0.00,0.00,75.95,61.18,82,80,0.97561,1.00000,1.00000,1.00000,3,3,0,21.16188,0.00000,1.00000,0.0000,0.0000,0.0000,0.0000,0.0000,0.0000,0.00,0.00,0.00,1,1,1,82,194,0,0,0,0,0,0.00,0,0,0,0,0,0,0,0.00,0.00,0,0,0.0000,0.0000,0.0000,0.0000,0.0000
2026-04-20T19:18:23.975,1.381,1,3.99,1.15,-73.45,-89.31,0,0.0000,0.0000,0.3500,0.0000,0.0000,0.0000,0.00,0.00,59.33,81.53,83,80,0.96386,1.00000,1.00000,1.00000,3,3,0,21.38685,0.00000,1.00000,0.0000,0.0000,0.0000,0.0000,0.0000,0.0000,0.00,0.00,0.00,1,1,1,83,194,0,0,0,0,0,0.00,0,0,0,0,0,0,0,0.00,0.00,0,0,0.0000,0.0000,0.0000,0.0000,0.0000
2026-04-20T19:18:23.991,1.397,1,3.99,1.15,-73.45,-89.31,0,0.0000,0.0000,0.3500,0.0000,0.0000,0.0000,0.00,0.00,63.08,46.30,84,80,0.95238,1.00000,1.00000,1.00000,3,3,0,26.26794,0.00000,1.00000,0.0000,0.0000,0.0000,0.0000,0.0000,0.0000,0.00,0.00,0.00,1,1,1,84,194,0,0,0,0,0,0.00,0,0,0,0,0,0,0,0.00,0.00,0,0,0.0000,0.0000,0.0000,0.0000,0.0000
2026-04-20T19:18:24.009,1.416,1,3.99,1.15,-73.45,-89.31,0,0.0000,0.0000,0.3500,0.0000,0.0000,0.0000,0.00,0.00,57.98,61.93,85,80,0.94118,1.00000,1.00000,1.00000,3,3,0,26.05934,0.00000,1.00000,0.0000,0.0000,0.0000,0.0000,0.0000,0.0000,0.00,0.00,0.00,1,1,1,85,194,0,0,0,0,0,0.00,0,0,0,0,0,0,0,0.00,0.00,0,0,0.0000,0.0000,0.0000,0.0000,0.0000
2026-04-20T19:18:24.027,1.433,1,-4.38,-2.67,-244.00,-165.86,0,0.0000,0.0000,0.3500,0.0000,0.0000,0.0000,0.00,0.00,58.61,114.99,86,80,0.93023,1.00000,1.00000,1.00000,3,3,0,35.75197,0.00000,1.00000,0.0000,0.0000,0.0000,0.0000,0.0000,0.0000,0.00,0.00,0.00,1,1,1,86,194,0,0,0,0,0,0.00,0,0,0,0,0,0,0,0.00,0.00,0,0,0.0000,0.0000,0.0000,0.0000,0.0000
2026-04-20T19:18:24.045,1.452,1,-4.38,-2.67,-244.00,-165.86,1,0.5086,0.0652,0.4097,0.0000,0.0000,0.0000,27.89,0.00,54.10,39.44,87,81,0.93103,1.00000,1.00000,1.00000,3,3,1,34.26983,0.04753,2.74841,-0.5086,-0.0652,-0.0597,0.0000,0.0000,0.0000,-27.89,-4.16,-145.37,1,1,1,87,223,0,0,0,0,0,0.00,0,0,0,0,0,0,0,0.00,0.00,0,0,0.0000,0.0000,0.0000,0.0000,0.0000
2026-04-20T19:18:24.061,1.468,1,-4.38,-2.67,-244.00,-165.86,1,0.5045,0.0714,0.4022,0.0464,-0.0704,0.0845,38.49,-676.72,54.10,60.27,88,82,0.93182,1.00000,1.00000,1.00000,3,3,1,33.17869,0.04459,2.70268,-0.5045,-0.0714,-0.0522,0.0464,-0.0704,0.0845,-38.49,6.39,-133.87,1,1,1,88,235,0,0,0,0,0,0.00,0,0,0,0,0,0,0,0.00,0.00,0,0,0.0000,0.0000,0.0000,0.0000,0.0000
2026-04-20T19:18:24.077,1.483,1,-4.38,-2.67,-244.00,-165.86,0,0.0000,0.0000,0.3500,0.0000,0.0000,0.0000,0.00,0.00,65.61,73.52,89,82,0.92135,1.00000,1.00000,1.00000,3,3,0,27.17823,0.00000,1.00000,0.0000,0.0000,0.0000,0.0000,0.0000,0.0000,0.00,0.00,0.00,1,1,1,89,194,0,0,0,0,0,0.00,0,0,0,0,0,0,0,0.00,0.00,0,0,0.0000,0.0000,0.0000,0.0000,0.0000
2026-04-20T19:18:24.091,1.497,1,7.48,0.54,414.06,56.68,0,0.0000,0.0000,0.3500,0.0000,0.0000,0.0000,0.00,0.00,60.33,49.71,90,82,0.91111,1.00000,1.00000,1.00000,3,3,0,27.33760,0.00000,1.00000,0.0000,0.0000,0.0000,0.0000,0.0000,0.0000,0.00,0.00,0.00,1,1,1,90,194,0,0,0,0,0,0.00,0,0,0,0,0,0,0,0.00,0.00,0,0,0.0000,0.0000,0.0000,0.0000,0.0000
2026-04-20T19:18:24.108,1.514,1,7.48,0.54,414.06,56.68,0,0.0000,0.0000,0.3500,0.0000,0.0000,0.0000,0.00,0.00,68.95,65.35,91,82,0.90110,1.00000,1.00000,1.00000,3,3,0,27.53418,0.00000,1.00000,0.0000,0.0000,0.0000,0.0000,0.0000,0.0000,0.00,0.00,0.00,1,1,1,91,194,0,0,0,0,0,0.00,0,0,0,0,0,0,0,0.00,0.00,0,0,0.0000,0.0000,0.0000,0.0000,0.0000
2026-04-20T19:18:24.127,1.533,1,7.48,0.54,414.06,56.68,0,0.0000,0.0000,0.3500,0.0000,0.0000,0.0000,0.00,0.00,58.15,55.20,92,82,0.89130,1.00000,1.00000,1.00000,3,3,0,27.96577,0.00000,1.00000,0.0000,0.0000,0.0000,0.0000,0.0000,0.0000,0.00,0.00,0.00,1,1,1,92,194,0,0,0,0,0,0.00,0,0,0,0,0,0,0,0.00,0.00,0,0,0.0000,0.0000,0.0000,0.0000,0.0000
2026-04-20T19:18:24.141,1.548,1,5.07,-2.87,-19.17,-10.94,0,0.0000,0.0000,0.3500,0.0000,0.0000,0.0000,0.00,0.00,55.11,64.70,93,82,0.88172,1.00000,1.00000,1.00000,3,3,0,28.23557,0.00000,1.00000,0.0000,0.0000,0.0000,0.0000,0.0000,0.0000,0.00,0.00,0.00,1,1,1,93,194,0,0,0,0,0,0.00,0,0,0,0,0,0,0,0.00,0.00,0,0,0.0000,0.0000,0.0000,0.0000,0.0000
2026-04-20T19:18:24.159,1.565,1,5.07,-2.87,-19.17,-10.94,0,0.0000,0.0000,0.3500,0.0000,0.0000,0.0000,0.00,0.00,68.44,62.14,94,82,0.87234,1.00000,1.00000,1.00000,3,3,0,28.45770,0.00000,1.00000,0.0000,0.0000,0.0000,0.0000,0.0000,0.0000,0.00,0.00,0.00,1,1,1,94,194,0,0,0,0,0,0.00,0,0,0,0,0,0,0,0.00,0.00,0,0,0.0000,0.0000,0.0000,0.0000,0.0000
2026-04-20T19:18:24.175,1.581,1,5.07,-2.87,-19.17,-10.94,0,0.0000,0.0000,0.3500,0.0000,0.0000,0.0000,0.00,0.00,58.17,57.42,95,82,0.86316,1.00000,1.00000,1.00000,3,3,0,28.50188,0.00000,1.00000,0.0000,0.0000,0.0000,0.0000,0.0000,0.0000,0.00,0.00,0.00,1,1,1,95,194,0,0,0,0,0,0.00,0,0,0,0,0,0,0,0.00,0.00,0,0,0.0000,0.0000,0.0000,0.0000,0.0000
2026-04-20T19:18:24.193,1.600,1,1.06,-1.38,4.87,-1.69,1,0.3337,0.1180,0.3161,0.0000,0.0000,0.0000,26.54,0.00,67.21,99.00,96,83,0.86458,1.00000,1.00000,1.00000,3,3,1,27.54485,0.00246,1.14706,-0.3337,-0.1180,0.0339,0.0000,0.0000,0.0000,-26.54,-3.04,-156.50,1,1,1,96,222,0,0,0,0,0,0.00,0,0,0,0,0,0,0,0.00,0.00,0,0,0.0000,0.0000,0.0000,0.0000,0.0000
2026-04-20T19:18:24.209,1.615,1,1.06,-1.38,4.87,-1.69,1,0.3314,0.1199,0.3161,0.0256,-0.0214,0.0000,20.61,405.14,50.66,42.06,97,84,0.86598,1.00000,1.00000,1.00000,3,3,1,27.59927,0.00245,1.14172,-0.3314,-0.1199,0.0339,0.0256,-0.0214,0.0000,-20.61,-8.13,-167.28,1,1,1,97,231,0,0,0,0,0,0.00,0,0,0,0,0,0,0,0.00,0.00,0,0,0.0000,0.0000,0.0000,0.0000,0.0000
2026-04-20T19:18:24.226,1.632,1,1.06,-1.38,4.87,-1.69,1,0.3292,0.1215,0.3163,0.0445,-0.0339,0.0000,17.51,200.99,63.93,61.92,98,85,0.86735,1.00000,1.00000,1.00000,3,3,1,27.53303,0.00258,1.14283,-0.3292,-0.1215,0.0337,0.0445,-0.0339,0.0000,-17.51,-10.79,-172.68,1,1,1,98,233,0,0,0,0,0,0.00,0,0,0,0,0,0,0,0.00,0.00,0,0,0.0000,0.0000,0.0000,0.0000,0.0000
2026-04-20T19:18:24.243,1.649,1,1.06,-1.38,4.87,-1.69,1,0.3270,0.1228,0.3166,0.0592,-0.0408,0.0000,15.95,82.94,58.48,132.44,99,86,0.86869,1.00000,1.00000,1.00000,3,3,1,27.50565,0.00235,1.14023,-0.3270,-0.1228,0.0334,0.0592,-0.0408,0.0000,-15.95,-11.67,-175.41,1,1,1,99,233,0,0,0,0,0,0.00,0,0,0,0,0,0,0,0.00,0.00,0,0,0.0000,0.0000,0.0000,0.0000,0.0000
2026-04-20T19:18:24.260,1.666,1,1.06,-1.38,4.87,-1.69,1,0.3253,0.1240,0.3169,0.0636,-0.0442,0.0000,15.16,48.32,61.93,38.95,100,87,0.87000,1.00000,1.00000,1.00000,3,3,1,27.41751,0.00242,1.13899,-0.3253,-0.1240,0.0331,0.0636,-0.0442,0.0000,-15.16,-12.16,-176.67,1,1,1,100,233,0,0,0,0,0,0.00,0,0,0,0,0,0,0,0.00,0.00,0,0,0.0000,0.0000,0.0000,0.0000,0.0000
2026-04-20T19:18:24.278,1.684,1,1.06,-1.38,4.87,-1.69,1,0.3240,0.1248,0.3174,0.0636,-0.0433,-0.0110,14.72,23.89,56.33,57.97,101,88,0.87129,1.00000,1.00000,1.00000,3,3,1,27.40477,0.00237,1.13999,-0.3240,-0.1248,0.0326,0.0636,-0.0433,-0.0110,-14.72,-12.21,-177.16,1,1,1,101,238,0,0,0,0,0,0.00,0,0,0,0,0,0,0,0.00,0.00,0,0,0.0000,0.0000,0.0000,0.0000,0.0000
2026-04-20T19:18:24.295,1.701,1,-4.74,1.12,12.37,13.65,1,0.3232,0.1251,0.3184,0.0581,-0.0372,-0.0199,14.45,15.73,55.51,58.57,102,89,0.87255,1.00000,1.00000,1.00000,3,3,1,27.27603,0.00254,1.14683,-0.3232,-0.1251,0.0316,0.0581,-0.0372,-0.0199,-14.45,-12.47,-177.59,1,1,1,102,237,0,0,0,0,0,0.00,0,0,0,0,0,0,0,0.00,0.00,0,0,0.0000,0.0000,0.0000,0.0000,0.0000
2026-04-20T19:18:24.309,1.715,1,-4.74,1.12,12.37,13.65,1,0.3228,0.1255,0.3190,0.0506,-0.0338,-0.0217,14.41,2.87,56.65,63.98,103,90,0.87379,1.00000,1.00000,1.00000,3,3,1,27.29540,0.00268,1.14603,-0.3228,-0.1255,0.0310,0.0506,-0.0338,-0.0217,-14.41,-12.81,-177.57,1,1,1,103,238,0,0,0,0,0,0.00,0,0,0,0,0,0,0,0.00,0.00,0,0,0.0000,0.0000,0.0000,0.0000,0.0000
2026-04-20T19:18:24.325,1.732,1,-4.74,1.12,12.37,13.65,1,0.3222,0.1259,0.3190,0.0470,-0.0317,-0.0174,14.41,0.00,74.29,58.96,104,91,0.87500,1.00000,1.00000,1.00000,3,3,1,27.29406,0.00259,1.14471,-0.3222,-0.1259,0.0310,0.0470,-0.0317,-0.0174,-14.41,-12.82,-177.57,1,1,1,104,238,0,0,0,0,0,0.00,0,0,0,0,0,0,0,0.00,0.00,0,0,0.0000,0.0000,0.0000,0.0000,0.0000
2026-04-20T19:18:24.343,1.750,1,-3.93,1.09,-2.36,-1.09,1,0.3218,0.1262,0.3193,0.0423,-0.0288,-0.0160,14.46,-2.82,59.61,116.65,105,92,0.87619,1.00000,1.00000,1.00000,3,3,1,27.31703,0.00260,1.14436,-0.3218,-0.1262,0.0307,0.0423,-0.0288,-0.0160,-14.46,-12.84,-177.50,1,1,1,105,237,0,0,0,0,0,0.00,0,0,0,0,0,0,0,0.00,0.00,0,0,0.0000,0.0000,0.0000,0.0000,0.0000
2026-04-20T19:18:24.359,1.765,1,-3.93,1.09,-2.36,-1.09,1,0.3214,0.1263,0.3194,0.0389,-0.0241,-0.0147,14.27,12.14,57.30,40.61,106,93,0.87736,1.00000,1.00000,1.00000,3,3,1,27.28634,0.00258,1.14597,-0.3214,-0.1263,0.0306,0.0389,-0.0241,-0.0147,-14.27,-12.97,-177.93,1,1,1,106,238,0,0,0,0,0,0.00,0,0,0,0,0,0,0,0.00,0.00,0,0,0.0000,0.0000,0.0000,0.0000,0.0000
2026-04-20T19:18:24.375,1.782,1,-3.93,1.09,-2.36,-1.09,1,0.3211,0.1265,0.3195,0.0355,-0.0228,-0.0123,14.19,4.57,62.99,65.14,107,94,0.87850,1.00000,1.00000,1.00000,3,3,1,27.32855,0.00255,1.14548,-0.3211,-0.1265,0.0305,0.0355,-0.0228,-0.0123,-14.19,-12.95,-177.96,1,1,1,107,237,0,0,0,0,0,0.00,0,0,0,0,0,0,0,0.00,0.00,0,0,0.0000,0.0000,0.0000,0.0000,0.0000
2026-04-20T19:18:24.392,1.798,1,-3.93,1.09,-2.36,-1.09,1,0.3209,0.1267,0.3197,0.0309,-0.0206,-0.0125,14.21,-1.28,59.96,56.28,108,95,0.87963,1.00000,1.00000,1.00000,3,3,1,27.31947,0.00261,1.14479,-0.3209,-0.1267,0.0303,0.0309,-0.0206,-0.0125,-14.21,-12.96,-177.84,1,1,1,108,237,0,0,0,0,0,0.00,0,0,0,0,0,0,0,0.00,0.00,0,0,0.0000,0.0000,0.0000,0.0000,0.0000
2026-04-20T19:18:24.409,1.815,1,-3.69,1.13,1.70,0.23,1,0.3208,0.1267,0.3199,0.0273,-0.0171,-0.0127,14.11,5.96,62.06,60.13,109,96,0.88073,1.00000,1.00000,1.00000,3,3,1,27.31519,0.00246,1.14668,-0.3208,-0.1267,0.0301,0.0273,-0.0171,-0.0127,-14.11,-12.89,-177.97,1,1,1,109,237,0,0,0,0,0,0.00,0,0,0,0,0,0,0,0.00,0.00,0,0,0.0000,0.0000,0.0000,0.0000,0.0000
2026-04-20T19:18:24.427,1.833,1,-3.69,1.13,1.70,0.23,1,0.3206,0.1269,0.3199,0.0251,-0.0165,-0.0103,13.97,7.94,58.63,78.44,110,97,0.88182,1.00000,1.00000,1.00000,3,3,1,27.31628,0.00228,1.14291,-0.3206,-0.1269,0.0301,0.0251,-0.0165,-0.0103,-13.97,-12.41,-178.09,1,1,1,110,236,0,0,0,0,0,0.00,0,0,0,0,0,0,0,0.00,0.00,0,0,0.0000,0.0000,0.0000,0.0000,0.0000
2026-04-20T19:18:24.443,1.849,1,-3.69,1.13,1.70,0.23,1,0.3208,0.1269,0.3203,0.0182,-0.0147,-0.0127,13.91,3.72,52.76,48.39,111,98,0.88288,1.00000,1.00000,1.00000,3,3,1,27.36336,0.00231,1.14381,-0.3208,-0.1269,0.0297,0.0182,-0.0147,-0.0127,-13.91,-12.45,-178.05,1,1,1,111,237,0,0,0,0,0,0.00,0,0,0,0,0,0,0,0.00,0.00,0,0,0.0000,0.0000,0.0000,0.0000,0.0000
2026-04-20T19:18:24.459,1.866,1,-3.46,0.56,0.58,1.17,1,0.3215,0.1269,0.3204,0.0000,-0.0129,-0.0114,13.78,7.52,68.78,60.18,112,99,0.88393,1.00000,1.00000,1.00000,3,3,1,27.49604,0.00243,1.14915,-0.3215,-0.1269,0.0296,0.0000,-0.0129,-0.0114,-13.78,-12.81,-178.38,1,1,1,112,233,0,0,0,0,0,0.00,0,0,0,0,0,0,0,0.00,0.00,0,0,0.0000,0.0000,0.0000,0.0000,0.0000
2026-04-20T19:18:24.477,1.883,1,-3.46,0.56,0.58,1.17,1,0.3220,0.1274,0.3206,0.0000,-0.0156,-0.0110,13.86,-4.80,61.73,118.37,113,100,0.88496,1.00000,1.00000,1.00000,3,3,1,27.49098,0.00248,1.14769,-0.3220,-0.1274,0.0294,0.0000,-0.0156,-0.0110,-13.86,-12.99,-178.14,1,1,1,113,234,0,0,0,0,0,0.00,0,0,0,0,0,0,0,0.00,0.00,0,0,0.0000,0.0000,0.0000,0.0000,0.0000
2026-04-20T19:18:24.493,1.899,1,-3.46,0.56,0.58,1.17,1,0.3220,0.1277,0.3208,0.0000,-0.0175,-0.0115,14.05,-11.38,54.81,39.63,114,101,0.88596,1.00000,1.00000,1.00000,3,3,1,27.49901,0.00233,1.14241,-0.3220,-0.1277,0.0292,0.0000,-0.0175,-0.0115,-14.05,-12.42,-177.91,1,1,1,114,234,0,0,0,0,0,0.00,0,0,0,0,0,0,0,0.00,0.00,0,0,0.0000,0.0000,0.0000,0.0000,0.0000
2026-04-20T19:18:24.510,1.916,1,-3.46,0.56,0.58,1.17,1,0.3226,0.1282,0.3207,0.0000,-0.0193,0.0000,14.21,-9.63,61.77,59.01,115,102,0.88696,1.00000,1.00000,1.00000,3,3,1,27.49906,0.00244,1.14405,-0.3226,-0.1282,0.0293,0.0000,-0.0193,0.0000,-14.21,-12.37,-177.81,1,1,1,115,229,0,0,0,0,0,0.00,0,0,0,0,0,0,0,0.00,0.00,0,0,0.0000,0.0000,0.0000,0.0000,0.0000
2026-04-20T19:18:24.525,1.932,1,-3.46,0.56,0.58,1.17,1,0.3233,0.1284,0.3210,0.0000,-0.0189,-0.0114,14.37,-9.63,60.55,62.62,116,103,0.88793,1.00000,1.00000,1.00000,3,3,1,27.55702,0.00247,1.14633,-0.3233,-0.1284,0.0290,0.0000,-0.0189,-0.0114,-14.37,-12.38,-177.68,1,1,1,116,234,0,0,0,0,0,0.00,0,0,0,0,0,0,0,0.00,0.00,0,0,0.0000,0.0000,0.0000,0.0000,0.0000
2026-04-20T19:18:24.540,1.946,1,-3.46,0.56,0.58,1.17,1,0.3241,0.1287,0.3215,-0.0137,-0.0189,-0.0144,14.54,-11.49,58.07,59.76,117,104,0.88889,1.00000,1.00000,1.00000,3,3,1,27.57722,0.00262,1.14549,-0.3241,-0.1287,0.0285,-0.0137,-0.0189,-0.0144,-14.54,-12.65,-177.71,1,1,1,117,239,0,0,0,0,0,0.00,0,0,0,0,0,0,0,0.00,0.00,0,0,0.0000,0.0000,0.0000,0.0000,0.0000
2026-04-20T19:18:24.560,1.966,1,-2.76,0.00,-4.62,-4.36,1,0.3250,0.1290,0.3218,-0.0190,-0.0192,-0.0147,14.75,-11.28,65.02,88.01,118,105,0.88983,1.00000,1.00000,1.00000,3,3,1,27.61159,0.00266,1.14905,-0.3250,-0.1290,0.0282,-0.0190,-0.0192,-0.0147,-14.75,-13.08,-177.80,1,1,1,118,238,0,0,0,0,0,0.00,0,0,0,0,0,0,0,0.00,0.00,0,0,0.0000,0.0000,0.0000,0.0000,0.0000
2026-04-20T19:18:24.575,1.982,1,-2.76,0.00,-4.62,-4.36,1,0.3258,0.1294,0.3219,-0.0220,-0.0205,-0.0137,14.88,-7.83,56.54,49.61,119,106,0.89076,1.00000,1.00000,1.00000,3,3,1,27.55745,0.00257,1.14968,-0.3258,-0.1294,0.0281,-0.0220,-0.0205,-0.0137,-14.88,-13.00,-177.81,1,1,1,119,236,0,0,0,0,0,0.00,0,0,0,0,0,0,0,0.00,0.00,0,0,0.0000,0.0000,0.0000,0.0000,0.0000
2026-04-20T19:18:24.590,1.997,1,-2.76,0.00,-4.62,-4.36,1,0.3269,0.1298,0.3224,-0.0283,-0.0214,-0.0162,15.06,-12.12,58.67,53.19,120,107,0.89167,1.00000,1.00000,1.00000,3,3,1,27.59150,0.00257,1.14570,-0.3269,-0.1298,0.0276,-0.0283,-0.0214,-0.0162,-15.06,-13.04,-177.76,1,1,1,120,238,0,0,0,0,0,0.00,0,0,0,0,0,0,0,0.00,0.00,0,0,0.0000,0.0000,0.0000,0.0000,0.0000
2026-04-20T19:18:24.610,2.016,1,-2.97,-0.02,-22.46,6.57,1,0.3280,0.1301,0.3225,-0.0333,-0.0202,-0.0147,15.45,-20.88,81.69,251.59,121,108,0.89256,1.00000,1.00000,1.00000,3,3,1,27.71903,0.00260,1.14981,-0.3280,-0.1301,0.0275,-0.0333,-0.0202,-0.0147,-15.45,-13.26,-177.83,1,1,1,121,237,0,0,0,0,0,0.00,0,0,0,0,0,0,0,0.00,0.00,0,0,0.0000,0.0000,0.0000,0.0000,0.0000
2026-04-20T19:18:24.626,2.032,1,-2.97,-0.02,-22.46,6.57,1,0.3291,0.1305,0.3227,-0.0381,-0.0220,-0.0145,15.77,-23.28,48.35,34.36,122,109,0.89344,1.00000,1.00000,1.00000,3,3,1,27.71722,0.00270,1.14775,-0.3291,-0.1305,0.0273,-0.0381,-0.0220,-0.0145,-15.77,-13.10,-177.68,1,1,1,122,238,0,0,0,0,0,0.00,0,0,0,0,0,0,0,0.00,0.00,0,0,0.0000,0.0000,0.0000,0.0000,0.0000
2026-04-20T19:18:24.643,2.050,1,-2.97,-0.02,-22.46,6.57,1,0.3305,0.1309,0.3232,-0.0437,-0.0215,-0.0167,15.85,-4.09,62.13,130.35,123,110,0.89431,1.00000,1.00000,1.00000,3,3,1,27.68157,0.00260,1.15248,-0.3305,-0.1309,0.0268,-0.0437,-0.0215,-0.0167,-15.85,-13.07,-177.88,1,1,1,123,239,0,0,0,0,0,0.00,0,0,0,0,0,0,0,0.00,0.00,0,0,0.0000,0.0000,0.0000,0.0000,0.0000
2026-04-20T19:18:24.660,2.066,1,-1.85,-0.61,15.33,-6.77,1,0.3317,0.1314,0.3234,-0.0470,-0.0236,-0.0167,16.00,-8.88,59.77,46.40,124,111,0.89516,1.00000,1.00000,1.00000,3,3,1,27.76872,0.00258,1.14706,-0.3317,-0.1314,0.0266,-0.0470,-0.0236,-0.0167,-16.00,-12.87,-177.57,1,1,1,124,236,0,0,0,0,0,0.00,0,0,0,0,0,0,0,0.00,0.00,0,0,0.0000,0.0000,0.0000,0.0000,0.0000
2026-04-20T19:18:24.673,2.079,1,-1.85,-0.61,15.33,-6.77,1,0.3334,0.1315,0.3239,-0.0553,-0.0212,-0.0189,15.95,3.69,57.53,48.01,125,112,0.89600,1.00000,1.00000,1.00000,3,3,1,27.71051,0.00253,1.15744,-0.3334,-0.1315,0.0261,-0.0553,-0.0212,-0.0189,-15.95,-12.92,-177.87,1,1,1,125,239,0,0,0,0,0,0.00,0,0,0,0,0,0,0,0.00,0.00,0,0,0.0000,0.0000,0.0000,0.0000,0.0000
2026-04-20T19:18:24.692,2.099,1,-1.85,-0.61,15.33,-6.77,1,0.3352,0.1321,0.3243,-0.0629,-0.0234,-0.0200,15.91,2.14,67.25,65.33,126,113,0.89683,1.00000,1.00000,1.00000,3,3,1,27.88982,0.00253,1.15171,-0.3352,-0.1321,0.0257,-0.0629,-0.0234,-0.0200,-15.91,-13.43,-177.71,1,1,1,126,238,0,0,0,0,0,0.00,0,0,0,0,0,0,0,0.00,0.00,0,0,0.0000,0.0000,0.0000,0.0000,0.0000
2026-04-20T19:18:24.710,2.116,1,-1.37,-0.28,20.63,19.33,1,0.3368,0.1327,0.3245,-0.0667,-0.0265,-0.0183,15.81,5.76,57.28,65.03,127,114,0.89764,1.00000,1.00000,1.00000,3,3,1,27.88874,0.00265,1.15492,-0.3368,-0.1327,0.0255,-0.0667,-0.0265,-0.0183,-15.81,-13.39,-177.34,1,1,1,127,239,0,0,0,0,0,0.00,0,0,0,0,0,0,0,0.00,0.00,0,0,0.0000,0.0000,0.0000,0.0000,0.0000
2026-04-20T19:18:24.727,2.133,1,-1.37,-0.28,20.63,19.33,1,0.3384,0.1333,0.3248,-0.0702,-0.0274,-0.0185,16.52,-42.38,54.62,50.92,128,115,0.89844,1.00000,1.00000,1.00000,3,3,1,27.93291,0.00292,1.15464,-0.3384,-0.1333,0.0252,-0.0702,-0.0274,-0.0185,-16.52,-13.79,-176.49,1,1,1,128,238,0,0,0,0,0,0.00,0,0,0,0,0,0,0,0.00,0.00,0,0,0.0000,0.0000,0.0000,0.0000,0.0000
