iso_time,elapsed_s,imu_ready,imu_pitch_deg,imu_roll_deg,imu_pitch_rate_deg_s,imu_roll_rate_deg_s,mocap_valid,mocap_x_error_m,mocap_y_error_m,mocap_z_error_m,mocap_vx_m_s,mocap_vy_m_s,mocap_vz_m_s,mocap_yaw_error_deg,mocap_yaw_rate_deg_s,backend_loop_hz,tracking_loop_hz,frames_processed,valid_pose_frames,pose_success_rate,full_marker_detection_rate,cam1_full_detection_rate,cam2_full_detection_rate,cam1_leds,cam2_leds,spatial_data_valid,mapping_error_px,model_fit_error_m,scale_factor,position_x_m,position_y_m,position_z_m,velocity_x_m_s,velocity_y_m_s,velocity_z_m_s,yaw_deg,pitch_deg,roll_deg,serial_connected,serial_send_enabled,serial_send_ok,serial_payload_seq,serial_payload_size_bytes,bridge_serial_frames_rx,bridge_espnow_tx_attempts,bridge_espnow_tx_ok,bridge_espnow_tx_fail,bridge_oversize_drops,bridge_tx_rate_hz,bridge_last_tx_seq,bridge_last_tx_latency_us,controller_rx_packets,controller_rx_missing_packets,controller_rx_duplicate_packets,controller_rx_out_of_order_packets,controller_last_rx_seq,controller_loop_hz,controller_control_hz,controller_command_age_ms,controller_apply_latency_us,controller_motor_imbalance,motor_1_output,motor_2_output,motor_3_output,motor_4_output
2026-04-20T19:11:03.394,0.017,1,0.06,-0.70,-3.90,3.52,0,0.0000,0.0000,0.3500,0.0000,0.0000,0.0000,0.00,0.00,52.10,60.06,1,0,0.00000,0.00000,0.00000,0.00000,0,0,0,0.00000,0.00000,1.00000,0.0000,0.0000,0.0000,0.0000,0.0000,0.0000,0.00,0.00,0.00,1,1,1,1,193,6503,6503,6503,0,0,60.00,2234,3531,6514,4,0,2190,4057633,0.00,0.00,12,1218,0.0000,0.0000,0.0000,0.0000,0.0000
2026-04-20T19:11:03.399,0.021,1,0.06,-0.70,-3.90,3.52,0,0.0000,0.0000,0.3500,0.0000,0.0000,0.0000,0.00,0.00,65.24,146.60,2,0,0.00000,0.00000,0.00000,0.00000,0,0,0,0.00000,0.00000,1.00000,0.0000,0.0000,0.0000,0.0000,0.0000,0.0000,0.00,0.00,0.00,1,1,1,2,193,6503,6503,6503,0,0,60.00,2234,3531,6514,4,0,2190,4057633,0.00,0.00,12,1218,0.0000,0.0000,0.0000,0.0000,0.0000
2026-04-20T19:11:03.427,0.049,1,0.06,-0.70,-3.90,3.52,0,0.0000,0.0000,0.3500,0.0000,0.0000,0.0000,0.00,0.00,259.12,51.64,3,0,0.00000,0.00000,0.00000,0.00000,0,0,0,0.00000,0.00000,1.00000,0.0000,0.0000,0.0000,0.0000,0.0000,0.0000,0.00,0.00,0.00,1,1,1,3,193,6503,6503,6503,0,0,60.00,2234,3531,6514,4,0,2190,4057633,0.00,0.00,12,1218,0.0000,0.0000,0.0000,0.0000,0.0000
2026-04-20T19:11:03.442,0.064,1,0.06,-0.70,-3.90,3.52,0,0.0000,0.0000,0.3500,0.0000,0.0000,0.0000,0.00,0.00,35.88,42.43,4,0,0.00000,0.00000,0.00000,0.00000,0,0,0,0.00000,0.00000,1.00000,0.0000,0.0000,0.0000,0.0000,0.0000,0.0000,0.00,0.00,0.00,1,1,1,4,193,6503,6503,6503,0,0,60.00,2234,3531,6514,4,0,2190,4057633,0.00,0.00,12,1218,0.0000,0.0000,0.0000,0.0000,0.0000
2026-04-20T19:11:03.461,0.083,1,0.06,-0.70,-3.90,3.52,0,0.0000,0.0000,0.3500,0.0000,0.0000,0.0000,0.00,0.00,66.39,59.24,5,0,0.00000,0.00000,0.00000,0.00000,0,0,0,0.00000,0.00000,1.00000,0.0000,0.0000,0.0000,0.0000,0.0000,0.0000,0.00,0.00,0.00,1,1,1,5,193,6503,6503,6503,0,0,60.00,2234,3531,6514,4,0,2190,4057633,0.00,0.00,12,1218,0.0000,0.0000,0.0000,0.0000,0.0000
2026-04-20T19:11:03.477,0.099,1,0.04,-0.71,-3.87,3.52,0,0.0000,0.0000,0.3500,0.0000,0.0000,0.0000,0.00,0.00,50.88,253.83,6,0,0.00000,0.00000,0.00000,0.00000,0,0,0,0.00000,0.00000,1.00000,0.0000,0.0000,0.0000,0.0000,0.0000,0.0000,0.00,0.00,0.00,1,1,1,6,193,6503,6503,6503,0,0,60.00,2234,3531,6514,4,0,2190,4057633,0.00,0.00,12,1218,0.0000,0.0000,0.0000,0.0000,0.0000
2026-04-20T19:11:03.487,0.110,1,0.04,-0.71,-3.87,3.52,0,0.0000,0.0000,0.3500,0.0000,0.0000,0.0000,0.00,0.00,65.36,40.62,7,0,0.00000,0.00000,0.00000,0.00000,0,0,0,0.00000,0.00000,1.00000,0.0000,0.0000,0.0000,0.0000,0.0000,0.0000,0.00,0.00,0.00,1,1,1,7,193,6503,6503,6503,0,0,60.00,2234,3531,6514,4,0,2190,4057633,0.00,0.00,12,1218,0.0000,0.0000,0.0000,0.0000,0.0000
2026-04-20T19:11:03.507,0.130,1,0.04,-0.71,-3.87,3.52,0,0.0000,0.0000,0.3500,0.0000,0.0000,0.0000,0.00,0.00,58.87,50.33,8,0,0.00000,0.00000,0.00000,0.00000,0,0,0,0.00000,0.00000,1.00000,0.0000,0.0000,0.0000,0.0000,0.0000,0.0000,0.00,0.00,0.00,1,1,1,8,193,6503,6503,6503,0,0,60.00,2234,3531,6514,4,0,2190,4057633,0.00,0.00,12,1218,0.0000,0.0000,0.0000,0.0000,0.0000
2026-04-20T19:11:03.527,0.149,1,0.05,-0.71,-3.91,3.52,0,0.0000,0.0000,0.3500,0.0000,0.0000,0.0000,0.00,0.00,59.84,57.69,9,0,0.00000,0.00000,0.00000,0.00000,0,0,0,0.00000,0.00000,1.00000,0.0000,0.0000,0.0000,0.0000,0.0000,0.0000,0.00,0.00,0.00,1,1,1,9,193,6503,6503,6503,0,0,60.00,2234,3531,6514,4,0,2190,4057633,0.00,0.00,12,1218,0.0000,0.0000,0.0000,0.0000,0.0000
2026-04-20T19:11:03.543,0.166,1,0.05,-0.71,-3.91,3.52,0,0.0000,0.0000,0.3500,0.0000,0.0000,0.0000,0.00,0.00,58.81,56.88,10,0,0.00000,0.00000,0.00000,0.00000,0,0,0,0.00000,0.00000,1.00000,0.0000,0.0000,0.0000,0.0000,0.0000,0.0000,0.00,0.00,0.00,1,1,1,10,193,6503,6503,6503,0,0,60.00,2234,3531,6514,4,0,2190,4057633,0.00,0.00,12,1218,0.0000,0.0000,0.0000,0.0000,0.0000
2026-04-20T19:11:03.560,0.182,1,0.05,-0.71,-3.91,3.52,0,0.0000,0.0000,0.3500,0.0000,0.0000,0.0000,0.00,0.00,64.01,59.56,11,0,0.00000,0.00000,0.00000,0.00000,0,0,0,0.00000,0.00000,1.00000,0.0000,0.0000,0.0000,0.0000,0.0000,0.0000,0.00,0.00,0.00,1,1,1,11,193,6503,6503,6503,0,0,60.00,2234,3531,6514,4,0,2190,4057633,0.00,0.00,12,1218,0.0000,0.0000,0.0000,0.0000,0.0000
2026-04-20T19:11:03.577,0.199,1,0.04,-0.71,-3.94,3.54,0,0.0000,0.0000,0.3500,0.0000,0.0000,0.0000,0.00,0.00,59.77,152.24,12,0,0.00000,0.00000,0.00000,0.00000,0,0,0,0.00000,0.00000,1.00000,0.0000,0.0000,0.0000,0.0000,0.0000,0.0000,0.00,0.00,0.00,1,1,1,12,193,6503,6503,6503,0,0,60.00,2234,3531,6514,4,0,2190,4057633,0.00,0.00,12,1218,0.0000,0.0000,0.0000,0.0000,0.0000
2026-04-20T19:11:03.591,0.213,1,0.04,-0.71,-3.94,3.54,0,0.0000,0.0000,0.3500,0.0000,0.0000,0.0000,0.00,0.00,58.53,39.48,13,0,0.00000,0.00000,0.00000,0.00000,0,0,0,0.00000,0.00000,1.00000,0.0000,0.0000,0.0000,0.0000,0.0000,0.0000,0.00,0.00,0.00,1,1,1,13,193,6503,6503,6503,0,0,60.00,2234,3531,6514,4,0,2190,4057633,0.00,0.00,12,1218,0.0000,0.0000,0.0000,0.0000,0.0000
2026-04-20T19:11:03.612,0.234,1,0.04,-0.71,-3.94,3.54,0,0.0000,0.0000,0.3500,0.0000,0.0000,0.0000,0.00,0.00,72.39,87.82,14,0,0.00000,0.00000,0.00000,0.00000,0,0,0,0.00000,0.00000,1.00000,0.0000,0.0000,0.0000,0.0000,0.0000,0.0000,0.00,0.00,0.00,1,1,1,14,193,6503,6503,6503,0,0,60.00,2234,3531,6514,4,0,2190,4057633,0.00,0.00,12,1218,0.0000,0.0000,0.0000,0.0000,0.0000
2026-04-20T19:11:03.627,0.249,1,0.04,-0.71,-3.94,3.54,0,0.0000,0.0000,0.3500,0.0000,0.0000,0.0000,0.00,0.00,45.54,49.34,15,0,0.00000,0.00000,0.00000,0.00000,0,0,0,0.00000,0.00000,1.00000,0.0000,0.0000,0.0000,0.0000,0.0000,0.0000,0.00,0.00,0.00,1,1,1,15,193,6503,6503,6503,0,0,60.00,2234,3531,6514,4,0,2190,4057633,0.00,0.00,12,1218,0.0000,0.0000,0.0000,0.0000,0.0000
2026-04-20T19:11:03.642,0.264,1,0.04,-0.71,-3.94,3.54,0,0.0000,0.0000,0.3500,0.0000,0.0000,0.0000,0.00,0.00,70.81,52.62,16,0,0.00000,0.00000,0.00000,0.00000,0,0,0,0.00000,0.00000,1.00000,0.0000,0.0000,0.0000,0.0000,0.0000,0.0000,0.00,0.00,0.00,1,1,1,16,193,6503,6503,6503,0,0,60.00,2234,3531,6514,4,0,2190,4057633,0.00,0.00,12,1218,0.0000,0.0000,0.0000,0.0000,0.0000
2026-04-20T19:11:03.660,0.282,1,0.04,-0.71,-3.94,3.54,0,0.0000,0.0000,0.3500,0.0000,0.0000,0.0000,0.00,0.00,68.61,59.08,17,0,0.00000,0.00000,0.00000,0.00000,0,0,0,0.00000,0.00000,1.00000,0.0000,0.0000,0.0000,0.0000,0.0000,0.0000,0.00,0.00,0.00,1,1,1,17,193,6503,6503,6503,0,0,60.00,2234,3531,6514,4,0,2190,4057633,0.00,0.00,12,1218,0.0000,0.0000,0.0000,0.0000,0.0000
2026-04-20T19:11:03.677,0.299,1,0.04,-0.71,-3.94,3.54,0,0.0000,0.0000,0.3500,0.0000,0.0000,0.0000,0.00,0.00,54.96,60.21,18,0,0.00000,0.00000,0.00000,0.00000,0,0,0,0.00000,0.00000,1.00000,0.0000,0.0000,0.0000,0.0000,0.0000,0.0000,0.00,0.00,0.00,1,1,1,18,193,6503,6503,6503,0,0,60.00,2234,3531,6514,4,0,2190,4057633,0.00,0.00,12,1218,0.0000,0.0000,0.0000,0.0000,0.0000
2026-04-20T19:11:03.687,0.309,1,0.05,-0.72,-3.94,3.51,0,0.0000,0.0000,0.3500,0.0000,0.0000,0.0000,0.00,0.00,59.38,83.62,19,0,0.00000,0.00000,0.00000,0.00000,0,0,0,0.00000,0.00000,1.00000,0.0000,0.0000,0.0000,0.0000,0.0000,0.0000,0.00,0.00,0.00,1,1,1,19,193,6503,6503,6503,0,0,60.00,2234,3531,6514,4,0,2190,4057633,0.00,0.00,12,1218,0.0000,0.0000,0.0000,0.0000,0.0000
2026-04-20T19:11:03.698,0.321,1,0.05,-0.72,-3.94,3.51,0,0.0000,0.0000,0.3500,0.0000,0.0000,0.0000,0.00,0.00,95.64,89.08,20,0,0.00000,0.00000,0.00000,0.00000,0,0,0,0.00000,0.00000,1.00000,0.0000,0.0000,0.0000,0.0000,0.0000,0.0000,0.00,0.00,0.00,1,1,1,20,193,6503,6503,6503,0,0,60.00,2234,3531,6514,4,0,2190,4057633,0.00,0.00,12,1218,0.0000,0.0000,0.0000,0.0000,0.0000
2026-04-20T19:11:03.716,0.339,1,0.05,-0.72,-3.94,3.51,0,0.0000,0.0000,0.3500,0.0000,0.0000,0.0000,0.00,0.00,89.08,55.81,21,0,0.00000,0.00000,0.00000,0.00000,0,0,0,0.00000,0.00000,1.00000,0.0000,0.0000,0.0000,0.0000,0.0000,0.0000,0.00,0.00,0.00,1,1,1,21,193,6503,6503,6503,0,0,60.00,2234,3531,6514,4,0,2190,4057633,0.00,0.00,12,1218,0.0000,0.0000,0.0000,0.0000,0.0000
2026-04-20T19:11:03.737,0.359,1,0.05,-0.72,-3.94,3.51,0,0.0000,0.0000,0.3500,0.0000,0.0000,0.0000,0.00,0.00,34.97,47.90,22,0,0.00000,0.00000,0.00000,0.00000,0,0,0,0.00000,0.00000,1.00000,0.0000,0.0000,0.0000,0.0000,0.0000,0.0000,0.00,0.00,0.00,1,1,1,22,193,6503,6503,6503,0,0,60.00,2234,3531,6514,4,0,2190,4057633,0.00,0.00,12,1218,0.0000,0.0000,0.0000,0.0000,0.0000
2026-04-20T19:11:03.752,0.374,1,0.05,-0.72,-3.94,3.51,0,0.0000,0.0000,0.3500,0.0000,0.0000,0.0000,0.00,0.00,58.93,67.07,23,0,0.00000,0.00000,0.00000,0.00000,0,0,0,0.00000,0.00000,1.00000,0.0000,0.0000,0.0000,0.0000,0.0000,0.0000,0.00,0.00,0.00,1,1,1,23,193,6503,6503,6503,0,0,60.00,2234,3531,6514,4,0,2190,4057633,0.00,0.00,12,1218,0.0000,0.0000,0.0000,0.0000,0.0000
2026-04-20T19:11:03.777,0.399,1,0.06,-0.73,-3.93,3.46,0,0.0000,0.0000,0.3500,0.0000,0.0000,0.0000,0.00,0.00,122.84,52.00,24,0,0.00000,0.00000,0.00000,0.00000,0,0,0,0.00000,0.00000,1.00000,0.0000,0.0000,0.0000,0.0000,0.0000,0.0000,0.00,0.00,0.00,1,1,1,24,193,6503,6503,6503,0,0,60.00,2234,3531,6514,4,0,2190,4057633,0.00,0.00,12,1218,0.0000,0.0000,0.0000,0.0000,0.0000
2026-04-20T19:11:03.792,0.414,1,0.06,-0.73,-3.93,3.46,0,0.0000,0.0000,0.3500,0.0000,0.0000,0.0000,0.00,0.00,37.66,49.17,25,0,0.00000,0.00000,0.00000,0.00000,0,0,0,0.00000,0.00000,1.00000,0.0000,0.0000,0.0000,0.0000,0.0000,0.0000,0.00,0.00,0.00,1,1,1,25,193,6503,6503,6503,0,0,60.00,2234,3531,6514,4,0,2190,4057633,0.00,0.00,12,1218,0.0000,0.0000,0.0000,0.0000,0.0000
2026-04-20T19:11:03.810,0.433,1,0.06,-0.73,-3.93,3.46,0,0.0000,0.0000,0.3500,0.0000,0.0000,0.0000,0.00,0.00,76.82,57.68,26,0,0.00000,0.00000,0.00000,0.00000,0,0,0,0.00000,0.00000,1.00000,0.0000,0.0000,0.0000,0.0000,0.0000,0.0000,0.00,0.00,0.00,1,1,1,26,193,6503,6503,6503,0,0,60.00,2234,3531,6514,4,0,2190,4057633,0.00,0.00,12,1218,0.0000,0.0000,0.0000,0.0000,0.0000
2026-04-20T19:11:03.826,0.448,1,0.06,-0.73,-3.93,3.46,0,0.0000,0.0000,0.3500,0.0000,0.0000,0.0000,0.00,0.00,50.04,60.15,27,0,0.00000,0.00000,0.00000,0.00000,0,0,0,0.00000,0.00000,1.00000,0.0000,0.0000,0.0000,0.0000,0.0000,0.0000,0.00,0.00,0.00,1,1,1,27,193,6503,6503,6503,0,0,60.00,2234,3531,6514,4,0,2190,4057633,0.00,0.00,12,1218,0.0000,0.0000,0.0000,0.0000,0.0000
2026-04-20T19:11:03.837,0.460,1,0.06,-0.73,-3.93,3.46,0,0.0000,0.0000,0.3500,0.0000,0.0000,0.0000,0.00,0.00,64.59,85.38,28,0,0.00000,0.00000,0.00000,0.00000,0,0,0,0.00000,0.00000,1.00000,0.0000,0.0000,0.0000,0.0000,0.0000,0.0000,0.00,0.00,0.00,1,1,1,28,193,6503,6503,6503,0,0,60.00,2234,3531,6514,4,0,2190,4057633,0.00,0.00,12,1218,0.0000,0.0000,0.0000,0.0000,0.0000
2026-04-20T19:11:03.859,0.482,1,0.06,-0.73,-3.93,3.46,0,0.0000,0.0000,0.3500,0.0000,0.0000,0.0000,0.00,0.00,97.95,47.33,29,0,0.00000,0.00000,0.00000,0.00000,0,0,0,0.00000,0.00000,1.00000,0.0000,0.0000,0.0000,0.0000,0.0000,0.0000,0.00,0.00,0.00,1,1,1,29,193,6503,6503,6503,0,0,60.00,2234,3531,6514,4,0,2190,4057633,0.00,0.00,12,1218,0.0000,0.0000,0.0000,0.0000,0.0000
2026-04-20T19:11:03.875,0.498,1,0.06,-0.73,-3.93,3.46,0,0.0000,0.0000,0.3500,0.0000,0.0000,0.0000,0.00,0.00,43.23,58.48,30,0,0.00000,0.00000,0.00000,0.00000,0,0,0,0.00000,0.00000,1.00000,0.0000,0.0000,0.0000,0.0000,0.0000,0.0000,0.00,0.00,0.00,1,1,1,30,193,6503,6503,6503,0,0,60.00,2234,3531,6514,4,0,2190,4057633,0.00,0.00,12,1218,0.0000,0.0000,0.0000,0.0000,0.0000
2026-04-20T19:11:03.893,0.515,1,0.05,-0.74,-3.88,3.55,0,0.0000,0.0000,0.3500,0.0000,0.0000,0.0000,0.00,0.00,60.24,62.06,31,0,0.00000,0.00000,0.00000,0.00000,0,0,0,0.00000,0.00000,1.00000,0.0000,0.0000,0.0000,0.0000,0.0000,0.0000,0.00,0.00,0.00,1,1,1,31,193,6503,6503,6503,0,0,60.00,2234,3531,6514,4,0,2190,4057633,0.00,0.00,12,1218,0.0000,0.0000,0.0000,0.0000,0.0000
2026-04-20T19:11:03.910,0.532,1,0.05,-0.74,-3.88,3.55,0,0.0000,0.0000,0.3500,0.0000,0.0000,0.0000,0.00,0.00,59.95,57.91,32,0,0.00000,0.00000,0.00000,0.00000,0,0,0,0.00000,0.00000,1.00000,0.0000,0.0000,0.0000,0.0000,0.0000,0.0000,0.00,0.00,0.00,1,1,1,32,193,6503,6503,6503,0,0,60.00,2234,3531,6514,4,0,2190,4057633,0.00,0.00,12,1218,0.0000,0.0000,0.0000,0.0000,0.0000
2026-04-20T19:11:03.927,0.549,1,0.05,-0.74,-3.88,3.55,0,0.0000,0.0000,0.3500,0.0000,0.0000,0.0000,0.00,0.00,61.74,74.39,33,0,0.00000,0.00000,0.00000,0.00000,0,0,0,0.00000,0.00000,1.00000,0.0000,0.0000,0.0000,0.0000,0.0000,0.0000,0.00,0.00,0.00,1,1,1,33,193,6503,6503,6503,0,0,60.00,2234,3531,6514,4,0,2190,4057633,0.00,0.00,12,1218,0.0000,0.0000,0.0000,0.0000,0.0000
2026-04-20T19:11:03.943,0.565,1,0.06,-0.75,-3.96,3.54,0,0.0000,0.0000,0.3500,0.0000,0.0000,0.0000,0.00,0.00,59.00,51.69,34,0,0.00000,0.00000,0.00000,0.00000,0,0,0,0.00000,0.00000,1.00000,0.0000,0.0000,0.0000,0.0000,0.0000,0.0000,0.00,0.00,0.00,1,1,1,34,193,6503,6503,6503,0,0,60.00,2234,3531,6514,4,0,2190,4057633,0.00,0.00,12,1218,0.0000,0.0000,0.0000,0.0000,0.0000
2026-04-20T19:11:03.959,0.581,1,0.06,-0.75,-3.96,3.54,0,0.0000,0.0000,0.3500,0.0000,0.0000,0.0000,0.00,0.00,59.37,62.76,35,0,0.00000,0.00000,0.00000,0.00000,0,0,0,0.00000,0.00000,1.00000,0.0000,0.0000,0.0000,0.0000,0.0000,0.0000,0.00,0.00,0.00,1,1,1,35,193,6503,6503,6503,0,0,60.00,2234,3531,6514,4,0,2190,4057633,0.00,0.00,12,1218,0.0000,0.0000,0.0000,0.0000,0.0000
2026-04-20T19:11:03.963,0.585,1,0.06,-0.75,-3.96,3.54,0,0.0000,0.0000,0.3500,0.0000,0.0000,0.0000,0.00,0.00,59.61,199.58,36,0,0.00000,0.00000,0.00000,0.00000,0,0,0,0.00000,0.00000,1.00000,0.0000,0.0000,0.0000,0.0000,0.0000,0.0000,0.00,0.00,0.00,1,1,1,36,193,6503,6503,6503,0,0,60.00,2234,3531,6514,4,0,2190,4057633,0.00,0.00,12,1218,0.0000,0.0000,0.0000,0.0000,0.0000
2026-04-20T19:11:03.993,0.616,1,0.06,-0.76,-3.91,3.51,0,0.0000,0.0000,0.3500,0.0000,0.0000,0.0000,0.00,0.00,61.46,33.75,37,0,0.00000,0.00000,0.00000,0.00000,0,0,0,0.00000,0.00000,1.00000,0.0000,0.0000,0.0000,0.0000,0.0000,0.0000,0.00,0.00,0.00,1,1,1,37,193,6503,6503,6503,0,0,60.00,2234,3531,6514,4,0,2190,4057633,0.00,0.00,12,1218,0.0000,0.0000,0.0000,0.0000,0.0000
2026-04-20T19:11:04.009,0.632,1,0.06,-0.76,-3.91,3.51,0,0.0000,0.0000,0.3500,0.0000,0.0000,0.0000,0.00,0.00,59.75,59.95,38,0,0.00000,0.00000,0.00000,0.00000,0,0,0,0.00000,0.00000,1.00000,0.0000,0.0000,0.0000,0.0000,0.0000,0.0000,0.00,0.00,0.00,1,1,1,38,193,6503,6503,6503,0,0,60.00,2234,3531,6514,4,0,2190,4057633,0.00,0.00,12,1218,0.0000,0.0000,0.0000,0.0000,0.0000
2026-04-20T19:11:04.028,0.650,1,0.06,-0.76,-3.91,3.51,0,0.0000,0.0000,0.3500,0.0000,0.0000,0.0000,0.00,0.00,58.39,61.33,39,0,0.00000,0.00000,0.00000,0.00000,0,0,0,0.00000,0.00000,1.00000,0.0000,0.0000,0.0000,0.0000,0.0000,0.0000,0.00,0.00,0.00,1,1,1,39,193,6503,6503,6503,0,0,60.00,2234,3531,6514,4,0,2190,4057633,0.00,0.00,12,1218,0.0000,0.0000,0.0000,0.0000,0.0000
2026-04-20T19:11:04.037,0.659,1,0.05,-0.75,-3.91,3.58,0,0.0000,0.0000,0.3500,0.0000,0.0000,0.0000,0.00,0.00,54.76,84.21,40,0,0.00000,0.00000,0.00000,0.00000,0,0,0,0.00000,0.00000,1.00000,0.0000,0.0000,0.0000,0.0000,0.0000,0.0000,0.00,0.00,0.00,1,1,1,40,193,6503,6503,6503,0,0,60.00,2234,3531,6514,4,0,2190,4057633,0.00,0.00,12,1218,0.0000,0.0000,0.0000,0.0000,0.0000
2026-04-20T19:11:04.051,0.673,1,0.05,-0.75,-3.91,3.58,0,0.0000,0.0000,0.3500,0.0000,0.0000,0.0000,0.00,0.00,121.19,71.26,41,0,0.00000,0.00000,0.00000,0.00000,0,0,0,0.00000,0.00000,1.00000,0.0000,0.0000,0.0000,0.0000,0.0000,0.0000,0.00,0.00,0.00,1,1,1,41,193,6503,6503,6503,0,0,60.00,2234,3531,6514,4,0,2190,4057633,0.00,0.00,12,1218,0.0000,0.0000,0.0000,0.0000,0.0000
2026-04-20T19:11:04.077,0.699,1,0.05,-0.75,-3.91,3.58,0,0.0000,0.0000,0.3500,0.0000,0.0000,0.0000,0.00,0.00,71.26,52.79,42,0,0.00000,0.00000,0.00000,0.00000,0,0,0,0.00000,0.00000,1.00000,0.0000,0.0000,0.0000,0.0000,0.0000,0.0000,0.00,0.00,0.00,1,1,1,42,193,6503,6503,6503,0,0,60.00,2234,3531,6514,4,0,2190,4057633,0.00,0.00,12,1218,0.0000,0.0000,0.0000,0.0000,0.0000
2026-04-20T19:11:04.093,0.715,1,0.05,-0.75,-3.91,3.58,0,0.0000,0.0000,0.3500,0.0000,0.0000,0.0000,0.00,0.00,37.67,45.93,43,0,0.00000,0.00000,0.00000,0.00000,0,0,0,0.00000,0.00000,1.00000,0.0000,0.0000,0.0000,0.0000,0.0000,0.0000,0.00,0.00,0.00,1,1,1,43,193,6503,6503,6503,0,0,60.00,2234,3531,6514,4,0,2190,4057633,0.00,0.00,12,1218,0.0000,0.0000,0.0000,0.0000,0.0000
2026-04-20T19:11:04.109,0.731,1,0.05,-0.75,-3.91,3.58,0,0.0000,0.0000,0.3500,0.0000,0.0000,0.0000,0.00,0.00,65.90,59.13,44,0,0.00000,0.00000,0.00000,0.00000,0,0,0,0.00000,0.00000,1.00000,0.0000,0.0000,0.0000,0.0000,0.0000,0.0000,0.00,0.00,0.00,1,1,1,44,193,6503,6503,6503,0,0,60.00,2234,3531,6514,4,0,2190,4057633,0.00,0.00,12,1218,0.0000,0.0000,0.0000,0.0000,0.0000
2026-04-20T19:11:04.118,0.740,1,0.05,-0.75,-3.91,3.58,0,0.0000,0.0000,0.3500,0.0000,0.0000,0.0000,0.00,0.00,57.76,113.21,45,0,0.00000,0.00000,0.00000,0.00000,0,0,0,0.00000,0.00000,1.00000,0.0000,0.0000,0.0000,0.0000,0.0000,0.0000,0.00,0.00,0.00,1,1,1,45,193,6503,6503,6503,0,0,60.00,2234,3531,6514,4,0,2190,4057633,0.00,0.00,12,1218,0.0000,0.0000,0.0000,0.0000,0.0000
2026-04-20T19:11:04.143,0.765,1,0.05,-0.76,-3.88,3.54,0,0.0000,0.0000,0.3500,0.0000,0.0000,0.0000,0.00,0.00,60.84,41.58,46,0,0.00000,0.00000,0.00000,0.00000,0,0,0,0.00000,0.00000,1.00000,0.0000,0.0000,0.0000,0.0000,0.0000,0.0000,0.00,0.00,0.00,1,1,1,46,193,6503,6503,6503,0,0,60.00,2234,3531,6514,4,0,2190,4057633,0.00,0.00,12,1218,0.0000,0.0000,0.0000,0.0000,0.0000
2026-04-20T19:11:04.156,0.778,1,0.05,-0.76,-3.88,3.54,0,0.0000,0.0000,0.3500,0.0000,0.0000,0.0000,0.00,0.00,58.66,69.90,47,0,0.00000,0.00000,0.00000,0.00000,0,0,0,0.00000,0.00000,1.00000,0.0000,0.0000,0.0000,0.0000,0.0000,0.0000,0.00,0.00,0.00,1,1,1,47,193,6503,6503,6503,0,0,60.00,2234,3531,6514,4,0,2190,4057633,0.00,0.00,12,1218,0.0000,0.0000,0.0000,0.0000,0.0000
2026-04-20T19:11:04.175,0.798,1,0.05,-0.76,-3.88,3.54,0,0.0000,0.0000,0.3500,0.0000,0.0000,0.0000,0.00,0.00,59.67,51.57,48,0,0.00000,0.00000,0.00000,0.00000,0,0,0,0.00000,0.00000,1.00000,0.0000,0.0000,0.0000,0.0000,0.0000,0.0000,0.00,0.00,0.00,1,1,1,48,193,6503,6503,6503,0,0,60.00,2234,3531,6514,4,0,2190,4057633,0.00,0.00,12,1218,0.0000,0.0000,0.0000,0.0000,0.0000
2026-04-20T19:11:04.193,0.815,1,0.04,-0.75,-3.93,3.60,0,0.0000,0.0000,0.3500,0.0000,0.0000,0.0000,0.00,0.00,60.84,61.31,49,0,0.00000,0.00000,0.00000,0.00000,0,0,0,0.00000,0.00000,1.00000,0.0000,0.0000,0.0000,0.0000,0.0000,0.0000,0.00,0.00,0.00,1,1,1,49,193,6503,6503,6503,0,0,60.00,2234,3531,6514,4,0,2190,4057633,0.00,0.00,12,1218,0.0000,0.0000,0.0000,0.0000,0.0000
2026-04-20T19:11:04.203,0.825,1,0.04,-0.75,-3.93,3.60,0,0.0000,0.0000,0.3500,0.0000,0.0000,0.0000,0.00,0.00,59.48,90.26,50,0,0.00000,0.00000,0.00000,0.00000,0,0,0,0.00000,0.00000,1.00000,0.0000,0.0000,0.0000,0.0000,0.0000,0.0000,0.00,0.00,0.00,1,1,1,50,193,6503,6503,6503,0,0,60.00,2234,3531,6514,4,0,2190,4057633,0.00,0.00,12,1218,0.0000,0.0000,0.0000,0.0000,0.0000
2026-04-20T19:11:04.227,0.849,1,0.04,-0.75,-3.93,3.60,0,0.0000,0.0000,0.3500,0.0000,0.0000,0.0000,0.00,0.00,110.20,43.95,51,0,0.00000,0.00000,0.00000,0.00000,0,0,0,0.00000,0.00000,1.00000,0.0000,0.0000,0.0000,0.0000,0.0000,0.0000,0.00,0.00,0.00,1,1,1,51,193,6503,6503,6503,0,0,60.00,2234,3531,6514,4,0,2190,4057633,0.00,0.00,12,1218,0.0000,0.0000,0.0000,0.0000,0.0000
2026-04-20T19:11:04.242,0.864,1,0.04,-0.74,-3.84,3.51,0,0.0000,0.0000,0.3500,0.0000,0.0000,0.0000,0.00,0.00,39.58,60.44,52,0,0.00000,0.00000,0.00000,0.00000,0,0,0,0.00000,0.00000,1.00000,0.0000,0.0000,0.0000,0.0000,0.0000,0.0000,0.00,0.00,0.00,1,1,1,52,193,6503,6503,6503,0,0,60.00,2234,3531,6514,4,0,2190,4057633,0.00,0.00,12,1218,0.0000,0.0000,0.0000,0.0000,0.0000
2026-04-20T19:11:04.251,0.873,1,0.04,-0.74,-3.84,3.51,0,0.0000,0.0000,0.3500,0.0000,0.0000,0.0000,0.00,0.00,63.12,108.69,53,0,0.00000,0.00000,0.00000,0.00000,0,0,0,0.00000,0.00000,1.00000,0.0000,0.0000,0.0000,0.0000,0.0000,0.0000,0.00,0.00,0.00,1,1,1,53,193,6503,6503,6503,0,0,60.00,2234,3531,6514,4,0,2190,4057633,0.00,0.00,12,1218,0.0000,0.0000,0.0000,0.0000,0.0000
2026-04-20T19:11:04.277,0.899,1,0.04,-0.74,-3.84,3.51,0,0.0000,0.0000,0.3500,0.0000,0.0000,0.0000,0.00,0.00,58.40,52.22,54,0,0.00000,0.00000,0.00000,0.00000,0,0,0,0.00000,0.00000,1.00000,0.0000,0.0000,0.0000,0.0000,0.0000,0.0000,0.00,0.00,0.00,1,1,1,54,193,6503,6503,6503,0,0,60.00,2234,3531,6514,4,0,2190,4057633,0.00,0.00,12,1218,0.0000,0.0000,0.0000,0.0000,0.0000
2026-04-20T19:11:04.292,0.914,1,0.04,-0.74,-3.84,3.51,0,0.0000,0.0000,0.3500,0.0000,0.0000,0.0000,0.00,0.00,59.67,46.84,55,0,0.00000,0.00000,0.00000,0.00000,0,0,0,0.00000,0.00000,1.00000,0.0000,0.0000,0.0000,0.0000,0.0000,0.0000,0.00,0.00,0.00,1,1,1,55,193,6503,6503,6503,0,0,60.00,2234,3531,6514,4,0,2190,4057633,0.00,0.00,12,1218,0.0000,0.0000,0.0000,0.0000,0.0000
2026-04-20T19:11:04.309,0.931,1,0.04,-0.74,-3.84,3.51,0,0.0000,0.0000,0.3500,0.0000,0.0000,0.0000,0.00,0.00,61.96,62.36,56,0,0.00000,0.00000,0.00000,0.00000,0,0,0,0.00000,0.00000,1.00000,0.0000,0.0000,0.0000,0.0000,0.0000,0.0000,0.00,0.00,0.00,1,1,1,56,193,6503,6503,6503,0,0,60.00,2234,3531,6514,4,0,2190,4057633,0.00,0.00,12,1218,0.0000,0.0000,0.0000,0.0000,0.0000
2026-04-20T19:11:04.326,0.948,1,0.04,-0.74,-3.84,3.51,0,0.0000,0.0000,0.3500,0.0000,0.0000,0.0000,0.00,0.00,61.75,57.91,57,0,0.00000,0.00000,0.00000,0.00000,0,0,0,0.00000,0.00000,1.00000,0.0000,0.0000,0.0000,0.0000,0.0000,0.0000,0.00,0.00,0.00,1,1,1,57,193,6503,6503,6503,0,0,60.00,2234,3531,6514,4,0,2190,4057633,0.00,0.00,12,1218,0.0000,0.0000,0.0000,0.0000,0.0000
2026-04-20T19:11:04.341,0.963,1,0.04,-0.74,-3.84,3.51,0,0.0000,0.0000,0.3500,0.0000,0.0000,0.0000,0.00,0.00,58.89,63.71,58,0,0.00000,0.00000,0.00000,0.00000,0,0,0,0.00000,0.00000,1.00000,0.0000,0.0000,0.0000,0.0000,0.0000,0.0000,0.00,0.00,0.00,1,1,1,58,193,6503,6503,6503,0,0,60.00,2234,3531,6514,4,0,2190,4057633,0.00,0.00,12,1218,0.0000,0.0000,0.0000,0.0000,0.0000
2026-04-20T19:11:04.352,0.974,1,0.05,-0.73,-3.90,3.54,0,0.0000,0.0000,0.3500,0.0000,0.0000,0.0000,0.00,0.00,73.03,91.28,59,0,0.00000,0.00000,0.00000,0.00000,0,0,0,0.00000,0.00000,1.00000,0.0000,0.0000,0.0000,0.0000,0.0000,0.0000,0.00,0.00,0.00,1,1,1,59,193,6503,6503,6503,0,0,60.00,2234,3531,6514,4,0,2190,4057633,0.00,0.00,12,1218,0.0000,0.0000,0.0000,0.0000,0.0000
2026-04-20T19:11:04.377,0.999,1,0.05,-0.73,-3.90,3.54,0,0.0000,0.0000,0.3500,0.0000,0.0000,0.0000,0.00,0.00,51.02,51.62,60,0,0.00000,0.00000,0.00000,0.00000,0,0,0,0.00000,0.00000,1.00000,0.0000,0.0000,0.0000,0.0000,0.0000,0.0000,0.00,0.00,0.00,1,1,1,60,193,6503,6503,6503,0,0,60.00,2234,3531,6514,4,0,2190,4057633,0.00,0.00,12,1218,0.0000,0.0000,0.0000,0.0000,0.0000
2026-04-20T19:11:04.391,1.013,1,0.05,-0.73,-3.90,3.54,0,0.0000,0.0000,0.3500,0.0000,0.0000,0.0000,0.00,0.00,61.60,50.24,61,0,0.00000,0.00000,0.00000,0.00000,0,0,0,0.00000,0.00000,1.00000,0.0000,0.0000,0.0000,0.0000,0.0000,0.0000,0.00,0.00,0.00,1,1,1,61,193,6503,6503,6503,0,0,60.00,2234,3531,6514,4,0,2190,4057633,0.00,0.00,12,1218,0.0000,0.0000,0.0000,0.0000,0.0000
2026-04-20T19:11:04.409,1.031,1,0.05,-0.73,-3.90,3.54,0,0.0000,0.0000,0.3500,0.0000,0.0000,0.0000,0.00,0.00,69.45,55.70,62,0,0.00000,0.00000,0.00000,0.00000,0,0,0,0.00000,0.00000,1.00000,0.0000,0.0000,0.0000,0.0000,0.0000,0.0000,0.00,0.00,0.00,1,1,1,62,193,6503,6503,6503,0,0,60.00,2234,3531,6514,4,0,2190,4057633,0.00,0.00,12,1218,0.0000,0.0000,0.0000,0.0000,0.0000
2026-04-20T19:11:04.426,1.048,1,0.05,-0.73,-3.90,3.54,0,0.0000,0.0000,0.3500,0.0000,0.0000,0.0000,0.00,0.00,51.60,61.86,63,0,0.00000,0.00000,0.00000,0.00000,0,0,0,0.00000,0.00000,1.00000,0.0000,0.0000,0.0000,0.0000,0.0000,0.0000,0.00,0.00,0.00,1,1,1,63,193,6503,6503,6503,0,0,60.00,2234,3531,6514,4,0,2190,4057633,0.00,0.00,12,1218,0.0000,0.0000,0.0000,0.0000,0.0000
2026-04-20T19:11:04.437,1.060,1,0.05,-0.73,-3.90,3.54,0,0.0000,0.0000,0.3500,0.0000,0.0000,0.0000,0.00,0.00,59.72,80.60,64,0,0.00000,0.00000,0.00000,0.00000,0,0,0,0.00000,0.00000,1.00000,0.0000,0.0000,0.0000,0.0000,0.0000,0.0000,0.00,0.00,0.00,1,1,1,64,193,6503,6503,6503,0,0,60.00,2234,3531,6514,4,0,2190,4057633,0.00,0.00,12,1218,0.0000,0.0000,0.0000,0.0000,0.0000
2026-04-20T19:11:04.449,1.071,1,0.05,-0.73,-3.90,3.54,0,0.0000,0.0000,0.3500,0.0000,0.0000,0.0000,0.00,0.00,96.11,86.23,65,0,0.00000,0.00000,0.00000,0.00000,0,0,0,0.00000,0.00000,1.00000,0.0000,0.0000,0.0000,0.0000,0.0000,0.0000,0.00,0.00,0.00,1,1,1,65,193,6503,6503,6503,0,0,60.00,2234,3531,6665,4,0,2341,40576,199.68,0.00,2,2255,0.0000,0.0000,0.0000,0.0000,0.0000
2026-04-20T19:11:04.477,1.099,1,0.05,-0.73,-3.90,3.54,0,0.0000,0.0000,0.3500,0.0000,0.0000,0.0000,0.00,0.00,86.23,45.08,66,0,0.00000,0.00000,0.00000,0.00000,0,0,0,0.00000,0.00000,1.00000,0.0000,0.0000,0.0000,0.0000,0.0000,0.0000,0.00,0.00,0.00,1,1,1,66,193,6503,6503,6503,0,0,60.00,2234,3531,6665,4,0,2341,40576,199.68,0.00,2,2255,0.0000,0.0000,0.0000,0.0000,0.0000
2026-04-20T19:11:04.489,1.111,1,0.05,-0.73,-3.90,3.54,0,0.0000,0.0000,0.3500,0.0000,0.0000,0.0000,0.00,0.00,36.10,56.96,67,0,0.00000,0.00000,0.00000,0.00000,0,0,0,0.00000,0.00000,1.00000,0.0000,0.0000,0.0000,0.0000,0.0000,0.0000,0.00,0.00,0.00,1,1,1,67,193,6503,6503,6503,0,0,60.00,2234,3531,6665,4,0,2341,40576,199.68,0.00,2,2255,0.0000,0.0000,0.0000,0.0000,0.0000
2026-04-20T19:11:04.509,1.131,1,0.05,-0.73,-3.90,3.54,0,0.0000,0.0000,0.3500,0.0000,0.0000,0.0000,0.00,0.00,83.10,50.53,68,0,0.00000,0.00000,0.00000,0.00000,0,0,0,0.00000,0.00000,1.00000,0.0000,0.0000,0.0000,0.0000,0.0000,0.0000,0.00,0.00,0.00,1,1,1,68,193,6503,6503,6503,0,0,60.00,2234,3531,6665,4,0,2341,40576,199.68,0.00,2,2255,0.0000,0.0000,0.0000,0.0000,0.0000
2026-04-20T19:11:04.526,1.148,1,0.05,-0.73,-3.90,3.54,0,0.0000,0.0000,0.3500,0.0000,0.0000,0.0000,0.00,0.00,50.53,61.44,69,0,0.00000,0.00000,0.00000,0.00000,0,0,0,0.00000,0.00000,1.00000,0.0000,0.0000,0.0000,0.0000,0.0000,0.0000,0.00,0.00,0.00,1,1,1,69,193,6503,6503,6503,0,0,60.00,2234,3531,6665,4,0,2341,40576,199.68,0.00,2,2255,0.0000,0.0000,0.0000,0.0000,0.0000
2026-04-20T19:11:04.542,1.164,1,0.05,-0.73,-3.90,3.54,0,0.0000,0.0000,0.3500,0.0000,0.0000,0.0000,0.00,0.00,54.54,57.76,70,0,0.00000,0.00000,0.00000,0.00000,0,0,0,0.00000,0.00000,1.00000,0.0000,0.0000,0.0000,0.0000,0.0000,0.0000,0.00,0.00,0.00,1,1,1,70,193,6503,6503,6503,0,0,60.00,2234,3531,6665,4,0,2341,40576,199.68,0.00,2,2255,0.0000,0.0000,0.0000,0.0000,0.0000
2026-04-20T19:11:04.560,1.182,1,0.05,-0.74,-3.85,3.51,0,0.0000,0.0000,0.3500,0.0000,0.0000,0.0000,0.00,0.00,65.55,64.07,71,0,0.00000,0.00000,0.00000,0.00000,0,0,0,0.00000,0.00000,1.00000,0.0000,0.0000,0.0000,0.0000,0.0000,0.0000,0.00,0.00,0.00,1,1,1,71,193,6503,6503,6503,0,0,60.00,2234,3531,6665,4,0,2341,40576,199.68,0.00,2,2255,0.0000,0.0000,0.0000,0.0000,0.0000
2026-04-20T19:11:04.575,1.197,1,0.05,-0.74,-3.85,3.51,0,0.0000,0.0000,0.3500,0.0000,0.0000,0.0000,0.00,0.00,56.77,57.50,72,0,0.00000,0.00000,0.00000,0.00000,0,0,0,0.00000,0.00000,1.00000,0.0000,0.0000,0.0000,0.0000,0.0000,0.0000,0.00,0.00,0.00,1,1,1,72,193,6503,6503,6503,0,0,60.00,2234,3531,6665,4,0,2341,40576,199.68,0.00,2,2255,0.0000,0.0000,0.0000,0.0000,0.0000
2026-04-20T19:11:04.589,1.211,1,0.05,-0.74,-3.85,3.51,0,0.0000,0.0000,0.3500,0.0000,0.0000,0.0000,0.00,0.00,59.21,73.50,73,0,0.00000,0.00000,0.00000,0.00000,0,0,0,0.00000,0.00000,1.00000,0.0000,0.0000,0.0000,0.0000,0.0000,0.0000,0.00,0.00,0.00,1,1,1,73,193,6503,6503,6503,0,0,60.00,2234,3531,6665,4,0,2341,40576,199.68,0.00,2,2255,0.0000,0.0000,0.0000,0.0000,0.0000
2026-04-20T19:11:04.596,1.218,1,0.05,-0.74,-3.85,3.51,0,0.0000,0.0000,0.3500,0.0000,0.0000,0.0000,0.00,0.00,59.17,143.99,74,0,0.00000,0.00000,0.00000,0.00000,0,0,0,0.00000,0.00000,1.00000,0.0000,0.0000,0.0000,0.0000,0.0000,0.0000,0.00,0.00,0.00,1,1,1,74,193,6503,6503,6503,0,0,60.00,2234,3531,6665,4,0,2341,40576,199.68,0.00,2,2255,0.0000,0.0000,0.0000,0.0000,0.0000
2026-04-20T19:11:04.616,1.238,1,0.05,-0.74,-3.85,3.51,0,0.0000,0.0000,0.3500,0.0000,0.0000,0.0000,0.00,0.00,60.83,50.13,75,0,0.00000,0.00000,0.00000,0.00000,0,0,0,0.00000,0.00000,1.00000,0.0000,0.0000,0.0000,0.0000,0.0000,0.0000,0.00,0.00,0.00,1,1,1,75,193,6503,6503,6503,0,0,60.00,2234,3531,6665,4,0,2341,40576,199.68,0.00,2,2255,0.0000,0.0000,0.0000,0.0000,0.0000
2026-04-20T19:11:04.639,1.261,1,0.05,-0.74,-3.85,3.51,0,0.0000,0.0000,0.3500,0.0000,0.0000,0.0000,0.00,0.00,60.00,43.75,76,0,0.00000,0.00000,0.00000,0.00000,0,0,0,0.00000,0.00000,1.00000,0.0000,0.0000,0.0000,0.0000,0.0000,0.0000,0.00,0.00,0.00,1,1,1,76,193,6503,6503,6503,0,0,60.00,2234,3531,6665,4,0,2341,40576,199.68,0.00,2,2255,0.0000,0.0000,0.0000,0.0000,0.0000
2026-04-20T19:11:04.655,1.277,1,0.05,-0.74,-3.85,3.51,0,0.0000,0.0000,0.3500,0.0000,0.0000,0.0000,0.00,0.00,53.94,60.34,77,0,0.00000,0.00000,0.00000,0.00000,0,0,0,0.00000,0.00000,1.00000,0.0000,0.0000,0.0000,0.0000,0.0000,0.0000,0.00,0.00,0.00,1,1,1,77,193,6503,6503,6503,0,0,60.00,2234,3531,6665,4,0,2341,40576,199.68,0.00,2,2255,0.0000,0.0000,0.0000,0.0000,0.0000
2026-04-20T19:11:04.676,1.298,1,0.05,-0.74,-3.85,3.51,0,0.0000,0.0000,0.3500,0.0000,0.0000,0.0000,0.00,0.00,101.24,49.03,78,0,0.00000,0.00000,0.00000,0.00000,0,0,0,0.00000,0.00000,1.00000,0.0000,0.0000,0.0000,0.0000,0.0000,0.0000,0.00,0.00,0.00,1,1,1,78,193,6503,6503,6503,0,0,60.00,2234,3531,6665,4,0,2341,40576,199.68,0.00,2,2255,0.0000,0.0000,0.0000,0.0000,0.0000
2026-04-20T19:11:04.693,1.315,1,0.05,-0.74,-3.85,3.51,0,0.0000,0.0000,0.3500,0.0000,0.0000,0.0000,0.00,0.00,45.66,60.33,79,0,0.00000,0.00000,0.00000,0.00000,0,0,0,0.00000,0.00000,1.00000,0.0000,0.0000,0.0000,0.0000,0.0000,0.0000,0.00,0.00,0.00,1,1,1,79,193,6503,6503,6503,0,0,60.00,2234,3531,6665,4,0,2341,40576,199.68,0.00,2,2255,0.0000,0.0000,0.0000,0.0000,0.0000
2026-04-20T19:11:04.709,1.332,1,0.05,-0.74,-3.85,3.51,0,0.0000,0.0000,0.3500,0.0000,0.0000,0.0000,0.00,0.00,62.48,61.48,80,0,0.00000,0.00000,0.00000,0.00000,0,0,0,0.00000,0.00000,1.00000,0.0000,0.0000,0.0000,0.0000,0.0000,0.0000,0.00,0.00,0.00,1,1,1,80,193,6503,6503,6503,0,0,60.00,2234,3531,6665,4,0,2341,40576,199.68,0.00,2,2255,0.0000,0.0000,0.0000,0.0000,0.0000
2026-04-20T19:11:04.720,1.342,1,0.06,-0.74,-3.93,3.58,0,0.0000,0.0000,0.3500,0.0000,0.0000,0.0000,0.00,0.00,60.66,88.17,81,0,0.00000,0.00000,0.00000,0.00000,0,0,0,0.00000,0.00000,1.00000,0.0000,0.0000,0.0000,0.0000,0.0000,0.0000,0.00,0.00,0.00,1,1,1,81,193,6503,6503,6503,0,0,60.00,2234,3531,6665,4,0,2341,40576,199.68,0.00,2,2255,0.0000,0.0000,0.0000,0.0000,0.0000
2026-04-20T19:11:04.742,1.364,1,0.06,-0.74,-3.93,3.58,0,0.0000,0.0000,0.3500,0.0000,0.0000,0.0000,0.00,0.00,58.17,44.98,82,0,0.00000,0.00000,0.00000,0.00000,0,0,0,0.00000,0.00000,1.00000,0.0000,0.0000,0.0000,0.0000,0.0000,0.0000,0.00,0.00,0.00,1,1,1,82,193,6503,6503,6503,0,0,60.00,2234,3531,6665,4,0,2341,40576,199.68,0.00,2,2255,0.0000,0.0000,0.0000,0.0000,0.0000
2026-04-20T19:11:04.753,1.375,1,0.06,-0.74,-3.93,3.58,0,0.0000,0.0000,0.3500,0.0000,0.0000,0.0000,0.00,0.00,59.77,93.14,83,0,0.00000,0.00000,0.00000,0.00000,0,0,0,0.00000,0.00000,1.00000,0.0000,0.0000,0.0000,0.0000,0.0000,0.0000,0.00,0.00,0.00,1,1,1,83,193,6503,6503,6503,0,0,60.00,2234,3531,6665,4,0,2341,40576,199.68,0.00,2,2255,0.0000,0.0000,0.0000,0.0000,0.0000
2026-04-20T19:11:04.775,1.398,1,0.06,-0.74,-3.93,3.58,0,0.0000,0.0000,0.3500,0.0000,0.0000,0.0000,0.00,0.00,108.32,44.24,84,0,0.00000,0.00000,0.00000,0.00000,0,0,0,0.00000,0.00000,1.00000,0.0000,0.0000,0.0000,0.0000,0.0000,0.0000,0.00,0.00,0.00,1,1,1,84,193,6503,6503,6503,0,0,60.00,2234,3531,6665,4,0,2341,40576,199.68,0.00,2,2255,0.0000,0.0000,0.0000,0.0000,0.0000
2026-04-20T19:11:04.788,1.410,1,0.06,-0.74,-3.93,3.58,0,0.0000,0.0000,0.3500,0.0000,0.0000,0.0000,0.00,0.00,41.48,78.00,85,0,0.00000,0.00000,0.00000,0.00000,0,0,0,0.00000,0.00000,1.00000,0.0000,0.0000,0.0000,0.0000,0.0000,0.0000,0.00,0.00,0.00,1,1,1,85,193,6503,6503,6503,0,0,60.00,2234,3531,6665,4,0,2341,40576,199.68,0.00,2,2255,0.0000,0.0000,0.0000,0.0000,0.0000
2026-04-20T19:11:04.796,1.418,1,0.06,-0.74,-3.93,3.58,0,0.0000,0.0000,0.3500,0.0000,0.0000,0.0000,0.00,0.00,60.63,131.28,86,0,0.00000,0.00000,0.00000,0.00000,0,0,0,0.00000,0.00000,1.00000,0.0000,0.0000,0.0000,0.0000,0.0000,0.0000,0.00,0.00,0.00,1,1,1,86,193,6503,6503,6503,0,0,60.00,2234,3531,6665,4,0,2341,40576,199.68,0.00,2,2255,0.0000,0.0000,0.0000,0.0000,0.0000
2026-04-20T19:11:04.813,1.435,1,0.06,-0.74,-3.93,3.58,0,0.0000,0.0000,0.3500,0.0000,0.0000,0.0000,0.00,0.00,59.34,58.21,87,0,0.00000,0.00000,0.00000,0.00000,0,0,0,0.00000,0.00000,1.00000,0.0000,0.0000,0.0000,0.0000,0.0000,0.0000,0.00,0.00,0.00,1,1,1,87,193,6503,6503,6503,0,0,60.00,2234,3531,6665,4,0,2341,40576,199.68,0.00,2,2255,0.0000,0.0000,0.0000,0.0000,0.0000
2026-04-20T19:11:04.844,1.466,1,0.06,-0.74,-3.93,3.58,0,0.0000,0.0000,0.3500,0.0000,0.0000,0.0000,0.00,0.00,361.36,36.34,88,0,0.00000,0.00000,0.00000,0.00000,0,0,0,0.00000,0.00000,1.00000,0.0000,0.0000,0.0000,0.0000,0.0000,0.0000,0.00,0.00,0.00,1,1,1,88,193,6503,6503,6503,0,0,60.00,2234,3531,6665,4,0,2341,40576,199.68,0.00,2,2255,0.0000,0.0000,0.0000,0.0000,0.0000
2026-04-20T19:11:04.858,1.481,1,0.06,-0.74,-3.93,3.58,0,0.0000,0.0000,0.3500,0.0000,0.0000,0.0000,0.00,0.00,30.94,55.32,89,0,0.00000,0.00000,0.00000,0.00000,0,0,0,0.00000,0.00000,1.00000,0.0000,0.0000,0.0000,0.0000,0.0000,0.0000,0.00,0.00,0.00,1,1,1,89,193,6503,6503,6503,0,0,60.00,2234,3531,6665,4,0,2341,40576,199.68,0.00,2,2255,0.0000,0.0000,0.0000,0.0000,0.0000
2026-04-20T19:11:04.876,1.498,1,0.05,-0.73,-3.87,3.44,0,0.0000,0.0000,0.3500,0.0000,0.0000,0.0000,0.00,0.00,68.11,62.16,90,0,0.00000,0.00000,0.00000,0.00000,0,0,0,0.00000,0.00000,1.00000,0.0000,0.0000,0.0000,0.0000,0.0000,0.0000,0.00,0.00,0.00,1,1,1,90,193,6503,6503,6503,0,0,60.00,2234,3531,6665,4,0,2341,40576,199.68,0.00,2,2255,0.0000,0.0000,0.0000,0.0000,0.0000
2026-04-20T19:11:04.893,1.515,1,0.05,-0.73,-3.87,3.44,0,0.0000,0.0000,0.3500,0.0000,0.0000,0.0000,0.00,0.00,58.89,58.76,91,0,0.00000,0.00000,0.00000,0.00000,0,0,0,0.00000,0.00000,1.00000,0.0000,0.0000,0.0000,0.0000,0.0000,0.0000,0.00,0.00,0.00,1,1,1,91,193,6503,6503,6503,0,0,60.00,2234,3531,6665,4,0,2341,40576,199.68,0.00,2,2255,0.0000,0.0000,0.0000,0.0000,0.0000
2026-04-20T19:11:04.909,1.531,1,0.05,-0.73,-3.87,3.44,0,0.0000,0.0000,0.3500,0.0000,0.0000,0.0000,0.00,0.00,59.16,60.42,92,0,0.00000,0.00000,0.00000,0.00000,0,0,0,0.00000,0.00000,1.00000,0.0000,0.0000,0.0000,0.0000,0.0000,0.0000,0.00,0.00,0.00,1,1,1,92,193,6503,6503,6503,0,0,60.00,2234,3531,6665,4,0,2341,40576,199.68,0.00,2,2255,0.0000,0.0000,0.0000,0.0000,0.0000
2026-04-20T19:11:04.927,1.549,1,0.05,-0.73,-3.87,3.44,0,0.0000,0.0000,0.3500,0.0000,0.0000,0.0000,0.00,0.00,65.06,79.35,93,0,0.00000,0.00000,0.00000,0.00000,0,0,0,0.00000,0.00000,1.00000,0.0000,0.0000,0.0000,0.0000,0.0000,0.0000,0.00,0.00,0.00,1,1,1,93,193,6503,6503,6503,0,0,60.00,2234,3531,6665,4,0,2341,40576,199.68,0.00,2,2255,0.0000,0.0000,0.0000,0.0000,0.0000
2026-04-20T19:11:04.942,1.565,1,0.05,-0.73,-3.87,3.44,0,0.0000,0.0000,0.3500,0.0000,0.0000,0.0000,0.00,0.00,55.97,48.71,94,0,0.00000,0.00000,0.00000,0.00000,0,0,0,0.00000,0.00000,1.00000,0.0000,0.0000,0.0000,0.0000,0.0000,0.0000,0.00,0.00,0.00,1,1,1,94,193,6503,6503,6503,0,0,60.00,2234,3531,6665,4,0,2341,40576,199.68,0.00,2,2255,0.0000,0.0000,0.0000,0.0000,0.0000
2026-04-20T19:11:04.959,1.581,1,0.05,-0.73,-3.87,3.44,0,0.0000,0.0000,0.3500,0.0000,0.0000,0.0000,0.00,0.00,61.46,60.32,95,0,0.00000,0.00000,0.00000,0.00000,0,0,0,0.00000,0.00000,1.00000,0.0000,0.0000,0.0000,0.0000,0.0000,0.0000,0.00,0.00,0.00,1,1,1,95,193,6503,6503,6503,0,0,60.00,2234,3531,6695,4,0,2371,40576,250.19,0.00,9,433,0.0000,0.0000,0.0000,0.0000,0.0000
2026-04-20T19:11:04.966,1.589,1,0.05,-0.74,-3.93,3.54,0,0.0000,0.0000,0.3500,0.0000,0.0000,0.0000,0.00,0.00,60.31,116.93,96,0,0.00000,0.00000,0.00000,0.00000,0,0,0,0.00000,0.00000,1.00000,0.0000,0.0000,0.0000,0.0000,0.0000,0.0000,0.00,0.00,0.00,1,1,1,96,193,6503,6503,6503,0,0,60.00,2234,3531,6695,4,0,2371,40576,250.19,0.00,9,433,0.0000,0.0000,0.0000,0.0000,0.0000
2026-04-20T19:11:04.992,1.615,1,0.05,-0.74,-3.93,3.54,0,0.0000,0.0000,0.3500,0.0000,0.0000,0.0000,0.00,0.00,59.79,40.27,97,0,0.00000,0.00000,0.00000,0.00000,0,0,0,0.00000,0.00000,1.00000,0.0000,0.0000,0.0000,0.0000,0.0000,0.0000,0.00,0.00,0.00,1,1,1,97,193,6503,6503,6503,0,0,60.00,2234,3531,6695,4,0,2371,40576,250.19,0.00,9,433,0.0000,0.0000,0.0000,0.0000,0.0000
2026-04-20T19:11:05.006,1.628,1,0.05,-0.74,-3.93,3.54,0,0.0000,0.0000,0.3500,0.0000,0.0000,0.0000,0.00,0.00,60.03,67.21,98,0,0.00000,0.00000,0.00000,0.00000,0,0,0,0.00000,0.00000,1.00000,0.0000,0.0000,0.0000,0.0000,0.0000,0.0000,0.00,0.00,0.00,1,1,1,98,193,6503,6503,6503,0,0,60.00,2234,3531,6695,4,0,2371,40576,250.19,0.00,9,433,0.0000,0.0000,0.0000,0.0000,0.0000
2026-04-20T19:11:05.026,1.648,1,0.04,-0.74,-3.91,3.57,0,0.0000,0.0000,0.3500,0.0000,0.0000,0.0000,0.00,0.00,57.78,52.70,99,0,0.00000,0.00000,0.00000,0.00000,0,0,0,0.00000,0.00000,1.00000,0.0000,0.0000,0.0000,0.0000,0.0000,0.0000,0.00,0.00,0.00,1,1,1,99,193,6503,6503,6503,0,0,60.00,2234,3531,6695,4,0,2371,40576,250.19,0.00,9,433,0.0000,0.0000,0.0000,0.0000,0.0000
2026-04-20T19:11:05.044,1.666,1,0.04,-0.74,-3.91,3.57,0,0.0000,0.0000,0.3500,0.0000,0.0000,0.0000,0.00,0.00,62.22,60.63,100,0,0.00000,0.00000,0.00000,0.00000,0,0,0,0.00000,0.00000,1.00000,0.0000,0.0000,0.0000,0.0000,0.0000,0.0000,0.00,0.00,0.00,1,1,1,100,193,6503,6503,6503,0,0,60.00,2234,3531,6695,4,0,2371,40576,250.19,0.00,9,433,0.0000,0.0000,0.0000,0.0000,0.0000
2026-04-20T19:11:05.052,1.674,1,0.04,-0.74,-3.91,3.57,0,0.0000,0.0000,0.3500,0.0000,0.0000,0.0000,0.00,0.00,54.42,98.99,101,0,0.00000,0.00000,0.00000,0.00000,0,0,0,0.00000,0.00000,1.00000,0.0000,0.0000,0.0000,0.0000,0.0000,0.0000,0.00,0.00,0.00,1,1,1,101,193,6503,6503,6503,0,0,60.00,2234,3531,6695,4,0,2371,40576,250.19,0.00,9,433,0.0000,0.0000,0.0000,0.0000,0.0000
2026-04-20T19:11:05.069,1.692,1,0.04,-0.74,-3.91,3.57,0,0.0000,0.0000,0.3500,0.0000,0.0000,0.0000,0.00,0.00,149.49,56.41,102,0,0.00000,0.00000,0.00000,0.00000,0,0,0,0.00000,0.00000,1.00000,0.0000,0.0000,0.0000,0.0000,0.0000,0.0000,0.00,0.00,0.00,1,1,1,102,193,6503,6503,6503,0,0,60.00,2234,3531,6695,4,0,2371,40576,250.19,0.00,9,433,0.0000,0.0000,0.0000,0.0000,0.0000
2026-04-20T19:11:05.093,1.715,1,0.04,-0.74,-3.91,3.57,0,0.0000,0.0000,0.3500,0.0000,0.0000,0.0000,0.00,0.00,39.60,57.87,103,0,0.00000,0.00000,0.00000,0.00000,0,0,0,0.00000,0.00000,1.00000,0.0000,0.0000,0.0000,0.0000,0.0000,0.0000,0.00,0.00,0.00,1,1,1,103,193,6503,6503,6503,0,0,60.00,2234,3531,6695,4,0,2371,40576,250.19,0.00,9,433,0.0000,0.0000,0.0000,0.0000,0.0000
2026-04-20T19:11:05.110,1.732,1,0.04,-0.74,-3.91,3.57,0,0.0000,0.0000,0.3500,0.0000,0.0000,0.0000,0.00,0.00,62.49,46.24,104,0,0.00000,0.00000,0.00000,0.00000,0,0,0,0.00000,0.00000,1.00000,0.0000,0.0000,0.0000,0.0000,0.0000,0.0000,0.00,0.00,0.00,1,1,1,104,193,6503,6503,6503,0,0,60.00,2234,3531,6695,4,0,2371,40576,250.19,0.00,9,433,0.0000,0.0000,0.0000,0.0000,0.0000
2026-04-20T19:11:05.126,1.748,1,0.05,-0.75,-3.90,3.44,0,0.0000,0.0000,0.3500,0.0000,0.0000,0.0000,0.00,0.00,57.68,61.21,105,0,0.00000,0.00000,0.00000,0.00000,0,0,0,0.00000,0.00000,1.00000,0.0000,0.0000,0.0000,0.0000,0.0000,0.0000,0.00,0.00,0.00,1,1,1,105,193,6503,6503,6503,0,0,60.00,2234,3531,6695,4,0,2371,40576,250.19,0.00,9,433,0.0000,0.0000,0.0000,0.0000,0.0000
2026-04-20T19:11:05.142,1.764,1,0.05,-0.75,-3.90,3.44,0,0.0000,0.0000,0.3500,0.0000,0.0000,0.0000,0.00,0.00,61.05,61.11,106,0,0.00000,0.00000,0.00000,0.00000,0,0,0,0.00000,0.00000,1.00000,0.0000,0.0000,0.0000,0.0000,0.0000,0.0000,0.00,0.00,0.00,1,1,1,106,193,6503,6503,6503,0,0,60.00,2234,3531,6695,4,0,2371,40576,250.19,0.00,9,433,0.0000,0.0000,0.0000,0.0000,0.0000
2026-04-20T19:11:05.158,1.780,1,0.05,-0.75,-3.90,3.44,0,0.0000,0.0000,0.3500,0.0000,0.0000,0.0000,0.00,0.00,60.75,59.83,107,0,0.00000,0.00000,0.00000,0.00000,0,0,0,0.00000,0.00000,1.00000,0.0000,0.0000,0.0000,0.0000,0.0000,0.0000,0.00,0.00,0.00,1,1,1,107,193,6503,6503,6503,0,0,60.00,2234,3531,6695,4,0,2371,40576,250.19,0.00,9,433,0.0000,0.0000,0.0000,0.0000,0.0000
2026-04-20T19:11:05.175,1.798,1,0.05,-0.75,-3.90,3.44,0,0.0000,0.0000,0.3500,0.0000,0.0000,0.0000,0.00,0.00,57.11,56.90,108,0,0.00000,0.00000,0.00000,0.00000,0,0,0,0.00000,0.00000,1.00000,0.0000,0.0000,0.0000,0.0000,0.0000,0.0000,0.00,0.00,0.00,1,1,1,108,193,6503,6503,6503,0,0,60.00,2234,3531,6695,4,0,2371,40576,250.19,0.00,9,433,0.0000,0.0000,0.0000,0.0000,0.0000
2026-04-20T19:11:05.193,1.815,1,0.05,-0.75,-3.90,3.44,0,0.0000,0.0000,0.3500,0.0000,0.0000,0.0000,0.00,0.00,61.80,61.20,109,0,0.00000,0.00000,0.00000,0.00000,0,0,0,0.00000,0.00000,1.00000,0.0000,0.0000,0.0000,0.0000,0.0000,0.0000,0.00,0.00,0.00,1,1,1,109,193,6503,6503,6503,0,0,60.00,2234,3531,6695,4,0,2371,40576,250.19,0.00,9,433,0.0000,0.0000,0.0000,0.0000,0.0000
2026-04-20T19:11:05.209,1.832,1,0.05,-0.75,-3.90,3.44,0,0.0000,0.0000,0.3500,0.0000,0.0000,0.0000,0.00,0.00,61.09,60.23,110,0,0.00000,0.00000,0.00000,0.00000,0,0,0,0.00000,0.00000,1.00000,0.0000,0.0000,0.0000,0.0000,0.0000,0.0000,0.00,0.00,0.00,1,1,1,110,193,6503,6503,6503,0,0,60.00,2234,3531,6695,4,0,2371,40576,250.19,0.00,9,433,0.0000,0.0000,0.0000,0.0000,0.0000
2026-04-20T19:11:05.226,1.848,1,0.06,-0.74,-3.91,3.54,0,0.0000,0.0000,0.3500,0.0000,0.0000,0.0000,0.00,0.00,58.33,59.99,111,0,0.00000,0.00000,0.00000,0.00000,0,0,0,0.00000,0.00000,1.00000,0.0000,0.0000,0.0000,0.0000,0.0000,0.0000,0.00,0.00,0.00,1,1,1,111,193,6503,6503,6503,0,0,60.00,2234,3531,6695,4,0,2371,40576,250.19,0.00,9,433,0.0000,0.0000,0.0000,0.0000,0.0000
2026-04-20T19:11:05.245,1.868,1,0.06,-0.74,-3.91,3.54,0,0.0000,0.0000,0.3500,0.0000,0.0000,0.0000,0.00,0.00,59.92,58.59,112,0,0.00000,0.00000,0.00000,0.00000,0,0,0,0.00000,0.00000,1.00000,0.0000,0.0000,0.0000,0.0000,0.0000,0.0000,0.00,0.00,0.00,1,1,1,112,193,6503,6503,6503,0,0,60.00,2234,3531,6695,4,0,2371,40576,250.19,0.00,9,433,0.0000,0.0000,0.0000,0.0000,0.0000
2026-04-20T19:11:05.258,1.881,1,0.06,-0.74,-3.91,3.54,0,0.0000,0.0000,0.3500,0.0000,0.0000,0.0000,0.00,0.00,49.40,60.96,113,0,0.00000,0.00000,0.00000,0.00000,0,0,0,0.00000,0.00000,1.00000,0.0000,0.0000,0.0000,0.0000,0.0000,0.0000,0.00,0.00,0.00,1,1,1,113,193,6503,6503,6503,0,0,60.00,2234,3531,6695,4,0,2371,40576,250.19,0.00,9,433,0.0000,0.0000,0.0000,0.0000,0.0000
2026-04-20T19:11:05.276,1.898,1,0.06,-0.74,-3.91,3.54,0,0.0000,0.0000,0.3500,0.0000,0.0000,0.0000,0.00,0.00,82.02,61.67,114,0,0.00000,0.00000,0.00000,0.00000,0,0,0,0.00000,0.00000,1.00000,0.0000,0.0000,0.0000,0.0000,0.0000,0.0000,0.00,0.00,0.00,1,1,1,114,193,6503,6503,6503,0,0,60.00,2234,3531,6695,4,0,2371,40576,250.19,0.00,9,433,0.0000,0.0000,0.0000,0.0000,0.0000
2026-04-20T19:11:05.292,1.914,1,0.04,-0.74,-3.91,3.54,0,0.0000,0.0000,0.3500,0.0000,0.0000,0.0000,0.00,0.00,58.26,57.27,115,0,0.00000,0.00000,0.00000,0.00000,0,0,0,0.00000,0.00000,1.00000,0.0000,0.0000,0.0000,0.0000,0.0000,0.0000,0.00,0.00,0.00,1,1,1,115,193,6503,6503,6503,0,0,60.00,2234,3531,6695,4,0,2371,40576,250.19,0.00,9,433,0.0000,0.0000,0.0000,0.0000,0.0000
2026-04-20T19:11:05.309,1.932,1,0.04,-0.74,-3.91,3.54,0,0.0000,0.0000,0.3500,0.0000,0.0000,0.0000,0.00,0.00,57.25,61.42,116,0,0.00000,0.00000,0.00000,0.00000,0,0,0,0.00000,0.00000,1.00000,0.0000,0.0000,0.0000,0.0000,0.0000,0.0000,0.00,0.00,0.00,1,1,1,116,193,6503,6503,6503,0,0,60.00,2234,3531,6695,4,0,2371,40576,250.19,0.00,9,433,0.0000,0.0000,0.0000,0.0000,0.0000
2026-04-20T19:11:05.326,1.948,1,0.04,-0.74,-3.91,3.54,0,0.0000,0.0000,0.3500,0.0000,0.0000,0.0000,0.00,0.00,62.85,62.00,117,0,0.00000,0.00000,0.00000,0.00000,0,0,0,0.00000,0.00000,1.00000,0.0000,0.0000,0.0000,0.0000,0.0000,0.0000,0.00,0.00,0.00,1,1,1,117,193,6503,6503,6503,0,0,60.00,2234,3531,6695,4,0,2371,40576,250.19,0.00,9,433,0.0000,0.0000,0.0000,0.0000,0.0000
2026-04-20T19:11:05.344,1.966,1,0.05,-0.73,-3.94,3.47,0,0.0000,0.0000,0.3500,0.0000,0.0000,0.0000,0.00,0.00,60.33,58.10,118,0,0.00000,0.00000,0.00000,0.00000,0,0,0,0.00000,0.00000,1.00000,0.0000,0.0000,0.0000,0.0000,0.0000,0.0000,0.00,0.00,0.00,1,1,1,118,193,6503,6503,6503,0,0,60.00,2234,3531,6695,4,0,2371,40576,250.19,0.00,9,433,0.0000,0.0000,0.0000,0.0000,0.0000
2026-04-20T19:11:05.359,1.981,1,0.05,-0.73,-3.94,3.47,0,0.0000,0.0000,0.3500,0.0000,0.0000,0.0000,0.00,0.00,55.17,59.34,119,0,0.00000,0.00000,0.00000,0.00000,0,0,0,0.00000,0.00000,1.00000,0.0000,0.0000,0.0000,0.0000,0.0000,0.0000,0.00,0.00,0.00,1,1,1,119,193,6503,6503,6503,0,0,60.00,2234,3531,6695,4,0,2371,40576,250.19,0.00,9,433,0.0000,0.0000,0.0000,0.0000,0.0000
2026-04-20T19:11:05.376,1.998,1,0.05,-0.73,-3.94,3.47,0,0.0000,0.0000,0.3500,0.0000,0.0000,0.0000,0.00,0.00,65.27,62.12,120,0,0.00000,0.00000,0.00000,0.00000,0,0,0,0.00000,0.00000,1.00000,0.0000,0.0000,0.0000,0.0000,0.0000,0.0000,0.00,0.00,0.00,1,1,1,120,193,6503,6503,6503,0,0,60.00,2234,3531,6695,4,0,2371,40576,250.19,0.00,9,433,0.0000,0.0000,0.0000,0.0000,0.0000
2026-04-20T19:11:05.388,2.010,1,0.05,-0.73,-3.94,3.47,0,0.0000,0.0000,0.3500,0.0000,0.0000,0.0000,0.00,0.00,60.13,76.70,121,0,0.00000,0.00000,0.00000,0.00000,0,0,0,0.00000,0.00000,1.00000,0.0000,0.0000,0.0000,0.0000,0.0000,0.0000,0.00,0.00,0.00,1,1,1,121,193,6503,6503,6503,0,0,60.00,2234,3531,6695,4,0,2371,40576,250.19,0.00,9,433,0.0000,0.0000,0.0000,0.0000,0.0000
2026-04-20T19:11:05.402,2.024,1,0.05,-0.73,-3.94,3.47,0,0.0000,0.0000,0.3500,0.0000,0.0000,0.0000,0.00,0.00,60.38,71.62,122,0,0.00000,0.00000,0.00000,0.00000,0,0,0,0.00000,0.00000,1.00000,0.0000,0.0000,0.0000,0.0000,0.0000,0.0000,0.00,0.00,0.00,1,1,1,122,193,6503,6503,6503,0,0,60.00,2234,3531,6695,4,0,2371,40576,250.19,0.00,9,433,0.0000,0.0000,0.0000,0.0000,0.0000
2026-04-20T19:11:05.422,2.044,1,0.05,-0.73,-3.94,3.47,0,0.0000,0.0000,0.3500,0.0000,0.0000,0.0000,0.00,0.00,118.55,49.50,123,0,0.00000,0.00000,0.00000,0.00000,0,0,0,0.00000,0.00000,1.00000,0.0000,0.0000,0.0000,0.0000,0.0000,0.0000,0.00,0.00,0.00,1,1,1,123,193,6503,6503,6503,0,0,60.00,2234,3531,6695,4,0,2371,40576,250.19,0.00,9,433,0.0000,0.0000,0.0000,0.0000,0.0000
2026-04-20T19:11:05.441,2.064,1,0.05,-0.74,-3.94,3.52,0,0.0000,0.0000,0.3500,0.0000,0.0000,0.0000,0.00,0.00,39.78,51.30,124,0,0.00000,0.00000,0.00000,0.00000,0,0,0,0.00000,0.00000,1.00000,0.0000,0.0000,0.0000,0.0000,0.0000,0.0000,0.00,0.00,0.00,1,1,1,124,193,6503,6503,6503,0,0,60.00,2234,3531,6695,4,0,2371,40576,250.19,0.00,9,433,0.0000,0.0000,0.0000,0.0000,0.0000
2026-04-20T19:11:05.460,2.082,1,0.05,-0.74,-3.94,3.52,0,0.0000,0.0000,0.3500,0.0000,0.0000,0.0000,0.00,0.00,58.43,60.70,125,0,0.00000,0.00000,0.00000,0.00000,0,0,0,0.00000,0.00000,1.00000,0.0000,0.0000,0.0000,0.0000,0.0000,0.0000,0.00,0.00,0.00,1,1,1,125,193,6503,6503,6503,0,0,60.00,2234,3531,6695,4,0,2371,40576,250.19,0.00,9,433,0.0000,0.0000,0.0000,0.0000,0.0000
2026-04-20T19:11:05.476,2.098,1,0.05,-0.74,-3.94,3.52,0,0.0000,0.0000,0.3500,0.0000,0.0000,0.0000,0.00,0.00,57.42,58.54,126,0,0.00000,0.00000,0.00000,0.00000,0,0,0,0.00000,0.00000,1.00000,0.0000,0.0000,0.0000,0.0000,0.0000,0.0000,0.00,0.00,0.00,1,1,1,126,193,6503,6503,6503,0,0,60.00,2234,3531,6695,4,0,2371,40576,250.19,0.00,9,433,0.0000,0.0000,0.0000,0.0000,0.0000
2026-04-20T19:11:05.492,2.114,1,0.05,-0.74,-3.94,3.52,0,0.0000,0.0000,0.3500,0.0000,0.0000,0.0000,0.00,0.00,64.04,72.10,127,0,0.00000,0.00000,0.00000,0.00000,0,0,0,0.00000,0.00000,1.00000,0.0000,0.0000,0.0000,0.0000,0.0000,0.0000,0.00,0.00,0.00,1,1,1,127,193,6503,6503,6503,0,0,60.00,2234,3531,6695,4,0,2371,40576,250.19,0.00,9,433,0.0000,0.0000,0.0000,0.0000,0.0000
2026-04-20T19:11:05.502,2.125,1,0.05,-0.74,-3.94,3.52,0,0.0000,0.0000,0.3500,0.0000,0.0000,0.0000,0.00,0.00,66.23,73.98,128,0,0.00000,0.00000,0.00000,0.00000,0,0,0,0.00000,0.00000,1.00000,0.0000,0.0000,0.0000,0.0000,0.0000,0.0000,0.00,0.00,0.00,1,1,1,128,193,6503,6503,6503,0,0,60.00,2234,3531,6695,4,0,2371,40576,250.19,0.00,9,433,0.0000,0.0000,0.0000,0.0000,0.0000
2026-04-20T19:11:05.526,2.148,1,0.05,-0.74,-3.94,3.52,0,0.0000,0.0000,0.3500,0.0000,0.0000,0.0000,0.00,0.00,97.52,44.71,129,0,0.00000,0.00000,0.00000,0.00000,0,0,0,0.00000,0.00000,1.00000,0.0000,0.0000,0.0000,0.0000,0.0000,0.0000,0.00,0.00,0.00,1,1,1,129,193,6503,6503,6503,0,0,60.00,2234,3531,6695,4,0,2371,40576,250.19,0.00,9,433,0.0000,0.0000,0.0000,0.0000,0.0000
2026-04-20T19:11:05.543,2.165,1,0.05,-0.74,-3.94,3.52,0,0.0000,0.0000,0.3500,0.0000,0.0000,0.0000,0.00,0.00,41.04,62.42,130,0,0.00000,0.00000,0.00000,0.00000,0,0,0,0.00000,0.00000,1.00000,0.0000,0.0000,0.0000,0.0000,0.0000,0.0000,0.00,0.00,0.00,1,1,1,130,193,6503,6503,6503,0,0,60.00,2234,3531,6695,4,0,2371,40576,250.19,0.00,9,433,0.0000,0.0000,0.0000,0.0000,0.0000
2026-04-20T19:11:05.545,2.167,1,0.05,-0.74,-3.94,3.52,0,0.0000,0.0000,0.3500,0.0000,0.0000,0.0000,0.00,0.00,62.42,219.53,131,0,0.00000,0.00000,0.00000,0.00000,0,0,0,0.00000,0.00000,1.00000,0.0000,0.0000,0.0000,0.0000,0.0000,0.0000,0.00,0.00,0.00,1,1,1,131,193,6503,6503,6503,0,0,60.00,2234,3531,6695,4,0,2371,40576,250.19,0.00,9,433,0.0000,0.0000,0.0000,0.0000,0.0000
2026-04-20T19:11:05.564,2.187,1,0.05,-0.74,-3.94,3.52,0,0.0000,0.0000,0.3500,0.0000,0.0000,0.0000,0.00,0.00,391.92,52.16,132,0,0.00000,0.00000,0.00000,0.00000,0,0,0,0.00000,0.00000,1.00000,0.0000,0.0000,0.0000,0.0000,0.0000,0.0000,0.00,0.00,0.00,1,1,1,132,193,6503,6503,6503,0,0,60.00,2234,3531,6695,4,0,2371,40576,250.19,0.00,9,433,0.0000,0.0000,0.0000,0.0000,0.0000
2026-04-20T19:11:05.592,2.214,1,0.05,-0.74,-3.94,3.52,0,0.0000,0.0000,0.3500,0.0000,0.0000,0.0000,0.00,0.00,31.56,36.91,133,0,0.00000,0.00000,0.00000,0.00000,0,0,0,0.00000,0.00000,1.00000,0.0000,0.0000,0.0000,0.0000,0.0000,0.0000,0.00,0.00,0.00,1,1,1,133,193,6503,6503,6503,0,0,60.00,2234,3531,6695,4,0,2371,40576,250.19,0.00,9,433,0.0000,0.0000,0.0000,0.0000,0.0000
