iso_time,elapsed_s,imu_ready,imu_pitch_deg,imu_roll_deg,imu_pitch_rate_deg_s,imu_roll_rate_deg_s,mocap_valid,mocap_x_error_m,mocap_y_error_m,mocap_z_error_m,mocap_vx_m_s,mocap_vy_m_s,mocap_vz_m_s,mocap_yaw_error_deg,mocap_yaw_rate_deg_s,backend_loop_hz,tracking_loop_hz,frames_processed,valid_pose_frames,pose_success_rate,full_marker_detection_rate,cam1_full_detection_rate,cam2_full_detection_rate,cam1_leds,cam2_leds,spatial_data_valid,mapping_error_px,model_fit_error_m,scale_factor,position_x_m,position_y_m,position_z_m,velocity_x_m_s,velocity_y_m_s,velocity_z_m_s,yaw_deg,pitch_deg,roll_deg,serial_connected,serial_send_enabled,serial_send_ok,serial_payload_seq,serial_payload_size_bytes,bridge_serial_frames_rx,bridge_espnow_tx_attempts,bridge_espnow_tx_ok,bridge_espnow_tx_fail,bridge_oversize_drops,bridge_tx_rate_hz,bridge_last_tx_seq,bridge_last_tx_latency_us,controller_rx_packets,controller_rx_missing_packets,controller_rx_duplicate_packets,controller_rx_out_of_order_packets,controller_last_rx_seq,controller_loop_hz,controller_control_hz,controller_command_age_ms,controller_apply_latency_us,controller_motor_imbalance,motor_1_output,motor_2_output,motor_3_output,motor_4_output
2026-04-20T18:56:31.474,0.017,1,0.04,-0.74,-3.93,3.54,0,0.0000,0.0000,0.3500,0.0000,0.0000,0.0000,0.00,0.00,53.97,61.10,1,0,0.00000,0.00000,0.00000,0.00000,0,0,0,0.00000,0.00000,1.00000,0.0000,0.0000,0.0000,0.0000,0.0000,0.0000,0.00,0.00,0.00,1,1,1,1,200,0,0,0,0,0,0.00,0,0,0,0,0,0,0,0.00,0.00,0,0,0.0000,0.0000,0.0000,0.0000,0.0000
2026-04-20T18:56:31.489,0.032,1,0.04,-0.73,-3.94,3.54,0,0.0000,0.0000,0.3500,0.0000,0.0000,0.0000,0.00,0.00,64.03,58.38,2,0,0.00000,0.00000,0.00000,0.00000,0,0,0,0.00000,0.00000,1.00000,0.0000,0.0000,0.0000,0.0000,0.0000,0.0000,0.00,0.00,0.00,1,1,1,2,200,0,0,0,0,0,0.00,0,0,0,0,0,0,0,0.00,0.00,0,0,0.0000,0.0000,0.0000,0.0000,0.0000
2026-04-20T18:56:31.506,0.048,1,0.04,-0.73,-3.94,3.54,0,0.0000,0.0000,0.3500,0.0000,0.0000,0.0000,0.00,0.00,61.70,60.44,3,0,0.00000,0.00000,0.00000,0.00000,0,0,0,0.00000,0.00000,1.00000,0.0000,0.0000,0.0000,0.0000,0.0000,0.0000,0.00,0.00,0.00,1,1,1,3,200,0,0,0,0,0,0.00,0,0,0,0,0,0,0,0.00,0.00,0,0,0.0000,0.0000,0.0000,0.0000,0.0000
2026-04-20T18:56:31.524,0.066,1,0.04,-0.73,-3.94,3.54,0,0.0000,0.0000,0.3500,0.0000,0.0000,0.0000,0.00,0.00,60.58,55.38,4,0,0.00000,0.00000,0.00000,0.00000,0,0,0,0.00000,0.00000,1.00000,0.0000,0.0000,0.0000,0.0000,0.0000,0.0000,0.00,0.00,0.00,1,1,1,4,200,0,0,0,0,0,0.00,0,0,0,0,0,0,0,0.00,0.00,0,0,0.0000,0.0000,0.0000,0.0000,0.0000
2026-04-20T18:56:31.538,0.080,1,0.04,-0.73,-3.94,3.54,0,0.0000,0.0000,0.3500,0.0000,0.0000,0.0000,0.00,0.00,55.08,66.56,5,0,0.00000,0.00000,0.00000,0.00000,0,0,0,0.00000,0.00000,1.00000,0.0000,0.0000,0.0000,0.0000,0.0000,0.0000,0.00,0.00,0.00,1,1,1,5,200,0,0,0,0,0,0.00,0,0,0,0,0,0,0,0.00,0.00,0,0,0.0000,0.0000,0.0000,0.0000,0.0000
2026-04-20T18:56:31.555,0.097,1,0.04,-0.73,-3.94,3.54,0,0.0000,0.0000,0.3500,0.0000,0.0000,0.0000,0.00,0.00,77.37,59.96,6,0,0.00000,0.00000,0.00000,0.00000,0,0,0,0.00000,0.00000,1.00000,0.0000,0.0000,0.0000,0.0000,0.0000,0.0000,0.00,0.00,0.00,1,1,1,6,200,0,0,0,0,0,0.00,0,0,0,0,0,0,0,0.00,0.00,0,0,0.0000,0.0000,0.0000,0.0000,0.0000
2026-04-20T18:56:31.571,0.114,1,0.04,-0.73,-3.94,3.54,0,0.0000,0.0000,0.3500,0.0000,0.0000,0.0000,0.00,0.00,59.96,60.50,7,0,0.00000,0.00000,0.00000,0.00000,0,0,0,0.00000,0.00000,1.00000,0.0000,0.0000,0.0000,0.0000,0.0000,0.0000,0.00,0.00,0.00,1,1,1,7,200,0,0,0,0,0,0.00,0,0,0,0,0,0,0,0.00,0.00,0,0,0.0000,0.0000,0.0000,0.0000,0.0000
2026-04-20T18:56:31.590,0.132,1,0.04,-0.73,-3.94,3.54,0,0.0000,0.0000,0.3500,0.0000,0.0000,0.0000,0.00,0.00,60.50,60.00,8,0,0.00000,0.00000,0.00000,0.00000,0,0,0,0.00000,0.00000,1.00000,0.0000,0.0000,0.0000,0.0000,0.0000,0.0000,0.00,0.00,0.00,1,1,1,8,200,0,0,0,0,0,0.00,0,0,0,0,0,0,0,0.00,0.00,0,0,0.0000,0.0000,0.0000,0.0000,0.0000
2026-04-20T18:56:31.605,0.147,1,0.04,-0.75,-3.91,3.41,0,0.0000,0.0000,0.3500,0.0000,0.0000,0.0000,0.00,0.00,47.63,58.55,9,0,0.00000,0.00000,0.00000,0.00000,0,0,0,0.00000,0.00000,1.00000,0.0000,0.0000,0.0000,0.0000,0.0000,0.0000,0.00,0.00,0.00,1,1,1,9,200,0,0,0,0,0,0.00,0,0,0,0,0,0,0,0.00,0.00,0,0,0.0000,0.0000,0.0000,0.0000,0.0000
2026-04-20T18:56:31.621,0.164,1,0.04,-0.75,-3.91,3.41,0,0.0000,0.0000,0.3500,0.0000,0.0000,0.0000,0.00,0.00,65.18,60.98,10,0,0.00000,0.00000,0.00000,0.00000,0,0,0,0.00000,0.00000,1.00000,0.0000,0.0000,0.0000,0.0000,0.0000,0.0000,0.00,0.00,0.00,1,1,1,10,200,0,0,0,0,0,0.00,0,0,0,0,0,0,0,0.00,0.00,0,0,0.0000,0.0000,0.0000,0.0000,0.0000
2026-04-20T18:56:31.639,0.181,1,0.04,-0.75,-3.91,3.41,0,0.0000,0.0000,0.3500,0.0000,0.0000,0.0000,0.00,0.00,72.43,60.65,11,0,0.00000,0.00000,0.00000,0.00000,0,0,0,0.00000,0.00000,1.00000,0.0000,0.0000,0.0000,0.0000,0.0000,0.0000,0.00,0.00,0.00,1,1,1,11,200,0,0,0,0,0,0.00,0,0,0,0,0,0,0,0.00,0.00,0,0,0.0000,0.0000,0.0000,0.0000,0.0000
2026-04-20T18:56:31.656,0.199,1,0.04,-0.75,-3.91,3.41,0,0.0000,0.0000,0.3500,0.0000,0.0000,0.0000,0.00,0.00,53.26,58.96,12,0,0.00000,0.00000,0.00000,0.00000,0,0,0,0.00000,0.00000,1.00000,0.0000,0.0000,0.0000,0.0000,0.0000,0.0000,0.00,0.00,0.00,1,1,1,12,200,0,0,0,0,0,0.00,0,0,0,0,0,0,0,0.00,0.00,0,0,0.0000,0.0000,0.0000,0.0000,0.0000
2026-04-20T18:56:31.672,0.215,1,0.04,-0.75,-3.91,3.41,0,0.0000,0.0000,0.3500,0.0000,0.0000,0.0000,0.00,0.00,62.62,60.83,13,0,0.00000,0.00000,0.00000,0.00000,0,0,0,0.00000,0.00000,1.00000,0.0000,0.0000,0.0000,0.0000,0.0000,0.0000,0.00,0.00,0.00,1,1,1,13,200,0,0,0,0,0,0.00,0,0,0,0,0,0,0,0.00,0.00,0,0,0.0000,0.0000,0.0000,0.0000,0.0000
2026-04-20T18:56:31.688,0.231,1,0.04,-0.75,-3.91,3.41,0,0.0000,0.0000,0.3500,0.0000,0.0000,0.0000,0.00,0.00,57.95,58.56,14,0,0.00000,0.00000,0.00000,0.00000,0,0,0,0.00000,0.00000,1.00000,0.0000,0.0000,0.0000,0.0000,0.0000,0.0000,0.00,0.00,0.00,1,1,1,14,200,0,0,0,0,0,0.00,0,0,0,0,0,0,0,0.00,0.00,0,0,0.0000,0.0000,0.0000,0.0000,0.0000
2026-04-20T18:56:31.698,0.240,1,0.03,-0.73,-3.87,3.49,0,0.0000,0.0000,0.3500,0.0000,0.0000,0.0000,0.00,0.00,66.83,106.83,15,0,0.00000,0.00000,0.00000,0.00000,0,0,0,0.00000,0.00000,1.00000,0.0000,0.0000,0.0000,0.0000,0.0000,0.0000,0.00,0.00,0.00,1,1,1,15,200,0,0,0,0,0,0.00,0,0,0,0,0,0,0,0.00,0.00,0,0,0.0000,0.0000,0.0000,0.0000,0.0000
2026-04-20T18:56:31.722,0.264,1,0.03,-0.73,-3.87,3.49,0,0.0000,0.0000,0.3500,0.0000,0.0000,0.0000,0.00,0.00,52.80,41.06,16,0,0.00000,0.00000,0.00000,0.00000,0,0,0,0.00000,0.00000,1.00000,0.0000,0.0000,0.0000,0.0000,0.0000,0.0000,0.00,0.00,0.00,1,1,1,16,200,0,0,0,0,0,0.00,0,0,0,0,0,0,0,0.00,0.00,0,0,0.0000,0.0000,0.0000,0.0000,0.0000
2026-04-20T18:56:31.738,0.280,1,0.03,-0.73,-3.87,3.49,0,0.0000,0.0000,0.3500,0.0000,0.0000,0.0000,0.00,0.00,61.98,63.44,17,0,0.00000,0.00000,0.00000,0.00000,0,0,0,0.00000,0.00000,1.00000,0.0000,0.0000,0.0000,0.0000,0.0000,0.0000,0.00,0.00,0.00,1,1,1,17,200,0,0,0,0,0,0.00,0,0,0,0,0,0,0,0.00,0.00,0,0,0.0000,0.0000,0.0000,0.0000,0.0000
2026-04-20T18:56:31.755,0.297,1,0.03,-0.73,-3.91,3.52,0,0.0000,0.0000,0.3500,0.0000,0.0000,0.0000,0.00,0.00,60.02,58.60,18,0,0.00000,0.00000,0.00000,0.00000,0,0,0,0.00000,0.00000,1.00000,0.0000,0.0000,0.0000,0.0000,0.0000,0.0000,0.00,0.00,0.00,1,1,1,18,200,0,0,0,0,0,0.00,0,0,0,0,0,0,0,0.00,0.00,0,0,0.0000,0.0000,0.0000,0.0000,0.0000
2026-04-20T18:56:31.771,0.314,1,0.03,-0.73,-3.91,3.52,0,0.0000,0.0000,0.3500,0.0000,0.0000,0.0000,0.00,0.00,59.33,61.37,19,0,0.00000,0.00000,0.00000,0.00000,0,0,0,0.00000,0.00000,1.00000,0.0000,0.0000,0.0000,0.0000,0.0000,0.0000,0.00,0.00,0.00,1,1,1,19,200,0,0,0,0,0,0.00,0,0,0,0,0,0,0,0.00,0.00,0,0,0.0000,0.0000,0.0000,0.0000,0.0000
2026-04-20T18:56:31.791,0.333,1,0.03,-0.73,-3.91,3.52,0,0.0000,0.0000,0.3500,0.0000,0.0000,0.0000,0.00,0.00,70.18,58.39,20,0,0.00000,0.00000,0.00000,0.00000,0,0,0,0.00000,0.00000,1.00000,0.0000,0.0000,0.0000,0.0000,0.0000,0.0000,0.00,0.00,0.00,1,1,1,20,200,0,0,0,0,0,0.00,0,0,0,0,0,0,0,0.00,0.00,0,0,0.0000,0.0000,0.0000,0.0000,0.0000
2026-04-20T18:56:31.804,0.347,1,0.03,-0.72,-3.94,3.51,0,0.0000,0.0000,0.3500,0.0000,0.0000,0.0000,0.00,0.00,48.22,61.60,21,0,0.00000,0.00000,0.00000,0.00000,0,0,0,0.00000,0.00000,1.00000,0.0000,0.0000,0.0000,0.0000,0.0000,0.0000,0.00,0.00,0.00,1,1,1,21,200,0,0,0,0,0,0.00,0,0,0,0,0,0,0,0.00,0.00,0,0,0.0000,0.0000,0.0000,0.0000,0.0000
2026-04-20T18:56:31.822,0.364,1,0.03,-0.72,-3.94,3.51,0,0.0000,0.0000,0.3500,0.0000,0.0000,0.0000,0.00,0.00,63.26,58.39,22,0,0.00000,0.00000,0.00000,0.00000,0,0,0,0.00000,0.00000,1.00000,0.0000,0.0000,0.0000,0.0000,0.0000,0.0000,0.00,0.00,0.00,1,1,1,22,200,0,0,0,0,0,0.00,0,0,0,0,0,0,0,0.00,0.00,0,0,0.0000,0.0000,0.0000,0.0000,0.0000
2026-04-20T18:56:31.837,0.380,1,0.03,-0.72,-3.94,3.51,0,0.0000,0.0000,0.3500,0.0000,0.0000,0.0000,0.00,0.00,71.74,63.88,23,0,0.00000,0.00000,0.00000,0.00000,0,0,0,0.00000,0.00000,1.00000,0.0000,0.0000,0.0000,0.0000,0.0000,0.0000,0.00,0.00,0.00,1,1,1,23,200,0,0,0,0,0,0.00,0,0,0,0,0,0,0,0.00,0.00,0,0,0.0000,0.0000,0.0000,0.0000,0.0000
2026-04-20T18:56:31.855,0.397,1,0.03,-0.72,-3.91,3.49,0,0.0000,0.0000,0.3500,0.0000,0.0000,0.0000,0.00,0.00,52.00,56.52,24,0,0.00000,0.00000,0.00000,0.00000,0,0,0,0.00000,0.00000,1.00000,0.0000,0.0000,0.0000,0.0000,0.0000,0.0000,0.00,0.00,0.00,1,1,1,24,200,0,0,0,0,0,0.00,0,0,0,0,0,0,0,0.00,0.00,0,0,0.0000,0.0000,0.0000,0.0000,0.0000
2026-04-20T18:56:31.873,0.415,1,0.03,-0.72,-3.91,3.49,0,0.0000,0.0000,0.3500,0.0000,0.0000,0.0000,0.00,0.00,64.60,58.99,25,0,0.00000,0.00000,0.00000,0.00000,0,0,0,0.00000,0.00000,1.00000,0.0000,0.0000,0.0000,0.0000,0.0000,0.0000,0.00,0.00,0.00,1,1,1,25,200,0,0,0,0,0,0.00,0,0,0,0,0,0,0,0.00,0.00,0,0,0.0000,0.0000,0.0000,0.0000,0.0000
2026-04-20T18:56:31.888,0.430,1,0.03,-0.72,-3.91,3.49,0,0.0000,0.0000,0.3500,0.0000,0.0000,0.0000,0.00,0.00,57.52,62.06,26,0,0.00000,0.00000,0.00000,0.00000,0,0,0,0.00000,0.00000,1.00000,0.0000,0.0000,0.0000,0.0000,0.0000,0.0000,0.00,0.00,0.00,1,1,1,26,200,0,0,0,0,0,0.00,0,0,0,0,0,0,0,0.00,0.00,0,0,0.0000,0.0000,0.0000,0.0000,0.0000
2026-04-20T18:56:31.897,0.440,1,0.04,-0.72,-3.93,3.51,0,0.0000,0.0000,0.3500,0.0000,0.0000,0.0000,0.00,0.00,69.85,106.84,27,0,0.00000,0.00000,0.00000,0.00000,0,0,0,0.00000,0.00000,1.00000,0.0000,0.0000,0.0000,0.0000,0.0000,0.0000,0.00,0.00,0.00,1,1,1,27,200,0,0,0,0,0,0.00,0,0,0,0,0,0,0,0.00,0.00,0,0,0.0000,0.0000,0.0000,0.0000,0.0000
2026-04-20T18:56:31.916,0.458,1,0.04,-0.72,-3.93,3.51,0,0.0000,0.0000,0.3500,0.0000,0.0000,0.0000,0.00,0.00,51.30,54.12,28,0,0.00000,0.00000,0.00000,0.00000,0,0,0,0.00000,0.00000,1.00000,0.0000,0.0000,0.0000,0.0000,0.0000,0.0000,0.00,0.00,0.00,1,1,1,28,200,0,0,0,0,0,0.00,0,0,0,0,0,0,0,0.00,0.00,0,0,0.0000,0.0000,0.0000,0.0000,0.0000
2026-04-20T18:56:31.938,0.480,1,0.04,-0.72,-3.93,3.51,0,0.0000,0.0000,0.3500,0.0000,0.0000,0.0000,0.00,0.00,119.84,45.41,29,0,0.00000,0.00000,0.00000,0.00000,0,0,0,0.00000,0.00000,1.00000,0.0000,0.0000,0.0000,0.0000,0.0000,0.0000,0.00,0.00,0.00,1,1,1,29,200,0,0,0,0,0,0.00,0,0,0,0,0,0,0,0.00,0.00,0,0,0.0000,0.0000,0.0000,0.0000,0.0000
2026-04-20T18:56:31.955,0.497,1,0.04,-0.73,-3.88,3.44,0,0.0000,0.0000,0.3500,0.0000,0.0000,0.0000,0.00,0.00,40.05,58.97,30,0,0.00000,0.00000,0.00000,0.00000,0,0,0,0.00000,0.00000,1.00000,0.0000,0.0000,0.0000,0.0000,0.0000,0.0000,0.00,0.00,0.00,1,1,1,30,200,0,0,0,0,0,0.00,0,0,0,0,0,0,0,0.00,0.00,0,0,0.0000,0.0000,0.0000,0.0000,0.0000
2026-04-20T18:56:31.972,0.514,1,0.04,-0.73,-3.88,3.44,0,0.0000,0.0000,0.3500,0.0000,0.0000,0.0000,0.00,0.00,59.91,59.91,31,0,0.00000,0.00000,0.00000,0.00000,0,0,0,0.00000,0.00000,1.00000,0.0000,0.0000,0.0000,0.0000,0.0000,0.0000,0.00,0.00,0.00,1,1,1,31,200,0,0,0,0,0,0.00,0,0,0,0,0,0,0,0.00,0.00,0,0,0.0000,0.0000,0.0000,0.0000,0.0000
2026-04-20T18:56:31.986,0.529,1,0.04,-0.73,-3.88,3.44,0,0.0000,0.0000,0.3500,0.0000,0.0000,0.0000,0.00,0.00,71.37,67.36,32,0,0.00000,0.00000,0.00000,0.00000,0,0,0,0.00000,0.00000,1.00000,0.0000,0.0000,0.0000,0.0000,0.0000,0.0000,0.00,0.00,0.00,1,1,1,32,200,0,0,0,0,0,0.00,0,0,0,0,0,0,0,0.00,0.00,0,0,0.0000,0.0000,0.0000,0.0000,0.0000
2026-04-20T18:56:32.008,0.550,1,0.04,-0.73,-3.88,3.44,0,0.0000,0.0000,0.3500,0.0000,0.0000,0.0000,0.00,0.00,67.36,56.35,33,0,0.00000,0.00000,0.00000,0.00000,0,0,0,0.00000,0.00000,1.00000,0.0000,0.0000,0.0000,0.0000,0.0000,0.0000,0.00,0.00,0.00,1,1,1,33,200,0,0,0,0,0,0.00,0,0,0,0,0,0,0,0.00,0.00,0,0,0.0000,0.0000,0.0000,0.0000,0.0000
2026-04-20T18:56:32.022,0.565,1,0.04,-0.73,-3.88,3.44,0,0.0000,0.0000,0.3500,0.0000,0.0000,0.0000,0.00,0.00,44.64,57.93,34,0,0.00000,0.00000,0.00000,0.00000,0,0,0,0.00000,0.00000,1.00000,0.0000,0.0000,0.0000,0.0000,0.0000,0.0000,0.00,0.00,0.00,1,1,1,34,200,0,0,0,0,0,0.00,0,0,0,0,0,0,0,0.00,0.00,0,0,0.0000,0.0000,0.0000,0.0000,0.0000
2026-04-20T18:56:32.039,0.581,1,0.04,-0.73,-3.88,3.44,0,0.0000,0.0000,0.3500,0.0000,0.0000,0.0000,0.00,0.00,69.14,60.99,35,0,0.00000,0.00000,0.00000,0.00000,0,0,0,0.00000,0.00000,1.00000,0.0000,0.0000,0.0000,0.0000,0.0000,0.0000,0.00,0.00,0.00,1,1,1,35,200,0,0,0,0,0,0.00,0,0,0,0,0,0,0,0.00,0.00,0,0,0.0000,0.0000,0.0000,0.0000,0.0000
2026-04-20T18:56:32.055,0.597,1,0.04,-0.73,-3.88,3.44,0,0.0000,0.0000,0.3500,0.0000,0.0000,0.0000,0.00,0.00,59.96,58.18,36,0,0.00000,0.00000,0.00000,0.00000,0,0,0,0.00000,0.00000,1.00000,0.0000,0.0000,0.0000,0.0000,0.0000,0.0000,0.00,0.00,0.00,1,1,1,36,200,0,0,0,0,0,0.00,0,0,0,0,0,0,0,0.00,0.00,0,0,0.0000,0.0000,0.0000,0.0000,0.0000
2026-04-20T18:56:32.065,0.608,1,0.04,-0.73,-3.88,3.44,0,0.0000,0.0000,0.3500,0.0000,0.0000,0.0000,0.00,0.00,59.92,99.00,37,0,0.00000,0.00000,0.00000,0.00000,0,0,0,0.00000,0.00000,1.00000,0.0000,0.0000,0.0000,0.0000,0.0000,0.0000,0.00,0.00,0.00,1,1,1,37,200,0,0,0,0,0,0.00,0,0,0,0,0,0,0,0.00,0.00,0,0,0.0000,0.0000,0.0000,0.0000,0.0000
2026-04-20T18:56:32.089,0.632,1,0.04,-0.73,-3.88,3.44,0,0.0000,0.0000,0.3500,0.0000,0.0000,0.0000,0.00,0.00,56.76,41.41,38,0,0.00000,0.00000,0.00000,0.00000,0,0,0,0.00000,0.00000,1.00000,0.0000,0.0000,0.0000,0.0000,0.0000,0.0000,0.00,0.00,0.00,1,1,1,38,200,0,0,0,0,0,0.00,0,0,0,0,0,0,0,0.00,0.00,0,0,0.0000,0.0000,0.0000,0.0000,0.0000
2026-04-20T18:56:32.106,0.649,1,0.04,-0.73,-3.88,3.44,0,0.0000,0.0000,0.3500,0.0000,0.0000,0.0000,0.00,0.00,56.35,64.13,39,0,0.00000,0.00000,0.00000,0.00000,0,0,0,0.00000,0.00000,1.00000,0.0000,0.0000,0.0000,0.0000,0.0000,0.0000,0.00,0.00,0.00,1,1,1,39,200,0,0,0,0,0,0.00,0,0,0,0,0,0,0,0.00,0.00,0,0,0.0000,0.0000,0.0000,0.0000,0.0000
2026-04-20T18:56:32.122,0.665,1,0.05,-0.70,-3.87,3.46,0,0.0000,0.0000,0.3500,0.0000,0.0000,0.0000,0.00,0.00,67.00,60.70,40,0,0.00000,0.00000,0.00000,0.00000,0,0,0,0.00000,0.00000,1.00000,0.0000,0.0000,0.0000,0.0000,0.0000,0.0000,0.00,0.00,0.00,1,1,1,40,200,0,0,0,0,0,0.00,0,0,0,0,0,0,0,0.00,0.00,0,0,0.0000,0.0000,0.0000,0.0000,0.0000
2026-04-20T18:56:32.137,0.679,1,0.05,-0.70,-3.87,3.46,0,0.0000,0.0000,0.3500,0.0000,0.0000,0.0000,0.00,0.00,60.56,65.24,41,0,0.00000,0.00000,0.00000,0.00000,0,0,0,0.00000,0.00000,1.00000,0.0000,0.0000,0.0000,0.0000,0.0000,0.0000,0.00,0.00,0.00,1,1,1,41,200,0,0,0,0,0,0.00,0,0,0,0,0,0,0,0.00,0.00,0,0,0.0000,0.0000,0.0000,0.0000,0.0000
2026-04-20T18:56:32.155,0.697,1,0.05,-0.70,-3.87,3.46,0,0.0000,0.0000,0.3500,0.0000,0.0000,0.0000,0.00,0.00,75.72,54.89,42,0,0.00000,0.00000,0.00000,0.00000,0,0,0,0.00000,0.00000,1.00000,0.0000,0.0000,0.0000,0.0000,0.0000,0.0000,0.00,0.00,0.00,1,1,1,42,200,0,0,0,0,0,0.00,0,0,0,0,0,0,0,0.00,0.00,0,0,0.0000,0.0000,0.0000,0.0000,0.0000
2026-04-20T18:56:32.171,0.714,1,0.04,-0.71,-3.96,3.51,0,0.0000,0.0000,0.3500,0.0000,0.0000,0.0000,0.00,0.00,47.94,60.20,43,0,0.00000,0.00000,0.00000,0.00000,0,0,0,0.00000,0.00000,1.00000,0.0000,0.0000,0.0000,0.0000,0.0000,0.0000,0.00,0.00,0.00,1,1,1,43,200,0,0,0,0,0,0.00,0,0,0,0,0,0,0,0.00,0.00,0,0,0.0000,0.0000,0.0000,0.0000,0.0000
2026-04-20T18:56:32.188,0.730,1,0.04,-0.71,-3.96,3.51,0,0.0000,0.0000,0.3500,0.0000,0.0000,0.0000,0.00,0.00,71.58,61.22,44,0,0.00000,0.00000,0.00000,0.00000,0,0,0,0.00000,0.00000,1.00000,0.0000,0.0000,0.0000,0.0000,0.0000,0.0000,0.00,0.00,0.00,1,1,1,44,200,0,0,0,0,0,0.00,0,0,0,0,0,0,0,0.00,0.00,0,0,0.0000,0.0000,0.0000,0.0000,0.0000
2026-04-20T18:56:32.207,0.749,1,0.04,-0.71,-3.96,3.51,0,0.0000,0.0000,0.3500,0.0000,0.0000,0.0000,0.00,0.00,51.17,58.56,45,0,0.00000,0.00000,0.00000,0.00000,0,0,0,0.00000,0.00000,1.00000,0.0000,0.0000,0.0000,0.0000,0.0000,0.0000,0.00,0.00,0.00,1,1,1,45,200,0,0,0,0,0,0.00,0,0,0,0,0,0,0,0.00,0.00,0,0,0.0000,0.0000,0.0000,0.0000,0.0000
2026-04-20T18:56:32.221,0.763,1,0.03,-0.73,-3.91,3.55,0,0.0000,0.0000,0.3500,0.0000,0.0000,0.0000,0.00,0.00,56.60,62.29,46,0,0.00000,0.00000,0.00000,0.00000,0,0,0,0.00000,0.00000,1.00000,0.0000,0.0000,0.0000,0.0000,0.0000,0.0000,0.00,0.00,0.00,1,1,1,46,200,0,0,0,0,0,0.00,0,0,0,0,0,0,0,0.00,0.00,0,0,0.0000,0.0000,0.0000,0.0000,0.0000
2026-04-20T18:56:32.238,0.780,1,0.03,-0.73,-3.91,3.55,0,0.0000,0.0000,0.3500,0.0000,0.0000,0.0000,0.00,0.00,81.58,58.46,47,0,0.00000,0.00000,0.00000,0.00000,0,0,0,0.00000,0.00000,1.00000,0.0000,0.0000,0.0000,0.0000,0.0000,0.0000,0.00,0.00,0.00,1,1,1,47,200,0,0,0,0,0,0.00,0,0,0,0,0,0,0,0.00,0.00,0,0,0.0000,0.0000,0.0000,0.0000,0.0000
2026-04-20T18:56:32.255,0.797,1,0.03,-0.73,-3.91,3.55,0,0.0000,0.0000,0.3500,0.0000,0.0000,0.0000,0.00,0.00,52.00,59.67,48,0,0.00000,0.00000,0.00000,0.00000,0,0,0,0.00000,0.00000,1.00000,0.0000,0.0000,0.0000,0.0000,0.0000,0.0000,0.00,0.00,0.00,1,1,1,48,200,0,0,0,0,0,0.00,0,0,0,0,0,0,0,0.00,0.00,0,0,0.0000,0.0000,0.0000,0.0000,0.0000
2026-04-20T18:56:32.265,0.808,1,0.03,-0.72,-3.94,3.52,0,0.0000,0.0000,0.3500,0.0000,0.0000,0.0000,0.00,0.00,68.33,93.65,49,0,0.00000,0.00000,0.00000,0.00000,0,0,0,0.00000,0.00000,1.00000,0.0000,0.0000,0.0000,0.0000,0.0000,0.0000,0.00,0.00,0.00,1,1,1,49,200,0,0,0,0,0,0.00,0,0,0,0,0,0,0,0.00,0.00,0,0,0.0000,0.0000,0.0000,0.0000,0.0000
2026-04-20T18:56:32.289,0.831,1,0.03,-0.72,-3.94,3.52,0,0.0000,0.0000,0.3500,0.0000,0.0000,0.0000,0.00,0.00,48.36,45.24,50,0,0.00000,0.00000,0.00000,0.00000,0,0,0,0.00000,0.00000,1.00000,0.0000,0.0000,0.0000,0.0000,0.0000,0.0000,0.00,0.00,0.00,1,1,1,50,200,0,0,0,0,0,0.00,0,0,0,0,0,0,0,0.00,0.00,0,0,0.0000,0.0000,0.0000,0.0000,0.0000
2026-04-20T18:56:32.305,0.847,1,0.03,-0.72,-3.94,3.52,0,0.0000,0.0000,0.3500,0.0000,0.0000,0.0000,0.00,0.00,70.09,60.78,51,0,0.00000,0.00000,0.00000,0.00000,0,0,0,0.00000,0.00000,1.00000,0.0000,0.0000,0.0000,0.0000,0.0000,0.0000,0.00,0.00,0.00,1,1,1,51,200,0,0,0,0,0,0.00,0,0,0,0,0,0,0,0.00,0.00,0,0,0.0000,0.0000,0.0000,0.0000,0.0000
2026-04-20T18:56:32.321,0.864,1,0.02,-0.74,-3.99,3.51,0,0.0000,0.0000,0.3500,0.0000,0.0000,0.0000,0.00,0.00,60.63,57.89,52,0,0.00000,0.00000,0.00000,0.00000,0,0,0,0.00000,0.00000,1.00000,0.0000,0.0000,0.0000,0.0000,0.0000,0.0000,0.00,0.00,0.00,1,1,1,52,200,0,0,0,0,0,0.00,0,0,0,0,0,0,0,0.00,0.00,0,0,0.0000,0.0000,0.0000,0.0000,0.0000
2026-04-20T18:56:32.339,0.881,1,0.02,-0.74,-3.99,3.51,0,0.0000,0.0000,0.3500,0.0000,0.0000,0.0000,0.00,0.00,66.36,59.72,53,0,0.00000,0.00000,0.00000,0.00000,0,0,0,0.00000,0.00000,1.00000,0.0000,0.0000,0.0000,0.0000,0.0000,0.0000,0.00,0.00,0.00,1,1,1,53,200,0,0,0,0,0,0.00,0,0,0,0,0,0,0,0.00,0.00,0,0,0.0000,0.0000,0.0000,0.0000,0.0000
2026-04-20T18:56:32.355,0.897,1,0.02,-0.74,-3.99,3.51,0,0.0000,0.0000,0.3500,0.0000,0.0000,0.0000,0.00,0.00,53.32,59.80,54,0,0.00000,0.00000,0.00000,0.00000,0,0,0,0.00000,0.00000,1.00000,0.0000,0.0000,0.0000,0.0000,0.0000,0.0000,0.00,0.00,0.00,1,1,1,54,200,0,0,0,0,0,0.00,0,0,0,0,0,0,0,0.00,0.00,0,0,0.0000,0.0000,0.0000,0.0000,0.0000
2026-04-20T18:56:32.372,0.914,1,0.02,-0.74,-3.99,3.51,0,0.0000,0.0000,0.3500,0.0000,0.0000,0.0000,0.00,0.00,57.04,62.13,55,0,0.00000,0.00000,0.00000,0.00000,0,0,0,0.00000,0.00000,1.00000,0.0000,0.0000,0.0000,0.0000,0.0000,0.0000,0.00,0.00,0.00,1,1,1,55,200,0,0,0,0,0,0.00,0,0,0,0,0,0,0,0.00,0.00,0,0,0.0000,0.0000,0.0000,0.0000,0.0000
2026-04-20T18:56:32.389,0.931,1,0.02,-0.74,-3.99,3.51,0,0.0000,0.0000,0.3500,0.0000,0.0000,0.0000,0.00,0.00,64.80,59.98,56,0,0.00000,0.00000,0.00000,0.00000,0,0,0,0.00000,0.00000,1.00000,0.0000,0.0000,0.0000,0.0000,0.0000,0.0000,0.00,0.00,0.00,1,1,1,56,200,0,0,0,0,0,0.00,0,0,0,0,0,0,0,0.00,0.00,0,0,0.0000,0.0000,0.0000,0.0000,0.0000
2026-04-20T18:56:32.400,0.942,1,0.02,-0.74,-3.99,3.51,0,0.0000,0.0000,0.3500,0.0000,0.0000,0.0000,0.00,0.00,59.55,80.13,57,0,0.00000,0.00000,0.00000,0.00000,0,0,0,0.00000,0.00000,1.00000,0.0000,0.0000,0.0000,0.0000,0.0000,0.0000,0.00,0.00,0.00,1,1,1,57,200,0,0,0,0,0,0.00,0,0,0,0,0,0,0,0.00,0.00,0,0,0.0000,0.0000,0.0000,0.0000,0.0000
2026-04-20T18:56:32.423,0.965,1,0.03,-0.74,-3.96,3.54,0,0.0000,0.0000,0.3500,0.0000,0.0000,0.0000,0.00,0.00,98.02,48.03,58,0,0.00000,0.00000,0.00000,0.00000,0,0,0,0.00000,0.00000,1.00000,0.0000,0.0000,0.0000,0.0000,0.0000,0.0000,0.00,0.00,0.00,1,1,1,58,200,0,0,0,0,0,0.00,0,0,0,0,0,0,0,0.00,0.00,0,0,0.0000,0.0000,0.0000,0.0000,0.0000
2026-04-20T18:56:32.437,0.979,1,0.03,-0.74,-3.96,3.54,0,0.0000,0.0000,0.3500,0.0000,0.0000,0.0000,0.00,0.00,41.45,62.88,59,0,0.00000,0.00000,0.00000,0.00000,0,0,0,0.00000,0.00000,1.00000,0.0000,0.0000,0.0000,0.0000,0.0000,0.0000,0.00,0.00,0.00,1,1,1,59,200,0,0,0,0,0,0.00,0,0,0,0,0,0,0,0.00,0.00,0,0,0.0000,0.0000,0.0000,0.0000,0.0000
2026-04-20T18:56:32.455,0.997,1,0.03,-0.74,-3.96,3.54,0,0.0000,0.0000,0.3500,0.0000,0.0000,0.0000,0.00,0.00,79.37,54.95,60,0,0.00000,0.00000,0.00000,0.00000,0,0,0,0.00000,0.00000,1.00000,0.0000,0.0000,0.0000,0.0000,0.0000,0.0000,0.00,0.00,0.00,1,1,1,60,200,0,0,0,0,0,0.00,0,0,0,0,0,0,0,0.00,0.00,0,0,0.0000,0.0000,0.0000,0.0000,0.0000
2026-04-20T18:56:32.472,1.014,1,0.03,-0.73,-3.91,3.55,0,0.0000,0.0000,0.3500,0.0000,0.0000,0.0000,0.00,0.00,50.79,62.43,61,0,0.00000,0.00000,0.00000,0.00000,0,0,0,0.00000,0.00000,1.00000,0.0000,0.0000,0.0000,0.0000,0.0000,0.0000,0.00,0.00,0.00,1,1,1,61,200,0,0,0,0,0,0.00,0,0,0,0,0,0,0,0.00,0.00,0,0,0.0000,0.0000,0.0000,0.0000,0.0000
2026-04-20T18:56:32.489,1.032,1,0.03,-0.73,-3.91,3.55,0,0.0000,0.0000,0.3500,0.0000,0.0000,0.0000,0.00,0.00,59.82,60.50,62,0,0.00000,0.00000,0.00000,0.00000,0,0,0,0.00000,0.00000,1.00000,0.0000,0.0000,0.0000,0.0000,0.0000,0.0000,0.00,0.00,0.00,1,1,1,62,200,0,0,0,0,0,0.00,0,0,0,0,0,0,0,0.00,0.00,0,0,0.0000,0.0000,0.0000,0.0000,0.0000
2026-04-20T18:56:32.505,1.047,1,0.03,-0.73,-3.91,3.55,0,0.0000,0.0000,0.3500,0.0000,0.0000,0.0000,0.00,0.00,61.19,58.62,63,0,0.00000,0.00000,0.00000,0.00000,0,0,0,0.00000,0.00000,1.00000,0.0000,0.0000,0.0000,0.0000,0.0000,0.0000,0.00,0.00,0.00,1,1,1,63,200,0,0,0,0,0,0.00,0,0,61,0,0,0,35578,250.00,0.00,6,3591,0.0000,0.0000,0.0000,0.0000,0.0000
2026-04-20T18:56:32.519,1.062,1,0.03,-0.73,-3.97,3.51,0,0.0000,0.0000,0.3500,0.0000,0.0000,0.0000,0.00,0.00,58.61,68.70,64,0,0.00000,0.00000,0.00000,0.00000,0,0,0,0.00000,0.00000,1.00000,0.0000,0.0000,0.0000,0.0000,0.0000,0.0000,0.00,0.00,0.00,1,1,1,64,200,0,0,0,0,0,0.00,0,0,61,0,0,0,35578,250.00,0.00,6,3591,0.0000,0.0000,0.0000,0.0000,0.0000
2026-04-20T18:56:32.539,1.081,1,0.03,-0.73,-3.97,3.51,0,0.0000,0.0000,0.3500,0.0000,0.0000,0.0000,0.00,0.00,56.07,51.39,65,0,0.00000,0.00000,0.00000,0.00000,0,0,0,0.00000,0.00000,1.00000,0.0000,0.0000,0.0000,0.0000,0.0000,0.0000,0.00,0.00,0.00,1,1,1,65,200,0,0,0,0,0,0.00,0,0,61,0,0,0,35578,250.00,0.00,6,3591,0.0000,0.0000,0.0000,0.0000,0.0000
2026-04-20T18:56:32.555,1.098,1,0.03,-0.73,-3.97,3.51,0,0.0000,0.0000,0.3500,0.0000,0.0000,0.0000,0.00,0.00,63.82,60.07,66,0,0.00000,0.00000,0.00000,0.00000,0,0,0,0.00000,0.00000,1.00000,0.0000,0.0000,0.0000,0.0000,0.0000,0.0000,0.00,0.00,0.00,1,1,1,66,200,0,0,0,0,0,0.00,0,0,61,0,0,0,35578,250.00,0.00,6,3591,0.0000,0.0000,0.0000,0.0000,0.0000
2026-04-20T18:56:32.571,1.113,1,0.04,-0.74,-3.88,3.58,0,0.0000,0.0000,0.3500,0.0000,0.0000,0.0000,0.00,0.00,65.98,64.12,67,0,0.00000,0.00000,0.00000,0.00000,0,0,0,0.00000,0.00000,1.00000,0.0000,0.0000,0.0000,0.0000,0.0000,0.0000,0.00,0.00,0.00,1,1,1,67,200,0,0,0,0,0,0.00,0,0,61,0,0,0,35578,250.00,0.00,6,3591,0.0000,0.0000,0.0000,0.0000,0.0000
2026-04-20T18:56:32.589,1.131,1,0.04,-0.74,-3.88,3.58,0,0.0000,0.0000,0.3500,0.0000,0.0000,0.0000,0.00,0.00,52.76,61.02,68,0,0.00000,0.00000,0.00000,0.00000,0,0,0,0.00000,0.00000,1.00000,0.0000,0.0000,0.0000,0.0000,0.0000,0.0000,0.00,0.00,0.00,1,1,1,68,200,0,0,0,0,0,0.00,0,0,61,0,0,0,35578,250.00,0.00,6,3591,0.0000,0.0000,0.0000,0.0000,0.0000
2026-04-20T18:56:32.605,1.148,1,0.04,-0.74,-3.88,3.58,0,0.0000,0.0000,0.3500,0.0000,0.0000,0.0000,0.00,0.00,61.96,60.30,69,0,0.00000,0.00000,0.00000,0.00000,0,0,0,0.00000,0.00000,1.00000,0.0000,0.0000,0.0000,0.0000,0.0000,0.0000,0.00,0.00,0.00,1,1,1,69,200,0,0,0,0,0,0.00,0,0,61,0,0,0,35578,250.00,0.00,6,3591,0.0000,0.0000,0.0000,0.0000,0.0000
2026-04-20T18:56:32.625,1.167,1,0.04,-0.74,-3.88,3.58,0,0.0000,0.0000,0.3500,0.0000,0.0000,0.0000,0.00,0.00,62.07,54.48,70,0,0.00000,0.00000,0.00000,0.00000,0,0,0,0.00000,0.00000,1.00000,0.0000,0.0000,0.0000,0.0000,0.0000,0.0000,0.00,0.00,0.00,1,1,1,70,200,0,0,0,0,0,0.00,0,0,61,0,0,0,35578,250.00,0.00,6,3591,0.0000,0.0000,0.0000,0.0000,0.0000
2026-04-20T18:56:32.637,1.180,1,0.03,-0.74,-3.91,3.57,0,0.0000,0.0000,0.3500,0.0000,0.0000,0.0000,0.00,0.00,54.76,65.31,71,0,0.00000,0.00000,0.00000,0.00000,0,0,0,0.00000,0.00000,1.00000,0.0000,0.0000,0.0000,0.0000,0.0000,0.0000,0.00,0.00,0.00,1,1,1,71,200,0,0,0,0,0,0.00,0,0,61,0,0,0,35578,250.00,0.00,6,3591,0.0000,0.0000,0.0000,0.0000,0.0000
2026-04-20T18:56:32.655,1.198,1,0.03,-0.74,-3.91,3.57,0,0.0000,0.0000,0.3500,0.0000,0.0000,0.0000,0.00,0.00,62.62,62.86,72,0,0.00000,0.00000,0.00000,0.00000,0,0,0,0.00000,0.00000,1.00000,0.0000,0.0000,0.0000,0.0000,0.0000,0.0000,0.00,0.00,0.00,1,1,1,72,200,0,0,0,0,0,0.00,0,0,61,0,0,0,35578,250.00,0.00,6,3591,0.0000,0.0000,0.0000,0.0000,0.0000
2026-04-20T18:56:32.672,1.214,1,0.03,-0.74,-3.91,3.57,0,0.0000,0.0000,0.3500,0.0000,0.0000,0.0000,0.00,0.00,67.98,56.90,73,0,0.00000,0.00000,0.00000,0.00000,0,0,0,0.00000,0.00000,1.00000,0.0000,0.0000,0.0000,0.0000,0.0000,0.0000,0.00,0.00,0.00,1,1,1,73,200,0,0,0,0,0,0.00,0,0,61,0,0,0,35578,250.00,0.00,6,3591,0.0000,0.0000,0.0000,0.0000,0.0000
2026-04-20T18:56:32.687,1.230,1,0.05,-0.74,-3.90,3.52,0,0.0000,0.0000,0.3500,0.0000,0.0000,0.0000,0.00,0.00,56.90,60.59,74,0,0.00000,0.00000,0.00000,0.00000,0,0,0,0.00000,0.00000,1.00000,0.0000,0.0000,0.0000,0.0000,0.0000,0.0000,0.00,0.00,0.00,1,1,1,74,200,0,0,0,0,0,0.00,0,0,61,0,0,0,35578,250.00,0.00,6,3591,0.0000,0.0000,0.0000,0.0000,0.0000
2026-04-20T18:56:32.702,1.244,1,0.05,-0.74,-3.90,3.52,0,0.0000,0.0000,0.3500,0.0000,0.0000,0.0000,0.00,0.00,68.97,68.42,75,0,0.00000,0.00000,0.00000,0.00000,0,0,0,0.00000,0.00000,1.00000,0.0000,0.0000,0.0000,0.0000,0.0000,0.0000,0.00,0.00,0.00,1,1,1,75,200,0,0,0,0,0,0.00,0,0,61,0,0,0,35578,250.00,0.00,6,3591,0.0000,0.0000,0.0000,0.0000,0.0000
2026-04-20T18:56:32.720,1.263,1,0.05,-0.74,-3.90,3.52,0,0.0000,0.0000,0.3500,0.0000,0.0000,0.0000,0.00,0.00,49.70,54.48,76,0,0.00000,0.00000,0.00000,0.00000,0,0,0,0.00000,0.00000,1.00000,0.0000,0.0000,0.0000,0.0000,0.0000,0.0000,0.00,0.00,0.00,1,1,1,76,200,0,0,0,0,0,0.00,0,0,61,0,0,0,35578,250.00,0.00,6,3591,0.0000,0.0000,0.0000,0.0000,0.0000
2026-04-20T18:56:32.739,1.281,1,0.04,-0.73,-3.96,3.55,0,0.0000,0.0000,0.3500,0.0000,0.0000,0.0000,0.00,0.00,64.41,57.20,77,0,0.00000,0.00000,0.00000,0.00000,0,0,0,0.00000,0.00000,1.00000,0.0000,0.0000,0.0000,0.0000,0.0000,0.0000,0.00,0.00,0.00,1,1,1,77,200,0,0,0,0,0,0.00,0,0,61,0,0,0,35578,250.00,0.00,6,3591,0.0000,0.0000,0.0000,0.0000,0.0000
2026-04-20T18:56:32.756,1.298,1,0.04,-0.73,-3.96,3.55,0,0.0000,0.0000,0.3500,0.0000,0.0000,0.0000,0.00,0.00,63.25,61.82,78,0,0.00000,0.00000,0.00000,0.00000,0,0,0,0.00000,0.00000,1.00000,0.0000,0.0000,0.0000,0.0000,0.0000,0.0000,0.00,0.00,0.00,1,1,1,78,200,0,0,0,0,0,0.00,0,0,61,0,0,0,35578,250.00,0.00,6,3591,0.0000,0.0000,0.0000,0.0000,0.0000
2026-04-20T18:56:32.771,1.313,1,0.04,-0.73,-3.96,3.55,0,0.0000,0.0000,0.3500,0.0000,0.0000,0.0000,0.00,0.00,59.96,59.88,79,0,0.00000,0.00000,0.00000,0.00000,0,0,0,0.00000,0.00000,1.00000,0.0000,0.0000,0.0000,0.0000,0.0000,0.0000,0.00,0.00,0.00,1,1,1,79,200,0,0,0,0,0,0.00,0,0,61,0,0,0,35578,250.00,0.00,6,3591,0.0000,0.0000,0.0000,0.0000,0.0000
2026-04-20T18:56:32.788,1.331,1,0.05,-0.72,-3.96,3.52,0,0.0000,0.0000,0.3500,0.0000,0.0000,0.0000,0.00,0.00,65.82,56.61,80,0,0.00000,0.00000,0.00000,0.00000,0,0,0,0.00000,0.00000,1.00000,0.0000,0.0000,0.0000,0.0000,0.0000,0.0000,0.00,0.00,0.00,1,1,1,80,200,0,0,0,0,0,0.00,0,0,61,0,0,0,35578,250.00,0.00,6,3591,0.0000,0.0000,0.0000,0.0000,0.0000
2026-04-20T18:56:32.803,1.346,1,0.05,-0.72,-3.96,3.52,0,0.0000,0.0000,0.3500,0.0000,0.0000,0.0000,0.00,0.00,49.70,66.76,81,0,0.00000,0.00000,0.00000,0.00000,0,0,0,0.00000,0.00000,1.00000,0.0000,0.0000,0.0000,0.0000,0.0000,0.0000,0.00,0.00,0.00,1,1,1,81,200,0,0,0,0,0,0.00,0,0,61,0,0,0,35578,250.00,0.00,6,3591,0.0000,0.0000,0.0000,0.0000,0.0000
2026-04-20T18:56:32.822,1.364,1,0.05,-0.72,-3.96,3.52,0,0.0000,0.0000,0.3500,0.0000,0.0000,0.0000,0.00,0.00,79.86,56.78,82,0,0.00000,0.00000,0.00000,0.00000,0,0,0,0.00000,0.00000,1.00000,0.0000,0.0000,0.0000,0.0000,0.0000,0.0000,0.00,0.00,0.00,1,1,1,82,200,0,0,0,0,0,0.00,0,0,61,0,0,0,35578,250.00,0.00,6,3591,0.0000,0.0000,0.0000,0.0000,0.0000
2026-04-20T18:56:32.837,1.380,1,0.05,-0.71,-3.87,3.52,0,0.0000,0.0000,0.3500,0.0000,0.0000,0.0000,0.00,0.00,53.72,61.24,83,0,0.00000,0.00000,0.00000,0.00000,0,0,0,0.00000,0.00000,1.00000,0.0000,0.0000,0.0000,0.0000,0.0000,0.0000,0.00,0.00,0.00,1,1,1,83,200,0,0,0,0,0,0.00,0,0,61,0,0,0,35578,250.00,0.00,6,3591,0.0000,0.0000,0.0000,0.0000,0.0000
2026-04-20T18:56:32.856,1.398,1,0.05,-0.71,-3.87,3.52,0,0.0000,0.0000,0.3500,0.0000,0.0000,0.0000,0.00,0.00,53.57,54.87,84,0,0.00000,0.00000,0.00000,0.00000,0,0,0,0.00000,0.00000,1.00000,0.0000,0.0000,0.0000,0.0000,0.0000,0.0000,0.00,0.00,0.00,1,1,1,84,200,0,0,0,0,0,0.00,0,0,61,0,0,0,35578,250.00,0.00,6,3591,0.0000,0.0000,0.0000,0.0000,0.0000
2026-04-20T18:56:32.870,1.412,1,0.05,-0.71,-3.87,3.52,0,0.0000,0.0000,0.3500,0.0000,0.0000,0.0000,0.00,0.00,56.97,69.97,85,0,0.00000,0.00000,0.00000,0.00000,0,0,0,0.00000,0.00000,1.00000,0.0000,0.0000,0.0000,0.0000,0.0000,0.0000,0.00,0.00,0.00,1,1,1,85,200,0,0,0,0,0,0.00,0,0,61,0,0,0,35578,250.00,0.00,6,3591,0.0000,0.0000,0.0000,0.0000,0.0000
2026-04-20T18:56:32.888,1.431,1,0.05,-0.71,-3.87,3.52,0,0.0000,0.0000,0.3500,0.0000,0.0000,0.0000,0.00,0.00,86.02,56.99,86,0,0.00000,0.00000,0.00000,0.00000,0,0,0,0.00000,0.00000,1.00000,0.0000,0.0000,0.0000,0.0000,0.0000,0.0000,0.00,0.00,0.00,1,1,1,86,200,0,0,0,0,0,0.00,0,0,61,0,0,0,35578,250.00,0.00,6,3591,0.0000,0.0000,0.0000,0.0000,0.0000
2026-04-20T18:56:32.905,1.447,1,0.05,-0.71,-3.87,3.52,0,0.0000,0.0000,0.3500,0.0000,0.0000,0.0000,0.00,0.00,50.73,60.25,87,0,0.00000,0.00000,0.00000,0.00000,0,0,0,0.00000,0.00000,1.00000,0.0000,0.0000,0.0000,0.0000,0.0000,0.0000,0.00,0.00,0.00,1,1,1,87,200,0,0,0,0,0,0.00,0,0,61,0,0,0,35578,250.00,0.00,6,3591,0.0000,0.0000,0.0000,0.0000,0.0000
2026-04-20T18:56:32.921,1.463,1,0.05,-0.71,-3.87,3.52,0,0.0000,0.0000,0.3500,0.0000,0.0000,0.0000,0.00,0.00,58.96,59.80,88,0,0.00000,0.00000,0.00000,0.00000,0,0,0,0.00000,0.00000,1.00000,0.0000,0.0000,0.0000,0.0000,0.0000,0.0000,0.00,0.00,0.00,1,1,1,88,200,0,0,0,0,0,0.00,0,0,61,0,0,0,35578,250.00,0.00,6,3591,0.0000,0.0000,0.0000,0.0000,0.0000
2026-04-20T18:56:32.938,1.481,1,0.05,-0.72,-3.99,3.51,0,0.0000,0.0000,0.3500,0.0000,0.0000,0.0000,0.00,0.00,70.45,56.53,89,0,0.00000,0.00000,0.00000,0.00000,0,0,0,0.00000,0.00000,1.00000,0.0000,0.0000,0.0000,0.0000,0.0000,0.0000,0.00,0.00,0.00,1,1,1,89,200,0,0,0,0,0,0.00,0,0,61,0,0,0,35578,250.00,0.00,6,3591,0.0000,0.0000,0.0000,0.0000,0.0000
2026-04-20T18:56:32.956,1.498,1,0.05,-0.72,-3.99,3.51,0,0.0000,0.0000,0.3500,0.0000,0.0000,0.0000,0.00,0.00,49.63,64.67,90,0,0.00000,0.00000,0.00000,0.00000,0,0,0,0.00000,0.00000,1.00000,0.0000,0.0000,0.0000,0.0000,0.0000,0.0000,0.00,0.00,0.00,1,1,1,90,200,0,0,0,0,0,0.00,0,0,61,0,0,0,35578,250.00,0.00,6,3591,0.0000,0.0000,0.0000,0.0000,0.0000
2026-04-20T18:56:32.970,1.512,1,0.05,-0.72,-3.99,3.51,0,0.0000,0.0000,0.3500,0.0000,0.0000,0.0000,0.00,0.00,62.43,62.64,91,0,0.00000,0.00000,0.00000,0.00000,0,0,0,0.00000,0.00000,1.00000,0.0000,0.0000,0.0000,0.0000,0.0000,0.0000,0.00,0.00,0.00,1,1,1,91,200,0,0,0,0,0,0.00,0,0,61,0,0,0,35578,250.00,0.00,6,3591,0.0000,0.0000,0.0000,0.0000,0.0000
2026-04-20T18:56:32.989,1.531,1,0.05,-0.72,-3.99,3.51,0,0.0000,0.0000,0.3500,0.0000,0.0000,0.0000,0.00,0.00,77.24,55.67,92,0,0.00000,0.00000,0.00000,0.00000,0,0,0,0.00000,0.00000,1.00000,0.0000,0.0000,0.0000,0.0000,0.0000,0.0000,0.00,0.00,0.00,1,1,1,92,200,0,0,0,0,0,0.00,0,0,61,0,0,0,35578,250.00,0.00,6,3591,0.0000,0.0000,0.0000,0.0000,0.0000
2026-04-20T18:56:33.005,1.548,1,0.05,-0.72,-3.99,3.51,0,0.0000,0.0000,0.3500,0.0000,0.0000,0.0000,0.00,0.00,52.73,61.40,93,0,0.00000,0.00000,0.00000,0.00000,0,0,0,0.00000,0.00000,1.00000,0.0000,0.0000,0.0000,0.0000,0.0000,0.0000,0.00,0.00,0.00,1,1,1,93,200,0,0,0,0,0,0.00,0,0,91,0,0,0,35608,250.25,0.00,5,2120,0.0000,0.0000,0.0000,0.0000,0.0000
2026-04-20T18:56:33.021,1.564,1,0.05,-0.72,-3.99,3.51,0,0.0000,0.0000,0.3500,0.0000,0.0000,0.0000,0.00,0.00,56.17,58.81,94,0,0.00000,0.00000,0.00000,0.00000,0,0,0,0.00000,0.00000,1.00000,0.0000,0.0000,0.0000,0.0000,0.0000,0.0000,0.00,0.00,0.00,1,1,1,94,200,0,0,0,0,0,0.00,0,0,91,0,0,0,35608,250.25,0.00,5,2120,0.0000,0.0000,0.0000,0.0000,0.0000
2026-04-20T18:56:33.037,1.580,1,0.06,-0.73,-3.93,3.57,0,0.0000,0.0000,0.3500,0.0000,0.0000,0.0000,0.00,0.00,62.57,61.12,95,0,0.00000,0.00000,0.00000,0.00000,0,0,0,0.00000,0.00000,1.00000,0.0000,0.0000,0.0000,0.0000,0.0000,0.0000,0.00,0.00,0.00,1,1,1,95,200,0,0,0,0,0,0.00,0,0,91,0,0,0,35608,250.25,0.00,5,2120,0.0000,0.0000,0.0000,0.0000,0.0000
2026-04-20T18:56:33.056,1.598,1,0.06,-0.73,-3.93,3.57,0,0.0000,0.0000,0.3500,0.0000,0.0000,0.0000,0.00,0.00,54.75,57.52,96,0,0.00000,0.00000,0.00000,0.00000,0,0,0,0.00000,0.00000,1.00000,0.0000,0.0000,0.0000,0.0000,0.0000,0.0000,0.00,0.00,0.00,1,1,1,96,200,0,0,0,0,0,0.00,0,0,91,0,0,0,35608,250.25,0.00,5,2120,0.0000,0.0000,0.0000,0.0000,0.0000
2026-04-20T18:56:33.073,1.615,1,0.06,-0.73,-3.93,3.57,0,0.0000,0.0000,0.3500,0.0000,0.0000,0.0000,0.00,0.00,66.72,63.22,97,0,0.00000,0.00000,0.00000,0.00000,0,0,0,0.00000,0.00000,1.00000,0.0000,0.0000,0.0000,0.0000,0.0000,0.0000,0.00,0.00,0.00,1,1,1,97,200,0,0,0,0,0,0.00,0,0,91,0,0,0,35608,250.25,0.00,5,2120,0.0000,0.0000,0.0000,0.0000,0.0000
2026-04-20T18:56:33.086,1.629,1,0.06,-0.73,-3.93,3.57,0,0.0000,0.0000,0.3500,0.0000,0.0000,0.0000,0.00,0.00,55.22,64.08,98,0,0.00000,0.00000,0.00000,0.00000,0,0,0,0.00000,0.00000,1.00000,0.0000,0.0000,0.0000,0.0000,0.0000,0.0000,0.00,0.00,0.00,1,1,1,98,200,0,0,0,0,0,0.00,0,0,91,0,0,0,35608,250.25,0.00,5,2120,0.0000,0.0000,0.0000,0.0000,0.0000
2026-04-20T18:56:33.103,1.646,1,0.06,-0.73,-3.93,3.57,0,0.0000,0.0000,0.3500,0.0000,0.0000,0.0000,0.00,0.00,81.23,58.24,99,0,0.00000,0.00000,0.00000,0.00000,0,0,0,0.00000,0.00000,1.00000,0.0000,0.0000,0.0000,0.0000,0.0000,0.0000,0.00,0.00,0.00,1,1,1,99,200,0,0,0,0,0,0.00,0,0,91,0,0,0,35608,250.25,0.00,5,2120,0.0000,0.0000,0.0000,0.0000,0.0000
2026-04-20T18:56:33.121,1.663,1,0.06,-0.73,-3.93,3.57,0,0.0000,0.0000,0.3500,0.0000,0.0000,0.0000,0.00,0.00,58.24,56.76,100,0,0.00000,0.00000,0.00000,0.00000,0,0,0,0.00000,0.00000,1.00000,0.0000,0.0000,0.0000,0.0000,0.0000,0.0000,0.00,0.00,0.00,1,1,1,100,200,0,0,0,0,0,0.00,0,0,91,0,0,0,35608,250.25,0.00,5,2120,0.0000,0.0000,0.0000,0.0000,0.0000
2026-04-20T18:56:33.138,1.680,1,0.06,-0.73,-3.93,3.57,0,0.0000,0.0000,0.3500,0.0000,0.0000,0.0000,0.00,0.00,53.02,59.14,101,0,0.00000,0.00000,0.00000,0.00000,0,0,0,0.00000,0.00000,1.00000,0.0000,0.0000,0.0000,0.0000,0.0000,0.0000,0.00,0.00,0.00,1,1,1,101,200,0,0,0,0,0,0.00,0,0,91,0,0,0,35608,250.25,0.00,5,2120,0.0000,0.0000,0.0000,0.0000,0.0000
2026-04-20T18:56:33.156,1.698,1,0.06,-0.73,-3.93,3.57,0,0.0000,0.0000,0.3500,0.0000,0.0000,0.0000,0.00,0.00,63.83,62.49,102,0,0.00000,0.00000,0.00000,0.00000,0,0,0,0.00000,0.00000,1.00000,0.0000,0.0000,0.0000,0.0000,0.0000,0.0000,0.00,0.00,0.00,1,1,1,102,200,0,0,0,0,0,0.00,0,0,91,0,0,0,35608,250.25,0.00,5,2120,0.0000,0.0000,0.0000,0.0000,0.0000
2026-04-20T18:56:33.171,1.714,1,0.06,-0.73,-3.93,3.57,0,0.0000,0.0000,0.3500,0.0000,0.0000,0.0000,0.00,0.00,55.52,58.15,103,0,0.00000,0.00000,0.00000,0.00000,0,0,0,0.00000,0.00000,1.00000,0.0000,0.0000,0.0000,0.0000,0.0000,0.0000,0.00,0.00,0.00,1,1,1,103,200,0,0,0,0,0,0.00,0,0,91,0,0,0,35608,250.25,0.00,5,2120,0.0000,0.0000,0.0000,0.0000,0.0000
2026-04-20T18:56:33.188,1.730,1,0.06,-0.72,-3.94,3.55,0,0.0000,0.0000,0.3500,0.0000,0.0000,0.0000,0.00,0.00,65.84,59.24,104,0,0.00000,0.00000,0.00000,0.00000,0,0,0,0.00000,0.00000,1.00000,0.0000,0.0000,0.0000,0.0000,0.0000,0.0000,0.00,0.00,0.00,1,1,1,104,200,0,0,0,0,0,0.00,0,0,91,0,0,0,35608,250.25,0.00,5,2120,0.0000,0.0000,0.0000,0.0000,0.0000
2026-04-20T18:56:33.205,1.748,1,0.06,-0.72,-3.94,3.55,0,0.0000,0.0000,0.3500,0.0000,0.0000,0.0000,0.00,0.00,59.24,60.69,105,0,0.00000,0.00000,0.00000,0.00000,0,0,0,0.00000,0.00000,1.00000,0.0000,0.0000,0.0000,0.0000,0.0000,0.0000,0.00,0.00,0.00,1,1,1,105,200,0,0,0,0,0,0.00,0,0,91,0,0,0,35608,250.25,0.00,5,2120,0.0000,0.0000,0.0000,0.0000,0.0000
2026-04-20T18:56:33.221,1.764,1,0.06,-0.72,-3.94,3.55,0,0.0000,0.0000,0.3500,0.0000,0.0000,0.0000,0.00,0.00,57.19,60.29,106,0,0.00000,0.00000,0.00000,0.00000,0,0,0,0.00000,0.00000,1.00000,0.0000,0.0000,0.0000,0.0000,0.0000,0.0000,0.00,0.00,0.00,1,1,1,106,200,0,0,0,0,0,0.00,0,0,91,0,0,0,35608,250.25,0.00,5,2120,0.0000,0.0000,0.0000,0.0000,0.0000
2026-04-20T18:56:33.239,1.781,1,0.06,-0.72,-3.94,3.55,0,0.0000,0.0000,0.3500,0.0000,0.0000,0.0000,0.00,0.00,64.19,63.14,107,0,0.00000,0.00000,0.00000,0.00000,0,0,0,0.00000,0.00000,1.00000,0.0000,0.0000,0.0000,0.0000,0.0000,0.0000,0.00,0.00,0.00,1,1,1,107,200,0,0,0,0,0,0.00,0,0,91,0,0,0,35608,250.25,0.00,5,2120,0.0000,0.0000,0.0000,0.0000,0.0000
2026-04-20T18:56:33.256,1.799,1,0.06,-0.72,-3.94,3.55,0,0.0000,0.0000,0.3500,0.0000,0.0000,0.0000,0.00,0.00,56.05,56.19,108,0,0.00000,0.00000,0.00000,0.00000,0,0,0,0.00000,0.00000,1.00000,0.0000,0.0000,0.0000,0.0000,0.0000,0.0000,0.00,0.00,0.00,1,1,1,108,200,0,0,0,0,0,0.00,0,0,91,0,0,0,35608,250.25,0.00,5,2120,0.0000,0.0000,0.0000,0.0000,0.0000
2026-04-20T18:56:33.272,1.814,1,0.06,-0.72,-3.94,3.55,0,0.0000,0.0000,0.3500,0.0000,0.0000,0.0000,0.00,0.00,53.93,63.30,109,0,0.00000,0.00000,0.00000,0.00000,0,0,0,0.00000,0.00000,1.00000,0.0000,0.0000,0.0000,0.0000,0.0000,0.0000,0.00,0.00,0.00,1,1,1,109,200,0,0,0,0,0,0.00,0,0,91,0,0,0,35608,250.25,0.00,5,2120,0.0000,0.0000,0.0000,0.0000,0.0000
2026-04-20T18:56:33.287,1.830,1,0.06,-0.72,-3.94,3.55,0,0.0000,0.0000,0.3500,0.0000,0.0000,0.0000,0.00,0.00,64.60,60.04,110,0,0.00000,0.00000,0.00000,0.00000,0,0,0,0.00000,0.00000,1.00000,0.0000,0.0000,0.0000,0.0000,0.0000,0.0000,0.00,0.00,0.00,1,1,1,110,200,0,0,0,0,0,0.00,0,0,91,0,0,0,35608,250.25,0.00,5,2120,0.0000,0.0000,0.0000,0.0000,0.0000
2026-04-20T18:56:33.305,1.848,1,0.06,-0.72,-3.94,3.55,0,0.0000,0.0000,0.3500,0.0000,0.0000,0.0000,0.00,0.00,70.30,57.84,111,0,0.00000,0.00000,0.00000,0.00000,0,0,0,0.00000,0.00000,1.00000,0.0000,0.0000,0.0000,0.0000,0.0000,0.0000,0.00,0.00,0.00,1,1,1,111,200,0,0,0,0,0,0.00,0,0,91,0,0,0,35608,250.25,0.00,5,2120,0.0000,0.0000,0.0000,0.0000,0.0000
2026-04-20T18:56:33.320,1.863,1,0.06,-0.72,-3.94,3.55,0,0.0000,0.0000,0.3500,0.0000,0.0000,0.0000,0.00,0.00,54.67,62.34,112,0,0.00000,0.00000,0.00000,0.00000,0,0,0,0.00000,0.00000,1.00000,0.0000,0.0000,0.0000,0.0000,0.0000,0.0000,0.00,0.00,0.00,1,1,1,112,200,0,0,0,0,0,0.00,0,0,91,0,0,0,35608,250.25,0.00,5,2120,0.0000,0.0000,0.0000,0.0000,0.0000
2026-04-20T18:56:33.338,1.881,1,0.06,-0.72,-3.94,3.55,0,0.0000,0.0000,0.3500,0.0000,0.0000,0.0000,0.00,0.00,53.57,60.07,113,0,0.00000,0.00000,0.00000,0.00000,0,0,0,0.00000,0.00000,1.00000,0.0000,0.0000,0.0000,0.0000,0.0000,0.0000,0.00,0.00,0.00,1,1,1,113,200,0,0,0,0,0,0.00,0,0,91,0,0,0,35608,250.25,0.00,5,2120,0.0000,0.0000,0.0000,0.0000,0.0000
2026-04-20T18:56:33.354,1.897,1,0.05,-0.73,-3.91,3.46,0,0.0000,0.0000,0.3500,0.0000,0.0000,0.0000,0.00,0.00,65.90,58.22,114,0,0.00000,0.00000,0.00000,0.00000,0,0,0,0.00000,0.00000,1.00000,0.0000,0.0000,0.0000,0.0000,0.0000,0.0000,0.00,0.00,0.00,1,1,1,114,200,0,0,0,0,0,0.00,0,0,91,0,0,0,35608,250.25,0.00,5,2120,0.0000,0.0000,0.0000,0.0000,0.0000
2026-04-20T18:56:33.371,1.914,1,0.05,-0.73,-3.91,3.46,0,0.0000,0.0000,0.3500,0.0000,0.0000,0.0000,0.00,0.00,58.73,61.98,115,0,0.00000,0.00000,0.00000,0.00000,0,0,0,0.00000,0.00000,1.00000,0.0000,0.0000,0.0000,0.0000,0.0000,0.0000,0.00,0.00,0.00,1,1,1,115,200,0,0,0,0,0,0.00,0,0,91,0,0,0,35608,250.25,0.00,5,2120,0.0000,0.0000,0.0000,0.0000,0.0000
2026-04-20T18:56:33.389,1.931,1,0.05,-0.73,-3.91,3.46,0,0.0000,0.0000,0.3500,0.0000,0.0000,0.0000,0.00,0.00,61.49,57.53,116,0,0.00000,0.00000,0.00000,0.00000,0,0,0,0.00000,0.00000,1.00000,0.0000,0.0000,0.0000,0.0000,0.0000,0.0000,0.00,0.00,0.00,1,1,1,116,200,0,0,0,0,0,0.00,0,0,91,0,0,0,35608,250.25,0.00,5,2120,0.0000,0.0000,0.0000,0.0000,0.0000
2026-04-20T18:56:33.404,1.946,1,0.06,-0.72,-3.94,3.54,0,0.0000,0.0000,0.3500,0.0000,0.0000,0.0000,0.00,0.00,61.54,62.71,117,0,0.00000,0.00000,0.00000,0.00000,0,0,0,0.00000,0.00000,1.00000,0.0000,0.0000,0.0000,0.0000,0.0000,0.0000,0.00,0.00,0.00,1,1,1,117,200,0,0,0,0,0,0.00,0,0,91,0,0,0,35608,250.25,0.00,5,2120,0.0000,0.0000,0.0000,0.0000,0.0000
2026-04-20T18:56:33.421,1.964,1,0.06,-0.72,-3.94,3.54,0,0.0000,0.0000,0.3500,0.0000,0.0000,0.0000,0.00,0.00,66.91,60.06,118,0,0.00000,0.00000,0.00000,0.00000,0,0,0,0.00000,0.00000,1.00000,0.0000,0.0000,0.0000,0.0000,0.0000,0.0000,0.00,0.00,0.00,1,1,1,118,200,0,0,0,0,0,0.00,0,0,91,0,0,0,35608,250.25,0.00,5,2120,0.0000,0.0000,0.0000,0.0000,0.0000
2026-04-20T18:56:33.440,1.982,1,0.06,-0.72,-3.94,3.54,0,0.0000,0.0000,0.3500,0.0000,0.0000,0.0000,0.00,0.00,53.29,57.69,119,0,0.00000,0.00000,0.00000,0.00000,0,0,0,0.00000,0.00000,1.00000,0.0000,0.0000,0.0000,0.0000,0.0000,0.0000,0.00,0.00,0.00,1,1,1,119,200,0,0,0,0,0,0.00,0,0,91,0,0,0,35608,250.25,0.00,5,2120,0.0000,0.0000,0.0000,0.0000,0.0000
2026-04-20T18:56:33.455,1.998,1,0.06,-0.72,-3.96,3.49,0,0.0000,0.0000,0.3500,0.0000,0.0000,0.0000,0.00,0.00,58.07,61.15,120,0,0.00000,0.00000,0.00000,0.00000,0,0,0,0.00000,0.00000,1.00000,0.0000,0.0000,0.0000,0.0000,0.0000,0.0000,0.00,0.00,0.00,1,1,1,120,200,0,0,0,0,0,0.00,0,0,91,0,0,0,35608,250.25,0.00,5,2120,0.0000,0.0000,0.0000,0.0000,0.0000
2026-04-20T18:56:33.473,2.015,1,0.06,-0.72,-3.96,3.49,0,0.0000,0.0000,0.3500,0.0000,0.0000,0.0000,0.00,0.00,65.11,61.17,121,0,0.00000,0.00000,0.00000,0.00000,0,0,0,0.00000,0.00000,1.00000,0.0000,0.0000,0.0000,0.0000,0.0000,0.0000,0.00,0.00,0.00,1,1,1,121,200,0,0,0,0,0,0.00,0,0,91,0,0,0,35608,250.25,0.00,5,2120,0.0000,0.0000,0.0000,0.0000,0.0000
2026-04-20T18:56:33.488,2.031,1,0.06,-0.72,-3.96,3.49,0,0.0000,0.0000,0.3500,0.0000,0.0000,0.0000,0.00,0.00,52.63,58.95,122,0,0.00000,0.00000,0.00000,0.00000,0,0,0,0.00000,0.00000,1.00000,0.0000,0.0000,0.0000,0.0000,0.0000,0.0000,0.00,0.00,0.00,1,1,1,122,200,0,0,0,0,0,0.00,0,0,91,0,0,0,35608,250.25,0.00,5,2120,0.0000,0.0000,0.0000,0.0000,0.0000
2026-04-20T18:56:33.505,2.047,1,0.05,-0.74,-3.97,3.51,0,0.0000,0.0000,0.3500,0.0000,0.0000,0.0000,0.00,0.00,65.34,60.47,123,0,0.00000,0.00000,0.00000,0.00000,0,0,0,0.00000,0.00000,1.00000,0.0000,0.0000,0.0000,0.0000,0.0000,0.0000,0.00,0.00,0.00,1,1,1,123,200,0,0,0,0,0,0.00,0,0,1215,0,0,0,0,0.00,0.00,11,3942,0.0000,0.0000,0.0000,0.0000,0.0000
2026-04-20T18:56:33.520,2.063,1,0.05,-0.74,-3.97,3.51,0,0.0000,0.0000,0.3500,0.0000,0.0000,0.0000,0.00,0.00,60.47,60.57,124,0,0.00000,0.00000,0.00000,0.00000,0,0,0,0.00000,0.00000,1.00000,0.0000,0.0000,0.0000,0.0000,0.0000,0.0000,0.00,0.00,0.00,1,1,1,124,200,0,0,0,0,0,0.00,0,0,1215,0,0,0,0,0.00,0.00,11,3942,0.0000,0.0000,0.0000,0.0000,0.0000
2026-04-20T18:56:33.538,2.080,1,0.05,-0.74,-3.97,3.51,0,0.0000,0.0000,0.3500,0.0000,0.0000,0.0000,0.00,0.00,68.93,57.79,125,0,0.00000,0.00000,0.00000,0.00000,0,0,0,0.00000,0.00000,1.00000,0.0000,0.0000,0.0000,0.0000,0.0000,0.0000,0.00,0.00,0.00,1,1,1,125,200,0,0,0,0,0,0.00,0,0,1215,0,0,0,0,0.00,0.00,11,3942,0.0000,0.0000,0.0000,0.0000,0.0000
2026-04-20T18:56:33.553,2.096,1,0.05,-0.74,-3.97,3.51,0,0.0000,0.0000,0.3500,0.0000,0.0000,0.0000,0.00,0.00,48.73,63.88,126,0,0.00000,0.00000,0.00000,0.00000,0,0,0,0.00000,0.00000,1.00000,0.0000,0.0000,0.0000,0.0000,0.0000,0.0000,0.00,0.00,0.00,1,1,1,126,200,0,0,0,0,0,0.00,0,0,1215,0,0,0,0,0.00,0.00,11,3942,0.0000,0.0000,0.0000,0.0000,0.0000
2026-04-20T18:56:33.572,2.114,1,0.05,-0.74,-3.97,3.51,0,0.0000,0.0000,0.3500,0.0000,0.0000,0.0000,0.00,0.00,65.10,57.35,127,0,0.00000,0.00000,0.00000,0.00000,0,0,0,0.00000,0.00000,1.00000,0.0000,0.0000,0.0000,0.0000,0.0000,0.0000,0.00,0.00,0.00,1,1,1,127,200,0,0,0,0,0,0.00,0,0,1215,0,0,0,0,0.00,0.00,11,3942,0.0000,0.0000,0.0000,0.0000,0.0000
2026-04-20T18:56:33.588,2.131,1,0.05,-0.74,-3.97,3.51,0,0.0000,0.0000,0.3500,0.0000,0.0000,0.0000,0.00,0.00,64.44,61.83,128,0,0.00000,0.00000,0.00000,0.00000,0,0,0,0.00000,0.00000,1.00000,0.0000,0.0000,0.0000,0.0000,0.0000,0.0000,0.00,0.00,0.00,1,1,1,128,200,0,0,0,0,0,0.00,0,0,1215,0,0,0,0,0.00,0.00,11,3942,0.0000,0.0000,0.0000,0.0000,0.0000
2026-04-20T18:56:33.604,2.146,1,0.07,-0.74,-3.91,3.55,0,0.0000,0.0000,0.3500,0.0000,0.0000,0.0000,0.00,0.00,57.62,59.80,129,0,0.00000,0.00000,0.00000,0.00000,0,0,0,0.00000,0.00000,1.00000,0.0000,0.0000,0.0000,0.0000,0.0000,0.0000,0.00,0.00,0.00,1,1,1,129,200,0,0,0,0,0,0.00,0,0,1215,0,0,0,0,0.00,0.00,11,3942,0.0000,0.0000,0.0000,0.0000,0.0000
2026-04-20T18:56:33.620,2.163,1,0.07,-0.74,-3.91,3.55,0,0.0000,0.0000,0.3500,0.0000,0.0000,0.0000,0.00,0.00,68.80,60.43,130,0,0.00000,0.00000,0.00000,0.00000,0,0,0,0.00000,0.00000,1.00000,0.0000,0.0000,0.0000,0.0000,0.0000,0.0000,0.00,0.00,0.00,1,1,1,130,200,0,0,0,0,0,0.00,0,0,1215,0,0,0,0,0.00,0.00,11,3942,0.0000,0.0000,0.0000,0.0000,0.0000
2026-04-20T18:56:33.638,2.181,1,0.07,-0.74,-3.91,3.55,0,0.0000,0.0000,0.3500,0.0000,0.0000,0.0000,0.00,0.00,48.92,59.81,131,0,0.00000,0.00000,0.00000,0.00000,0,0,0,0.00000,0.00000,1.00000,0.0000,0.0000,0.0000,0.0000,0.0000,0.0000,0.00,0.00,0.00,1,1,1,131,200,0,0,0,0,0,0.00,0,0,1215,0,0,0,0,0.00,0.00,11,3942,0.0000,0.0000,0.0000,0.0000,0.0000
2026-04-20T18:56:33.655,2.197,1,0.07,-0.74,-3.91,3.55,0,0.0000,0.0000,0.3500,0.0000,0.0000,0.0000,0.00,0.00,66.38,59.03,132,0,0.00000,0.00000,0.00000,0.00000,0,0,0,0.00000,0.00000,1.00000,0.0000,0.0000,0.0000,0.0000,0.0000,0.0000,0.00,0.00,0.00,1,1,1,132,200,0,0,0,0,0,0.00,0,0,1215,0,0,0,0,0.00,0.00,11,3942,0.0000,0.0000,0.0000,0.0000,0.0000
2026-04-20T18:56:33.670,2.213,1,0.07,-0.74,-3.91,3.55,0,0.0000,0.0000,0.3500,0.0000,0.0000,0.0000,0.00,0.00,63.60,61.15,133,0,0.00000,0.00000,0.00000,0.00000,0,0,0,0.00000,0.00000,1.00000,0.0000,0.0000,0.0000,0.0000,0.0000,0.0000,0.00,0.00,0.00,1,1,1,133,200,0,0,0,0,0,0.00,0,0,1215,0,0,0,0,0.00,0.00,11,3942,0.0000,0.0000,0.0000,0.0000,0.0000
2026-04-20T18:56:33.688,2.230,1,0.07,-0.74,-3.91,3.55,0,0.0000,0.0000,0.3500,0.0000,0.0000,0.0000,0.00,0.00,65.21,57.72,134,0,0.00000,0.00000,0.00000,0.00000,0,0,0,0.00000,0.00000,1.00000,0.0000,0.0000,0.0000,0.0000,0.0000,0.0000,0.00,0.00,0.00,1,1,1,134,200,0,0,0,0,0,0.00,0,0,1215,0,0,0,0,0.00,0.00,11,3942,0.0000,0.0000,0.0000,0.0000,0.0000
2026-04-20T18:56:33.704,2.246,1,0.07,-0.74,-3.96,3.49,0,0.0000,0.0000,0.3500,0.0000,0.0000,0.0000,0.00,0.00,48.95,62.43,135,0,0.00000,0.00000,0.00000,0.00000,0,0,0,0.00000,0.00000,1.00000,0.0000,0.0000,0.0000,0.0000,0.0000,0.0000,0.00,0.00,0.00,1,1,1,135,200,0,0,0,0,0,0.00,0,0,1215,0,0,0,0,0.00,0.00,11,3942,0.0000,0.0000,0.0000,0.0000,0.0000
2026-04-20T18:56:33.722,2.265,1,0.07,-0.74,-3.96,3.49,0,0.0000,0.0000,0.3500,0.0000,0.0000,0.0000,0.00,0.00,77.44,57.62,136,0,0.00000,0.00000,0.00000,0.00000,0,0,0,0.00000,0.00000,1.00000,0.0000,0.0000,0.0000,0.0000,0.0000,0.0000,0.00,0.00,0.00,1,1,1,136,200,0,0,0,0,0,0.00,0,0,1215,0,0,0,0,0.00,0.00,11,3942,0.0000,0.0000,0.0000,0.0000,0.0000
2026-04-20T18:56:33.737,2.279,1,0.07,-0.74,-3.96,3.49,0,0.0000,0.0000,0.3500,0.0000,0.0000,0.0000,0.00,0.00,52.91,62.57,137,0,0.00000,0.00000,0.00000,0.00000,0,0,0,0.00000,0.00000,1.00000,0.0000,0.0000,0.0000,0.0000,0.0000,0.0000,0.00,0.00,0.00,1,1,1,137,200,0,0,0,0,0,0.00,0,0,1215,0,0,0,0,0.00,0.00,11,3942,0.0000,0.0000,0.0000,0.0000,0.0000
2026-04-20T18:56:33.754,2.296,1,0.07,-0.74,-3.96,3.49,0,0.0000,0.0000,0.3500,0.0000,0.0000,0.0000,0.00,0.00,69.27,59.88,138,0,0.00000,0.00000,0.00000,0.00000,0,0,0,0.00000,0.00000,1.00000,0.0000,0.0000,0.0000,0.0000,0.0000,0.0000,0.00,0.00,0.00,1,1,1,138,200,0,0,0,0,0,0.00,0,0,1215,0,0,0,0,0.00,0.00,11,3942,0.0000,0.0000,0.0000,0.0000,0.0000
2026-04-20T18:56:33.770,2.313,1,0.07,-0.74,-3.96,3.49,0,0.0000,0.0000,0.3500,0.0000,0.0000,0.0000,0.00,0.00,50.74,60.03,139,0,0.00000,0.00000,0.00000,0.00000,0,0,0,0.00000,0.00000,1.00000,0.0000,0.0000,0.0000,0.0000,0.0000,0.0000,0.00,0.00,0.00,1,1,1,139,200,0,0,0,0,0,0.00,0,0,1215,0,0,0,0,0.00,0.00,11,3942,0.0000,0.0000,0.0000,0.0000,0.0000
2026-04-20T18:56:33.786,2.329,1,0.07,-0.74,-3.96,3.49,0,0.0000,0.0000,0.3500,0.0000,0.0000,0.0000,0.00,0.00,59.05,63.37,140,0,0.00000,0.00000,0.00000,0.00000,0,0,0,0.00000,0.00000,1.00000,0.0000,0.0000,0.0000,0.0000,0.0000,0.0000,0.00,0.00,0.00,1,1,1,140,200,0,0,0,0,0,0.00,0,0,1215,0,0,0,0,0.00,0.00,11,3942,0.0000,0.0000,0.0000,0.0000,0.0000
2026-04-20T18:56:33.803,2.345,1,0.07,-0.74,-3.96,3.49,0,0.0000,0.0000,0.3500,0.0000,0.0000,0.0000,0.00,0.00,80.01,59.80,141,0,0.00000,0.00000,0.00000,0.00000,0,0,0,0.00000,0.00000,1.00000,0.0000,0.0000,0.0000,0.0000,0.0000,0.0000,0.00,0.00,0.00,1,1,1,141,200,0,0,0,0,0,0.00,0,0,1215,0,0,0,0,0.00,0.00,11,3942,0.0000,0.0000,0.0000,0.0000,0.0000
2026-04-20T18:56:33.821,2.363,1,0.06,-0.75,-3.93,3.46,0,0.0000,0.0000,0.3500,0.0000,0.0000,0.0000,0.00,0.00,59.80,55.16,142,0,0.00000,0.00000,0.00000,0.00000,0,0,0,0.00000,0.00000,1.00000,0.0000,0.0000,0.0000,0.0000,0.0000,0.0000,0.00,0.00,0.00,1,1,1,142,200,0,0,0,0,0,0.00,0,0,1215,0,0,0,0,0.00,0.00,11,3942,0.0000,0.0000,0.0000,0.0000,0.0000
2026-04-20T18:56:33.837,2.379,1,0.06,-0.75,-3.93,3.46,0,0.0000,0.0000,0.3500,0.0000,0.0000,0.0000,0.00,0.00,51.14,62.71,143,0,0.00000,0.00000,0.00000,0.00000,0,0,0,0.00000,0.00000,1.00000,0.0000,0.0000,0.0000,0.0000,0.0000,0.0000,0.00,0.00,0.00,1,1,1,143,200,0,0,0,0,0,0.00,0,0,1215,0,0,0,0,0.00,0.00,11,3942,0.0000,0.0000,0.0000,0.0000,0.0000
2026-04-20T18:56:33.854,2.397,1,0.06,-0.75,-3.93,3.46,0,0.0000,0.0000,0.3500,0.0000,0.0000,0.0000,0.00,0.00,68.87,58.05,144,0,0.00000,0.00000,0.00000,0.00000,0,0,0,0.00000,0.00000,1.00000,0.0000,0.0000,0.0000,0.0000,0.0000,0.0000,0.00,0.00,0.00,1,1,1,144,200,0,0,0,0,0,0.00,0,0,1215,0,0,0,0,0.00,0.00,11,3942,0.0000,0.0000,0.0000,0.0000,0.0000
2026-04-20T18:56:33.872,2.414,1,0.05,-0.74,-3.93,3.54,0,0.0000,0.0000,0.3500,0.0000,0.0000,0.0000,0.00,0.00,50.59,60.18,145,0,0.00000,0.00000,0.00000,0.00000,0,0,0,0.00000,0.00000,1.00000,0.0000,0.0000,0.0000,0.0000,0.0000,0.0000,0.00,0.00,0.00,1,1,1,145,200,0,0,0,0,0,0.00,0,0,1215,0,0,0,0,0.00,0.00,11,3942,0.0000,0.0000,0.0000,0.0000,0.0000
2026-04-20T18:56:33.887,2.430,1,0.05,-0.74,-3.93,3.54,0,0.0000,0.0000,0.3500,0.0000,0.0000,0.0000,0.00,0.00,66.32,59.95,146,0,0.00000,0.00000,0.00000,0.00000,0,0,0,0.00000,0.00000,1.00000,0.0000,0.0000,0.0000,0.0000,0.0000,0.0000,0.00,0.00,0.00,1,1,1,146,200,0,0,0,0,0,0.00,0,0,1215,0,0,0,0,0.00,0.00,11,3942,0.0000,0.0000,0.0000,0.0000,0.0000
2026-04-20T18:56:33.906,2.448,1,0.05,-0.74,-3.93,3.54,0,0.0000,0.0000,0.3500,0.0000,0.0000,0.0000,0.00,0.00,63.80,62.07,147,0,0.00000,0.00000,0.00000,0.00000,0,0,0,0.00000,0.00000,1.00000,0.0000,0.0000,0.0000,0.0000,0.0000,0.0000,0.00,0.00,0.00,1,1,1,147,200,0,0,0,0,0,0.00,0,0,1215,0,0,0,0,0.00,0.00,11,3942,0.0000,0.0000,0.0000,0.0000,0.0000
2026-04-20T18:56:33.920,2.463,1,0.05,-0.74,-3.88,3.52,0,0.0000,0.0000,0.3500,0.0000,0.0000,0.0000,0.00,0.00,51.43,59.95,148,0,0.00000,0.00000,0.00000,0.00000,0,0,0,0.00000,0.00000,1.00000,0.0000,0.0000,0.0000,0.0000,0.0000,0.0000,0.00,0.00,0.00,1,1,1,148,200,0,0,0,0,0,0.00,0,0,1215,0,0,0,0,0.00,0.00,11,3942,0.0000,0.0000,0.0000,0.0000,0.0000
2026-04-20T18:56:33.938,2.481,1,0.05,-0.74,-3.88,3.52,0,0.0000,0.0000,0.3500,0.0000,0.0000,0.0000,0.00,0.00,74.90,59.18,149,0,0.00000,0.00000,0.00000,0.00000,0,0,0,0.00000,0.00000,1.00000,0.0000,0.0000,0.0000,0.0000,0.0000,0.0000,0.00,0.00,0.00,1,1,1,149,200,0,0,0,0,0,0.00,0,0,1215,0,0,0,0,0.00,0.00,11,3942,0.0000,0.0000,0.0000,0.0000,0.0000
2026-04-20T18:56:33.949,2.492,1,0.05,-0.74,-3.88,3.52,0,0.0000,0.0000,0.3500,0.0000,0.0000,0.0000,0.00,0.00,52.60,82.27,150,0,0.00000,0.00000,0.00000,0.00000,0,0,0,0.00000,0.00000,1.00000,0.0000,0.0000,0.0000,0.0000,0.0000,0.0000,0.00,0.00,0.00,1,1,1,150,200,0,0,0,0,0,0.00,0,0,1215,0,0,0,0,0.00,0.00,11,3942,0.0000,0.0000,0.0000,0.0000,0.0000
2026-04-20T18:56:33.970,2.513,1,0.04,-0.74,-3.91,3.52,0,0.0000,0.0000,0.3500,0.0000,0.0000,0.0000,0.00,0.00,99.59,47.78,151,0,0.00000,0.00000,0.00000,0.00000,0,0,0,0.00000,0.00000,1.00000,0.0000,0.0000,0.0000,0.0000,0.0000,0.0000,0.00,0.00,0.00,1,1,1,151,200,0,0,0,0,0,0.00,0,0,1215,0,0,0,0,0.00,0.00,11,3942,0.0000,0.0000,0.0000,0.0000,0.0000
2026-04-20T18:56:33.987,2.529,1,0.04,-0.74,-3.91,3.52,0,0.0000,0.0000,0.3500,0.0000,0.0000,0.0000,0.00,0.00,47.78,60.07,152,0,0.00000,0.00000,0.00000,0.00000,0,0,0,0.00000,0.00000,1.00000,0.0000,0.0000,0.0000,0.0000,0.0000,0.0000,0.00,0.00,0.00,1,1,1,152,200,0,0,0,0,0,0.00,0,0,1215,0,0,0,0,0.00,0.00,11,3942,0.0000,0.0000,0.0000,0.0000,0.0000
2026-04-20T18:56:34.004,2.546,1,0.04,-0.74,-3.91,3.52,0,0.0000,0.0000,0.3500,0.0000,0.0000,0.0000,0.00,0.00,60.07,59.84,153,0,0.00000,0.00000,0.00000,0.00000,0,0,0,0.00000,0.00000,1.00000,0.0000,0.0000,0.0000,0.0000,0.0000,0.0000,0.00,0.00,0.00,1,1,1,153,200,0,0,0,0,0,0.00,0,0,1215,0,0,0,0,0.00,0.00,11,3942,0.0000,0.0000,0.0000,0.0000,0.0000
2026-04-20T18:56:34.019,2.561,1,0.04,-0.74,-3.91,3.52,0,0.0000,0.0000,0.3500,0.0000,0.0000,0.0000,0.00,0.00,59.84,65.59,154,0,0.00000,0.00000,0.00000,0.00000,0,0,0,0.00000,0.00000,1.00000,0.0000,0.0000,0.0000,0.0000,0.0000,0.0000,0.00,0.00,0.00,1,1,1,154,200,0,0,0,0,0,0.00,0,0,1215,0,0,0,0,0.00,0.00,11,3942,0.0000,0.0000,0.0000,0.0000,0.0000
2026-04-20T18:56:34.035,2.578,1,0.04,-0.74,-3.91,3.52,0,0.0000,0.0000,0.3500,0.0000,0.0000,0.0000,0.00,0.00,48.67,60.57,155,0,0.00000,0.00000,0.00000,0.00000,0,0,0,0.00000,0.00000,1.00000,0.0000,0.0000,0.0000,0.0000,0.0000,0.0000,0.00,0.00,0.00,1,1,1,155,200,0,0,0,0,0,0.00,0,0,1215,0,0,0,0,0.00,0.00,11,3942,0.0000,0.0000,0.0000,0.0000,0.0000
2026-04-20T18:56:34.054,2.597,1,0.04,-0.74,-3.91,3.52,0,0.0000,0.0000,0.3500,0.0000,0.0000,0.0000,0.00,0.00,89.20,55.18,156,0,0.00000,0.00000,0.00000,0.00000,0,0,0,0.00000,0.00000,1.00000,0.0000,0.0000,0.0000,0.0000,0.0000,0.0000,0.00,0.00,0.00,1,1,1,156,200,0,0,0,0,0,0.00,0,0,1215,0,0,0,0,0.00,0.00,11,3942,0.0000,0.0000,0.0000,0.0000,0.0000
2026-04-20T18:56:34.071,2.614,1,0.04,-0.73,-3.88,3.51,0,0.0000,0.0000,0.3500,0.0000,0.0000,0.0000,0.00,0.00,49.46,58.99,157,0,0.00000,0.00000,0.00000,0.00000,0,0,0,0.00000,0.00000,1.00000,0.0000,0.0000,0.0000,0.0000,0.0000,0.0000,0.00,0.00,0.00,1,1,1,157,200,0,0,0,0,0,0.00,0,0,1215,0,0,0,0,0.00,0.00,11,3942,0.0000,0.0000,0.0000,0.0000,0.0000
2026-04-20T18:56:34.087,2.630,1,0.04,-0.73,-3.88,3.51,0,0.0000,0.0000,0.3500,0.0000,0.0000,0.0000,0.00,0.00,58.93,59.24,158,0,0.00000,0.00000,0.00000,0.00000,0,0,0,0.00000,0.00000,1.00000,0.0000,0.0000,0.0000,0.0000,0.0000,0.0000,0.00,0.00,0.00,1,1,1,158,200,0,0,0,0,0,0.00,0,0,1215,0,0,0,0,0.00,0.00,11,3942,0.0000,0.0000,0.0000,0.0000,0.0000
2026-04-20T18:56:34.104,2.646,1,0.04,-0.73,-3.88,3.51,0,0.0000,0.0000,0.3500,0.0000,0.0000,0.0000,0.00,0.00,67.72,61.72,159,0,0.00000,0.00000,0.00000,0.00000,0,0,0,0.00000,0.00000,1.00000,0.0000,0.0000,0.0000,0.0000,0.0000,0.0000,0.00,0.00,0.00,1,1,1,159,200,0,0,0,0,0,0.00,0,0,1215,0,0,0,0,0.00,0.00,11,3942,0.0000,0.0000,0.0000,0.0000,0.0000
2026-04-20T18:56:34.124,2.666,1,0.04,-0.73,-3.88,3.51,0,0.0000,0.0000,0.3500,0.0000,0.0000,0.0000,0.00,0.00,61.72,59.99,160,0,0.00000,0.00000,0.00000,0.00000,0,0,0,0.00000,0.00000,1.00000,0.0000,0.0000,0.0000,0.0000,0.0000,0.0000,0.00,0.00,0.00,1,1,1,160,200,0,0,0,0,0,0.00,0,0,1215,0,0,0,0,0.00,0.00,11,3942,0.0000,0.0000,0.0000,0.0000,0.0000
2026-04-20T18:56:34.139,2.682,1,0.04,-0.73,-3.88,3.51,0,0.0000,0.0000,0.3500,0.0000,0.0000,0.0000,0.00,0.00,48.54,55.89,161,0,0.00000,0.00000,0.00000,0.00000,0,0,0,0.00000,0.00000,1.00000,0.0000,0.0000,0.0000,0.0000,0.0000,0.0000,0.00,0.00,0.00,1,1,1,161,200,0,0,0,0,0,0.00,0,0,1215,0,0,0,0,0.00,0.00,11,3942,0.0000,0.0000,0.0000,0.0000,0.0000
2026-04-20T18:56:34.154,2.697,1,0.04,-0.73,-3.88,3.51,0,0.0000,0.0000,0.3500,0.0000,0.0000,0.0000,0.00,0.00,58.93,62.06,162,0,0.00000,0.00000,0.00000,0.00000,0,0,0,0.00000,0.00000,1.00000,0.0000,0.0000,0.0000,0.0000,0.0000,0.0000,0.00,0.00,0.00,1,1,1,162,200,0,0,0,0,0,0.00,0,0,1215,0,0,0,0,0.00,0.00,11,3942,0.0000,0.0000,0.0000,0.0000,0.0000
2026-04-20T18:56:34.172,2.714,1,0.04,-0.73,-3.88,3.51,0,0.0000,0.0000,0.3500,0.0000,0.0000,0.0000,0.00,0.00,63.08,60.64,163,0,0.00000,0.00000,0.00000,0.00000,0,0,0,0.00000,0.00000,1.00000,0.0000,0.0000,0.0000,0.0000,0.0000,0.0000,0.00,0.00,0.00,1,1,1,163,200,0,0,0,0,0,0.00,0,0,1215,0,0,0,0,0.00,0.00,11,3942,0.0000,0.0000,0.0000,0.0000,0.0000
2026-04-20T18:56:34.188,2.730,1,0.04,-0.73,-3.90,3.51,0,0.0000,0.0000,0.3500,0.0000,0.0000,0.0000,0.00,0.00,65.25,61.37,164,0,0.00000,0.00000,0.00000,0.00000,0,0,0,0.00000,0.00000,1.00000,0.0000,0.0000,0.0000,0.0000,0.0000,0.0000,0.00,0.00,0.00,1,1,1,164,200,0,0,0,0,0,0.00,0,0,1215,0,0,0,0,0.00,0.00,11,3942,0.0000,0.0000,0.0000,0.0000,0.0000
2026-04-20T18:56:34.203,2.746,1,0.04,-0.73,-3.90,3.51,0,0.0000,0.0000,0.3500,0.0000,0.0000,0.0000,0.00,0.00,59.31,60.54,165,0,0.00000,0.00000,0.00000,0.00000,0,0,0,0.00000,0.00000,1.00000,0.0000,0.0000,0.0000,0.0000,0.0000,0.0000,0.00,0.00,0.00,1,1,1,165,200,0,0,0,0,0,0.00,0,0,1215,0,0,0,0,0.00,0.00,11,3942,0.0000,0.0000,0.0000,0.0000,0.0000
2026-04-20T18:56:34.220,2.763,1,0.04,-0.73,-3.90,3.51,0,0.0000,0.0000,0.3500,0.0000,0.0000,0.0000,0.00,0.00,69.62,59.86,166,0,0.00000,0.00000,0.00000,0.00000,0,0,0,0.00000,0.00000,1.00000,0.0000,0.0000,0.0000,0.0000,0.0000,0.0000,0.00,0.00,0.00,1,1,1,166,200,0,0,0,0,0,0.00,0,0,1215,0,0,0,0,0.00,0.00,11,3942,0.0000,0.0000,0.0000,0.0000,0.0000
2026-04-20T18:56:34.239,2.781,1,0.04,-0.73,-3.90,3.51,0,0.0000,0.0000,0.3500,0.0000,0.0000,0.0000,0.00,0.00,59.86,60.03,167,0,0.00000,0.00000,0.00000,0.00000,0,0,0,0.00000,0.00000,1.00000,0.0000,0.0000,0.0000,0.0000,0.0000,0.0000,0.00,0.00,0.00,1,1,1,167,200,0,0,0,0,0,0.00,0,0,1215,0,0,0,0,0.00,0.00,11,3942,0.0000,0.0000,0.0000,0.0000,0.0000
2026-04-20T18:56:34.253,2.796,1,0.04,-0.73,-3.90,3.51,0,0.0000,0.0000,0.3500,0.0000,0.0000,0.0000,0.00,0.00,53.58,60.89,168,0,0.00000,0.00000,0.00000,0.00000,0,0,0,0.00000,0.00000,1.00000,0.0000,0.0000,0.0000,0.0000,0.0000,0.0000,0.00,0.00,0.00,1,1,1,168,200,0,0,0,0,0,0.00,0,0,1215,0,0,0,0,0.00,0.00,11,3942,0.0000,0.0000,0.0000,0.0000,0.0000
2026-04-20T18:56:34.271,2.814,1,0.04,-0.73,-3.90,3.51,0,0.0000,0.0000,0.3500,0.0000,0.0000,0.0000,0.00,0.00,69.36,58.40,169,0,0.00000,0.00000,0.00000,0.00000,0,0,0,0.00000,0.00000,1.00000,0.0000,0.0000,0.0000,0.0000,0.0000,0.0000,0.00,0.00,0.00,1,1,1,169,200,0,0,0,0,0,0.00,0,0,1215,0,0,0,0,0.00,0.00,11,3942,0.0000,0.0000,0.0000,0.0000,0.0000
2026-04-20T18:56:34.288,2.830,1,0.04,-0.73,-3.90,3.51,0,0.0000,0.0000,0.3500,0.0000,0.0000,0.0000,0.00,0.00,55.17,61.06,170,0,0.00000,0.00000,0.00000,0.00000,0,0,0,0.00000,0.00000,1.00000,0.0000,0.0000,0.0000,0.0000,0.0000,0.0000,0.00,0.00,0.00,1,1,1,170,200,0,0,0,0,0,0.00,0,0,1215,0,0,0,0,0.00,0.00,11,3942,0.0000,0.0000,0.0000,0.0000,0.0000
2026-04-20T18:56:34.303,2.846,1,0.04,-0.73,-3.90,3.51,0,0.0000,0.0000,0.3500,0.0000,0.0000,0.0000,0.00,0.00,56.57,60.01,171,0,0.00000,0.00000,0.00000,0.00000,0,0,0,0.00000,0.00000,1.00000,0.0000,0.0000,0.0000,0.0000,0.0000,0.0000,0.00,0.00,0.00,1,1,1,171,200,0,0,0,0,0,0.00,0,0,1215,0,0,0,0,0.00,0.00,11,3942,0.0000,0.0000,0.0000,0.0000,0.0000
2026-04-20T18:56:34.321,2.864,1,0.04,-0.73,-3.90,3.51,0,0.0000,0.0000,0.3500,0.0000,0.0000,0.0000,0.00,0.00,69.63,60.09,172,0,0.00000,0.00000,0.00000,0.00000,0,0,0,0.00000,0.00000,1.00000,0.0000,0.0000,0.0000,0.0000,0.0000,0.0000,0.00,0.00,0.00,1,1,1,172,200,0,0,0,0,0,0.00,0,0,1215,0,0,0,0,0.00,0.00,11,3942,0.0000,0.0000,0.0000,0.0000,0.0000
