iso_time,elapsed_s,imu_ready,imu_pitch_deg,imu_roll_deg,imu_pitch_rate_deg_s,imu_roll_rate_deg_s,mocap_valid,mocap_x_error_m,mocap_y_error_m,mocap_z_error_m,mocap_vx_m_s,mocap_vy_m_s,mocap_vz_m_s,mocap_yaw_error_deg,mocap_yaw_rate_deg_s,backend_loop_hz,tracking_loop_hz,frames_processed,valid_pose_frames,pose_success_rate,full_marker_detection_rate,cam1_full_detection_rate,cam2_full_detection_rate,cam1_leds,cam2_leds,spatial_data_valid,mapping_error_px,model_fit_error_m,scale_factor,position_x_m,position_y_m,position_z_m,velocity_x_m_s,velocity_y_m_s,velocity_z_m_s,yaw_deg,pitch_deg,roll_deg,serial_connected,serial_send_enabled,serial_send_ok,serial_payload_seq,serial_payload_size_bytes,bridge_serial_frames_rx,bridge_espnow_tx_attempts,bridge_espnow_tx_ok,bridge_espnow_tx_fail,bridge_oversize_drops,bridge_tx_rate_hz,bridge_last_tx_seq,bridge_last_tx_latency_us,controller_rx_packets,controller_rx_missing_packets,controller_rx_duplicate_packets,controller_rx_out_of_order_packets,controller_last_rx_seq,controller_loop_hz,controller_control_hz,controller_command_age_ms,controller_apply_latency_us,controller_motor_imbalance,motor_1_output,motor_2_output,motor_3_output,motor_4_output
2026-04-20T20:04:03.280,0.023,1,-0.25,-0.37,0.08,0.00,1,0.0360,0.0650,0.3169,0.0000,0.0000,0.0000,-44.68,-0.44,49.53,57.24,1,1,1.00000,1.00000,1.00000,1.00000,3,3,1,23.48691,0.00264,1.10355,-0.0360,-0.0650,0.0331,0.0000,0.0000,0.0000,44.68,-4.83,-10.86,1,1,1,1,219,82809,82809,62584,20225,0,60.00,544,3040,0,0,0,0,0,0.00,0.00,0,0,0.0000,0.0000,0.0000,0.0000,0.0000
2026-04-20T20:04:03.300,0.043,1,-0.25,-0.37,0.08,0.00,1,0.0360,0.0649,0.3169,0.0000,0.0000,0.0000,-44.72,2.17,78.41,55.73,2,2,1.00000,1.00000,1.00000,1.00000,3,3,1,23.48246,0.00265,1.10201,-0.0360,-0.0649,0.0331,0.0000,0.0000,0.0000,44.72,-4.86,-10.80,1,1,1,2,218,82809,82809,62584,20225,0,60.00,544,3040,0,0,0,0,0,0.00,0.00,0,0,0.0000,0.0000,0.0000,0.0000,0.0000
2026-04-20T20:04:03.306,0.049,1,-0.25,-0.37,0.08,0.00,1,0.0359,0.0649,0.3168,0.0000,0.0000,0.0000,-44.74,2.71,48.13,76.17,3,3,1.00000,1.00000,1.00000,1.00000,3,3,1,23.48261,0.00277,1.10128,-0.0359,-0.0649,0.0332,0.0000,0.0000,0.0000,44.74,-5.06,-10.86,1,1,1,3,219,82809,82809,62584,20225,0,60.00,544,3040,0,0,0,0,0,0.00,0.00,0,0,0.0000,0.0000,0.0000,0.0000,0.0000
2026-04-20T20:04:03.330,0.073,1,-0.25,-0.37,0.08,0.00,1,0.0358,0.0648,0.3168,0.0000,0.0000,0.0000,-44.79,2.06,250.87,55.66,4,4,1.00000,1.00000,1.00000,1.00000,3,3,1,23.46978,0.00276,1.10097,-0.0358,-0.0648,0.0332,0.0000,0.0000,0.0000,44.79,-5.45,-10.82,1,1,1,4,219,82809,82809,62584,20225,0,60.00,544,3040,0,0,0,0,0,0.00,0.00,0,0,0.0000,0.0000,0.0000,0.0000,0.0000
2026-04-20T20:04:03.348,0.091,1,-0.25,-0.37,0.08,0.00,1,0.0359,0.0648,0.3169,0.0000,0.0000,0.0000,-44.78,-0.59,39.62,58.45,5,5,1.00000,1.00000,1.00000,1.00000,3,3,1,23.47172,0.00270,1.10277,-0.0359,-0.0648,0.0331,0.0000,0.0000,0.0000,44.78,-5.25,-10.82,1,1,1,5,219,82809,82809,62584,20225,0,60.00,544,3040,0,0,0,0,0,0.00,0.00,0,0,0.0000,0.0000,0.0000,0.0000,0.0000
2026-04-20T20:04:03.363,0.106,1,-0.25,-0.37,0.08,0.00,1,0.0360,0.0650,0.3167,0.0000,0.0000,0.0000,-44.71,-4.55,56.44,61.53,6,6,1.00000,1.00000,1.00000,1.00000,3,3,1,23.47512,0.00271,1.10498,-0.0360,-0.0650,0.0333,0.0000,0.0000,0.0000,44.71,-4.94,-10.98,1,1,1,6,219,82809,82809,62584,20225,0,60.00,544,3040,0,0,0,0,0,0.00,0.00,0,0,0.0000,0.0000,0.0000,0.0000,0.0000
2026-04-20T20:04:03.381,0.124,1,-0.25,-0.37,0.08,0.00,1,0.0359,0.0649,0.3167,0.0000,0.0000,0.0000,-44.74,1.92,59.98,59.92,7,7,1.00000,1.00000,1.00000,1.00000,3,3,1,23.47071,0.00271,1.10010,-0.0359,-0.0649,0.0333,0.0000,0.0000,0.0000,44.74,-5.09,-10.86,1,1,1,7,219,82809,82809,62584,20225,0,60.00,544,3040,0,0,0,0,0,0.00,0.00,0,0,0.0000,0.0000,0.0000,0.0000,0.0000
2026-04-20T20:04:03.398,0.141,1,-0.25,-0.37,0.08,0.00,1,0.0359,0.0649,0.3168,0.0000,0.0000,0.0000,-44.73,-0.52,65.21,55.27,8,8,1.00000,1.00000,1.00000,1.00000,3,3,1,23.46088,0.00280,1.10347,-0.0359,-0.0649,0.0332,0.0000,0.0000,0.0000,44.73,-5.25,-10.95,1,1,1,8,219,82809,82809,62584,20225,0,60.00,544,3040,0,0,0,0,0,0.00,0.00,0,0,0.0000,0.0000,0.0000,0.0000,0.0000
2026-04-20T20:04:03.417,0.160,1,-0.25,-0.37,0.08,0.00,1,0.0360,0.0650,0.3167,0.0000,0.0000,0.0000,-44.71,-1.25,54.19,62.24,9,9,1.00000,1.00000,1.00000,1.00000,3,3,1,23.48258,0.00265,1.10298,-0.0360,-0.0650,0.0333,0.0000,0.0000,0.0000,44.71,-4.97,-10.93,1,1,1,9,219,82809,82809,62584,20225,0,60.00,544,3040,0,0,0,0,0,0.00,0.00,0,0,0.0000,0.0000,0.0000,0.0000,0.0000
2026-04-20T20:04:03.431,0.174,1,-0.25,-0.37,0.08,0.00,1,0.0360,0.0649,0.3168,0.0000,0.0000,0.0000,-44.81,5.84,52.07,59.18,10,10,1.00000,1.00000,1.00000,1.00000,3,3,1,23.50287,0.00273,1.09995,-0.0360,-0.0649,0.0332,0.0000,0.0000,0.0000,44.81,-4.97,-10.81,1,1,1,10,219,82809,82809,62584,20225,0,60.00,544,3040,0,0,0,0,0,0.00,0.00,0,0,0.0000,0.0000,0.0000,0.0000,0.0000
2026-04-20T20:04:03.447,0.190,1,-0.26,-0.37,0.11,-0.01,1,0.0358,0.0648,0.3169,0.0000,0.0000,0.0000,-44.78,-1.94,71.51,64.69,11,11,1.00000,1.00000,1.00000,1.00000,3,3,1,23.48089,0.00286,1.10218,-0.0358,-0.0648,0.0331,0.0000,0.0000,0.0000,44.78,-5.37,-10.85,1,1,1,11,219,82809,82809,62584,20225,0,60.00,544,3040,0,0,0,0,0,0.00,0.00,0,0,0.0000,0.0000,0.0000,0.0000,0.0000
2026-04-20T20:04:03.463,0.206,1,-0.26,-0.37,0.11,-0.01,1,0.0360,0.0650,0.3168,0.0000,0.0000,0.0000,-44.77,-0.61,64.81,58.48,12,12,1.00000,1.00000,1.00000,1.00000,3,3,1,23.43640,0.00261,1.10331,-0.0360,-0.0650,0.0332,0.0000,0.0000,0.0000,44.77,-5.09,-10.87,1,1,1,12,219,82809,82809,62584,20225,0,60.00,544,3040,0,0,0,0,0,0.00,0.00,0,0,0.0000,0.0000,0.0000,0.0000,0.0000
2026-04-20T20:04:03.481,0.224,1,-0.26,-0.37,0.11,-0.01,1,0.0358,0.0648,0.3169,0.0000,0.0000,0.0000,-44.78,0.54,63.06,57.81,13,13,1.00000,1.00000,1.00000,1.00000,3,3,1,23.47380,0.00285,1.10235,-0.0358,-0.0648,0.0331,0.0000,0.0000,0.0000,44.78,-5.29,-10.90,1,1,1,13,218,82809,82809,62584,20225,0,60.00,544,3040,0,0,0,0,0,0.00,0.00,0,0,0.0000,0.0000,0.0000,0.0000,0.0000
2026-04-20T20:04:03.493,0.236,1,-0.26,-0.37,0.11,-0.01,1,0.0358,0.0648,0.3169,0.0000,0.0000,0.0000,-44.78,0.00,54.70,67.84,14,14,1.00000,1.00000,1.00000,1.00000,3,3,1,23.42807,0.00258,1.10384,-0.0358,-0.0648,0.0331,0.0000,0.0000,0.0000,44.78,-5.24,-10.83,1,1,1,14,219,82809,82809,62584,20225,0,60.00,544,3040,0,0,0,0,0,0.00,0.00,0,0,0.0000,0.0000,0.0000,0.0000,0.0000
2026-04-20T20:04:03.514,0.256,1,-0.26,-0.37,0.11,-0.01,1,0.0359,0.0649,0.3169,0.0000,0.0000,0.0000,-44.76,-1.02,91.05,56.86,15,15,1.00000,1.00000,1.00000,1.00000,3,3,1,23.46937,0.00263,1.10245,-0.0359,-0.0649,0.0331,0.0000,0.0000,0.0000,44.76,-5.08,-10.78,1,1,1,15,219,82809,82809,62584,20225,0,60.00,544,3040,0,0,0,0,0,0.00,0.00,0,0,0.0000,0.0000,0.0000,0.0000,0.0000
2026-04-20T20:04:03.530,0.273,1,-0.26,-0.37,0.11,-0.01,1,0.0359,0.0648,0.3169,0.0000,0.0000,0.0000,-44.79,1.69,48.54,57.52,16,16,1.00000,1.00000,1.00000,1.00000,3,3,1,23.46923,0.00278,1.10115,-0.0359,-0.0648,0.0331,0.0000,0.0000,0.0000,44.79,-5.27,-10.78,1,1,1,16,219,82809,82809,62584,20225,0,60.00,544,3040,0,0,0,0,0,0.00,0.00,0,0,0.0000,0.0000,0.0000,0.0000,0.0000
2026-04-20T20:04:03.544,0.287,1,-0.26,-0.37,0.11,-0.01,1,0.0360,0.0650,0.3168,0.0000,0.0000,0.0000,-44.68,-7.96,56.37,62.71,17,17,1.00000,1.00000,1.00000,1.00000,3,3,1,23.45192,0.00261,1.10370,-0.0360,-0.0650,0.0332,0.0000,0.0000,0.0000,44.68,-4.98,-10.87,1,1,1,17,219,82809,82809,62584,20225,0,60.00,544,3040,0,0,0,0,0,0.00,0.00,0,0,0.0000,0.0000,0.0000,0.0000,0.0000
2026-04-20T20:04:03.564,0.307,1,-0.26,-0.37,0.11,-0.01,1,0.0358,0.0647,0.3170,0.0000,0.0000,0.0000,-44.81,6.47,77.98,58.20,18,18,1.00000,1.00000,1.00000,1.00000,3,3,1,23.47367,0.00276,1.09894,-0.0358,-0.0647,0.0330,0.0000,0.0000,0.0000,44.81,-5.34,-10.70,1,1,1,18,218,82809,82809,62584,20225,0,60.00,544,3040,0,0,0,0,0,0.00,0.00,0,0,0.0000,0.0000,0.0000,0.0000,0.0000
2026-04-20T20:04:03.582,0.324,1,-0.26,-0.37,0.11,-0.01,1,0.0358,0.0649,0.3169,0.0000,0.0000,0.0000,-44.78,-2.18,46.85,61.96,19,19,1.00000,1.00000,1.00000,1.00000,3,3,1,23.43880,0.00266,1.10620,-0.0358,-0.0649,0.0331,0.0000,0.0000,0.0000,44.78,-5.28,-10.84,1,1,1,19,219,82809,82809,62584,20225,0,60.00,544,3040,0,0,0,0,0,0.00,0.00,0,0,0.0000,0.0000,0.0000,0.0000,0.0000
2026-04-20T20:04:03.594,0.337,1,-0.25,-0.37,0.10,0.06,1,0.0359,0.0648,0.3169,0.0000,0.0000,0.0000,-44.77,-0.63,62.20,62.24,20,20,1.00000,1.00000,1.00000,1.00000,3,3,1,23.46073,0.00278,1.10290,-0.0359,-0.0648,0.0331,0.0000,0.0000,0.0000,44.77,-5.37,-10.89,1,1,1,20,219,82809,82809,62584,20225,0,60.00,544,3040,0,0,0,0,0,0.00,0.00,0,0,0.0000,0.0000,0.0000,0.0000,0.0000
2026-04-20T20:04:03.615,0.358,1,-0.25,-0.37,0.10,0.06,1,0.0359,0.0648,0.3170,0.0000,0.0000,0.0000,-44.79,1.02,80.35,54.56,21,21,1.00000,1.00000,1.00000,1.00000,3,3,1,23.47435,0.00272,1.10309,-0.0359,-0.0648,0.0330,0.0000,0.0000,0.0000,44.79,-5.28,-10.79,1,1,1,21,219,82809,82809,62584,20225,0,60.00,544,3040,0,0,0,0,0,0.00,0.00,0,0,0.0000,0.0000,0.0000,0.0000,0.0000
2026-04-20T20:04:03.627,0.370,1,-0.25,-0.37,0.10,0.06,1,0.0360,0.0649,0.3169,0.0000,0.0000,0.0000,-44.71,-6.08,45.70,60.54,22,22,1.00000,1.00000,1.00000,1.00000,3,3,1,23.44409,0.00266,1.10445,-0.0360,-0.0649,0.0331,0.0000,0.0000,0.0000,44.71,-5.08,-10.86,1,1,1,22,219,82809,82809,62584,20225,0,60.00,544,3040,0,0,0,0,0,0.00,0.00,0,0,0.0000,0.0000,0.0000,0.0000,0.0000
2026-04-20T20:04:03.647,0.390,1,-0.24,-0.38,0.19,0.03,1,0.0359,0.0648,0.3169,0.0000,0.0000,0.0000,-44.77,3.12,91.43,62.86,23,23,1.00000,1.00000,1.00000,1.00000,3,3,1,23.45264,0.00271,1.09987,-0.0359,-0.0648,0.0331,0.0000,0.0000,0.0000,44.77,-5.26,-10.83,1,1,1,23,219,82809,82809,62584,20225,0,60.00,544,3040,0,0,0,0,0,0.00,0.00,0,0,0.0000,0.0000,0.0000,0.0000,0.0000
2026-04-20T20:04:03.664,0.407,1,-0.24,-0.38,0.19,0.03,1,0.0360,0.0649,0.3169,0.0000,0.0000,0.0000,-44.73,-2.31,50.02,58.52,24,24,1.00000,1.00000,1.00000,1.00000,3,3,1,23.47792,0.00269,1.10362,-0.0360,-0.0649,0.0331,0.0000,0.0000,0.0000,44.73,-5.06,-10.89,1,1,1,24,219,82809,82809,62584,20225,0,60.00,544,3040,0,0,0,0,0,0.00,0.00,0,0,0.0000,0.0000,0.0000,0.0000,0.0000
2026-04-20T20:04:03.677,0.420,1,-0.24,-0.38,0.19,0.03,1,0.0358,0.0648,0.3169,0.0000,0.0000,0.0000,-44.73,0.00,53.27,61.74,25,25,1.00000,1.00000,1.00000,1.00000,3,3,1,23.47248,0.00287,1.10201,-0.0358,-0.0648,0.0331,0.0000,0.0000,0.0000,44.73,-5.41,-10.88,1,1,1,25,219,82809,82809,62584,20225,0,60.00,544,3040,0,0,0,0,0,0.00,0.00,0,0,0.0000,0.0000,0.0000,0.0000,0.0000
2026-04-20T20:04:03.697,0.440,1,-0.24,-0.38,0.19,0.03,1,0.0359,0.0649,0.3168,0.0000,0.0000,0.0000,-44.80,3.60,89.31,59.40,26,26,1.00000,1.00000,1.00000,1.00000,3,3,1,23.48155,0.00270,1.09922,-0.0359,-0.0649,0.0332,0.0000,0.0000,0.0000,44.80,-5.34,-10.79,1,1,1,26,218,82809,82809,62584,20225,0,60.00,544,3040,0,0,0,0,0,0.00,0.00,0,0,0.0000,0.0000,0.0000,0.0000,0.0000
2026-04-20T20:04:03.710,0.453,1,-0.24,-0.38,0.19,0.03,1,0.0360,0.0650,0.3167,0.0000,0.0000,0.0000,-44.76,-2.87,46.66,57.24,27,27,1.00000,1.00000,1.00000,1.00000,3,3,1,23.46889,0.00260,1.10201,-0.0360,-0.0650,0.0333,0.0000,0.0000,0.0000,44.76,-4.99,-10.81,1,1,1,27,219,82809,82809,62584,20225,0,60.00,544,3040,0,0,0,0,0,0.00,0.00,0,0,0.0000,0.0000,0.0000,0.0000,0.0000
2026-04-20T20:04:03.732,0.474,1,-0.24,-0.38,0.19,0.03,1,0.0360,0.0649,0.3170,0.0000,0.0000,0.0000,-44.74,-1.12,52.68,64.01,28,28,1.00000,1.00000,1.00000,1.00000,3,3,1,23.47297,0.00269,1.10374,-0.0360,-0.0649,0.0330,0.0000,0.0000,0.0000,44.74,-5.05,-10.86,1,1,1,28,219,82809,82809,62584,20225,0,60.00,544,3040,0,0,0,0,0,0.00,0.00,0,0,0.0000,0.0000,0.0000,0.0000,0.0000
2026-04-20T20:04:03.745,0.488,1,-0.24,-0.38,0.19,0.03,1,0.0360,0.0650,0.3168,0.0000,0.0000,0.0000,-44.68,-3.44,69.84,58.13,29,29,1.00000,1.00000,1.00000,1.00000,3,3,1,23.45960,0.00265,1.10384,-0.0360,-0.0650,0.0332,0.0000,0.0000,0.0000,44.68,-4.87,-10.91,1,1,1,29,219,82869,82869,62644,20225,0,60.00,604,3050,0,0,0,0,0,0.00,0.00,0,0,0.0000,0.0000,0.0000,0.0000,0.0000
2026-04-20T20:04:03.757,0.500,1,-0.24,-0.38,0.19,0.03,1,0.0360,0.0649,0.3169,0.0000,0.0000,0.0000,-44.71,2.58,72.08,62.30,30,30,1.00000,1.00000,1.00000,1.00000,3,3,1,23.46444,0.00264,1.10241,-0.0360,-0.0649,0.0331,0.0000,0.0000,0.0000,44.71,-4.89,-10.82,1,1,1,30,219,82869,82869,62644,20225,0,60.00,604,3050,0,0,0,0,0,0.00,0.00,0,0,0.0000,0.0000,0.0000,0.0000,0.0000
2026-04-20T20:04:03.777,0.519,1,-0.24,-0.38,0.19,0.03,1,0.0359,0.0648,0.3170,0.0000,0.0000,0.0000,-44.76,2.54,86.05,59.94,31,31,1.00000,1.00000,1.00000,1.00000,3,3,1,23.44356,0.00281,1.10320,-0.0359,-0.0648,0.0330,0.0000,0.0000,0.0000,44.76,-5.25,-10.81,1,1,1,31,219,82869,82869,62644,20225,0,60.00,604,3050,0,0,0,0,0,0.00,0.00,0,0,0.0000,0.0000,0.0000,0.0000,0.0000
2026-04-20T20:04:03.801,0.544,1,-0.24,-0.38,0.19,0.03,1,0.0359,0.0649,0.3169,0.0000,0.0000,0.0000,-44.77,0.45,50.77,73.80,32,32,1.00000,1.00000,1.00000,1.00000,3,3,1,23.47003,0.00276,1.10174,-0.0359,-0.0649,0.0331,0.0000,0.0000,0.0000,44.77,-5.26,-10.85,1,1,1,32,219,82869,82869,62644,20225,0,60.00,604,3050,0,0,0,0,0,0.00,0.00,0,0,0.0000,0.0000,0.0000,0.0000,0.0000
2026-04-20T20:04:03.817,0.560,1,-0.24,-0.38,0.19,0.03,1,0.0359,0.0648,0.3169,0.0000,0.0000,0.0000,-44.79,1.16,37.78,46.87,33,33,1.00000,1.00000,1.00000,1.00000,3,3,1,23.47301,0.00275,1.10097,-0.0359,-0.0648,0.0331,0.0000,0.0000,0.0000,44.79,-5.32,-10.82,1,1,1,33,219,82869,82869,62644,20225,0,60.00,604,3050,0,0,0,0,0,0.00,0.00,0,0,0.0000,0.0000,0.0000,0.0000,0.0000
2026-04-20T20:04:03.829,0.571,1,-0.24,-0.38,0.19,0.03,1,0.0360,0.0650,0.3169,0.0000,0.0000,0.0000,-44.68,-8.90,61.61,66.86,34,34,1.00000,1.00000,1.00000,1.00000,3,3,1,23.48882,0.00274,1.10378,-0.0360,-0.0650,0.0331,0.0000,0.0000,0.0000,44.68,-5.15,-10.94,1,1,1,34,219,82869,82869,62644,20225,0,60.00,604,3050,0,0,0,0,0,0.00,0.00,0,0,0.0000,0.0000,0.0000,0.0000,0.0000
2026-04-20T20:04:03.848,0.591,1,-0.24,-0.38,0.19,0.03,1,0.0360,0.0649,0.3169,0.0000,0.0000,0.0000,-44.69,0.54,108.37,55.72,35,35,1.00000,1.00000,1.00000,1.00000,3,3,1,23.46817,0.00264,1.10153,-0.0360,-0.0649,0.0331,0.0000,0.0000,0.0000,44.69,-5.02,-10.86,1,1,1,35,219,82869,82869,62644,20225,0,60.00,604,3050,0,0,0,0,0,0.00,0.00,0,0,0.0000,0.0000,0.0000,0.0000,0.0000
2026-04-20T20:04:03.860,0.602,1,-0.24,-0.38,0.19,0.03,1,0.0358,0.0647,0.3170,0.0000,0.0000,0.0000,-44.72,2.41,48.90,70.15,36,36,1.00000,1.00000,1.00000,1.00000,3,3,1,23.46559,0.00284,1.10104,-0.0358,-0.0647,0.0330,0.0000,0.0000,0.0000,44.72,-5.46,-10.83,1,1,1,36,219,82869,82869,62644,20225,0,60.00,604,3050,0,0,0,0,0,0.00,0.00,0,0,0.0000,0.0000,0.0000,0.0000,0.0000
2026-04-20T20:04:03.883,0.626,1,-0.24,-0.38,0.19,0.03,1,0.0358,0.0648,0.3170,0.0000,0.0000,0.0000,-44.76,1.81,95.77,56.25,37,37,1.00000,1.00000,1.00000,1.00000,3,3,1,23.48900,0.00283,1.10121,-0.0358,-0.0648,0.0330,0.0000,0.0000,0.0000,44.76,-5.62,-10.75,1,1,1,37,219,82869,82869,62644,20225,0,60.00,604,3050,0,0,0,0,0,0.00,0.00,0,0,0.0000,0.0000,0.0000,0.0000,0.0000
2026-04-20T20:04:03.900,0.643,1,-0.24,-0.38,0.19,0.03,1,0.0358,0.0648,0.3169,0.0000,0.0000,0.0000,-44.77,0.58,41.11,56.99,38,38,1.00000,1.00000,1.00000,1.00000,3,3,1,23.46646,0.00276,1.10070,-0.0358,-0.0648,0.0331,0.0000,0.0000,0.0000,44.77,-5.65,-10.75,1,1,1,38,219,82869,82869,62644,20225,0,60.00,604,3050,0,0,0,0,0,0.00,0.00,0,0,0.0000,0.0000,0.0000,0.0000,0.0000
2026-04-20T20:04:03.912,0.654,1,-0.23,-0.40,0.14,0.00,1,0.0358,0.0648,0.3170,0.0000,0.0000,0.0000,-44.74,-2.33,57.60,62.17,39,39,1.00000,1.00000,1.00000,1.00000,3,3,1,23.45987,0.00269,1.10484,-0.0358,-0.0648,0.0330,0.0000,0.0000,0.0000,44.74,-5.48,-10.86,1,1,1,39,219,82869,82869,62644,20225,0,60.00,604,3050,0,0,0,0,0,0.00,0.00,0,0,0.0000,0.0000,0.0000,0.0000,0.0000
2026-04-20T20:04:03.931,0.674,1,-0.23,-0.40,0.14,0.00,1,0.0359,0.0648,0.3170,0.0000,0.0000,0.0000,-44.74,0.00,68.09,57.25,40,40,1.00000,1.00000,1.00000,1.00000,3,3,1,23.48207,0.00265,1.10210,-0.0359,-0.0648,0.0330,0.0000,0.0000,0.0000,44.74,-5.17,-10.81,1,1,1,40,219,82869,82869,62644,20225,0,60.00,604,3050,0,0,0,0,0,0.00,0.00,0,0,0.0000,0.0000,0.0000,0.0000,0.0000
2026-04-20T20:04:03.946,0.689,1,-0.23,-0.40,0.14,0.00,1,0.0358,0.0648,0.3169,0.0000,0.0000,0.0000,-44.79,3.16,64.95,63.04,41,41,1.00000,1.00000,1.00000,1.00000,3,3,1,23.48347,0.00276,1.10067,-0.0358,-0.0648,0.0331,0.0000,0.0000,0.0000,44.79,-5.28,-10.80,1,1,1,41,218,82869,82869,62644,20225,0,60.00,604,3050,0,0,0,0,0,0.00,0.00,0,0,0.0000,0.0000,0.0000,0.0000,0.0000
2026-04-20T20:04:03.964,0.706,1,-0.25,-0.39,0.08,0.02,1,0.0359,0.0649,0.3169,0.0000,0.0000,0.0000,-44.72,-4.22,63.54,59.56,42,42,1.00000,1.00000,1.00000,1.00000,3,3,1,23.50160,0.00274,1.10208,-0.0359,-0.0649,0.0331,0.0000,0.0000,0.0000,44.72,-5.17,-10.83,1,1,1,42,219,82869,82869,62644,20225,0,60.00,604,3050,0,0,0,0,0,0.00,0.00,0,0,0.0000,0.0000,0.0000,0.0000,0.0000
2026-04-20T20:04:03.981,0.724,1,-0.25,-0.39,0.08,0.02,1,0.0359,0.0649,0.3168,0.0000,0.0000,0.0000,-44.73,0.58,56.38,60.18,43,43,1.00000,1.00000,1.00000,1.00000,3,3,1,23.46157,0.00274,1.10193,-0.0359,-0.0649,0.0332,0.0000,0.0000,0.0000,44.73,-5.20,-10.91,1,1,1,43,218,82869,82869,62644,20225,0,60.00,604,3050,0,0,0,0,0,0.00,0.00,0,0,0.0000,0.0000,0.0000,0.0000,0.0000
2026-04-20T20:04:03.996,0.738,1,-0.25,-0.39,0.08,0.02,1,0.0358,0.0648,0.3169,0.0000,0.0000,0.0000,-44.76,1.90,58.13,60.57,44,44,1.00000,1.00000,1.00000,1.00000,3,3,1,23.46353,0.00277,1.10064,-0.0358,-0.0648,0.0331,0.0000,0.0000,0.0000,44.76,-5.29,-10.83,1,1,1,44,219,82869,82869,62644,20225,0,60.00,604,3050,0,0,0,0,0,0.00,0.00,0,0,0.0000,0.0000,0.0000,0.0000,0.0000
2026-04-20T20:04:04.015,0.757,1,-0.25,-0.39,0.13,-0.01,1,0.0359,0.0648,0.3170,0.0000,0.0000,0.0000,-44.75,-0.56,67.64,59.92,45,45,1.00000,1.00000,1.00000,1.00000,3,3,1,23.46937,0.00263,1.10245,-0.0359,-0.0648,0.0330,0.0000,0.0000,0.0000,44.75,-5.10,-10.78,1,1,1,45,218,82869,82869,62644,20225,0,60.00,604,3050,0,0,0,0,0,0.00,0.00,0,0,0.0000,0.0000,0.0000,0.0000,0.0000
2026-04-20T20:04:04.027,0.770,1,-0.25,-0.39,0.13,-0.01,1,0.0359,0.0649,0.3169,0.0000,0.0000,0.0000,-44.74,-0.74,51.90,62.34,46,46,1.00000,1.00000,1.00000,1.00000,3,3,1,23.49512,0.00267,1.10362,-0.0359,-0.0649,0.0331,0.0000,0.0000,0.0000,44.74,-4.93,-10.82,1,1,1,46,219,82869,82869,62644,20225,0,60.00,604,3050,0,0,0,0,0,0.00,0.00,0,0,0.0000,0.0000,0.0000,0.0000,0.0000
2026-04-20T20:04:04.046,0.789,1,-0.25,-0.39,0.13,-0.01,1,0.0359,0.0648,0.3168,0.0000,0.0000,0.0000,-44.73,-0.55,64.99,58.03,47,47,1.00000,1.00000,1.00000,1.00000,3,3,1,23.46229,0.00275,1.10196,-0.0359,-0.0648,0.0332,0.0000,0.0000,0.0000,44.73,-5.10,-10.87,1,1,1,47,218,82869,82869,62644,20225,0,60.00,604,3050,0,0,0,0,0,0.00,0.00,0,0,0.0000,0.0000,0.0000,0.0000,0.0000
2026-04-20T20:04:04.063,0.806,1,-0.26,-0.40,0.03,0.03,1,0.0357,0.0647,0.3170,0.0000,0.0000,0.0000,-44.79,3.39,60.62,59.85,48,48,1.00000,1.00000,1.00000,1.00000,3,3,1,23.46040,0.00282,1.10311,-0.0357,-0.0647,0.0330,0.0000,0.0000,0.0000,44.79,-5.52,-10.89,1,1,1,48,219,82869,82869,62644,20225,0,60.00,604,3050,0,0,0,0,0,0.00,0.00,0,0,0.0000,0.0000,0.0000,0.0000,0.0000
2026-04-20T20:04:04.078,0.821,1,-0.26,-0.40,0.03,0.03,1,0.0358,0.0648,0.3168,0.0000,0.0000,0.0000,-44.75,-2.71,61.80,60.65,49,49,1.00000,1.00000,1.00000,1.00000,3,3,1,23.49447,0.00281,1.10082,-0.0358,-0.0648,0.0332,0.0000,0.0000,0.0000,44.75,-5.51,-10.90,1,1,1,49,218,82869,82869,62644,20225,0,60.00,604,3050,0,0,0,0,0,0.00,0.00,0,0,0.0000,0.0000,0.0000,0.0000,0.0000
2026-04-20T20:04:04.098,0.841,1,-0.26,-0.40,0.03,0.03,1,0.0359,0.0649,0.3168,0.0000,0.0000,0.0000,-44.68,-3.59,72.64,58.38,50,50,1.00000,1.00000,1.00000,1.00000,3,3,1,23.49737,0.00269,1.10247,-0.0359,-0.0649,0.0332,0.0000,0.0000,0.0000,44.68,-5.24,-10.90,1,1,1,50,218,82869,82869,62644,20225,0,60.00,604,3050,0,0,0,0,0,0.00,0.00,0,0,0.0000,0.0000,0.0000,0.0000,0.0000
2026-04-20T20:04:04.112,0.855,1,-0.26,-0.40,0.03,0.03,1,0.0357,0.0646,0.3170,0.0000,0.0000,0.0000,-44.75,5.01,48.71,61.50,51,51,1.00000,1.00000,1.00000,1.00000,3,3,1,23.39868,0.00268,1.10280,-0.0357,-0.0646,0.0330,0.0000,0.0000,0.0000,44.75,-5.55,-10.81,1,1,1,51,219,82869,82869,62644,20225,0,60.00,604,3050,0,0,0,0,0,0.00,0.00,0,0,0.0000,0.0000,0.0000,0.0000,0.0000
2026-04-20T20:04:04.130,0.873,1,-0.26,-0.40,0.03,0.03,1,0.0358,0.0649,0.3167,0.0000,0.0000,0.0000,-44.74,-0.58,66.83,59.57,52,52,1.00000,1.00000,1.00000,1.00000,3,3,1,23.48148,0.00269,1.10175,-0.0358,-0.0649,0.0333,0.0000,0.0000,0.0000,44.74,-5.29,-10.85,1,1,1,52,219,82869,82869,62644,20225,0,60.00,604,3050,0,0,0,0,0,0.00,0.00,0,0,0.0000,0.0000,0.0000,0.0000,0.0000
2026-04-20T20:04:04.148,0.891,1,-0.26,-0.40,0.03,0.03,1,0.0358,0.0650,0.3167,0.0000,0.0000,0.0000,-44.72,-1.19,56.41,60.78,53,53,1.00000,1.00000,1.00000,1.00000,3,3,1,23.50946,0.00285,1.10352,-0.0358,-0.0650,0.0333,0.0000,0.0000,0.0000,44.72,-5.28,-10.98,1,1,1,53,219,82869,82869,62644,20225,0,60.00,604,3050,0,0,0,0,0,0.00,0.00,0,0,0.0000,0.0000,0.0000,0.0000,0.0000
2026-04-20T20:04:04.163,0.906,1,-0.26,-0.40,0.03,0.03,1,0.0358,0.0649,0.3169,0.0000,0.0000,0.0000,-44.66,-3.55,59.88,59.11,54,54,1.00000,1.00000,1.00000,1.00000,3,3,1,23.50629,0.00277,1.10387,-0.0358,-0.0649,0.0331,0.0000,0.0000,0.0000,44.66,-5.17,-11.03,1,1,1,54,219,82869,82869,62644,20225,0,60.00,604,3050,0,0,0,0,0,0.00,0.00,0,0,0.0000,0.0000,0.0000,0.0000,0.0000
2026-04-20T20:04:04.180,0.923,1,-0.26,-0.40,0.03,0.03,1,0.0356,0.0647,0.3169,0.0000,0.0000,0.0000,-44.72,3.61,59.08,60.31,55,55,1.00000,1.00000,1.00000,1.00000,3,3,1,23.46743,0.00284,1.10120,-0.0356,-0.0647,0.0331,0.0000,0.0000,0.0000,44.72,-5.68,-10.91,1,1,1,55,219,82869,82869,62644,20225,0,60.00,604,3050,0,0,0,0,0,0.00,0.00,0,0,0.0000,0.0000,0.0000,0.0000,0.0000
2026-04-20T20:04:04.195,0.938,1,-0.26,-0.40,0.03,0.03,1,0.0359,0.0648,0.3169,0.0000,0.0000,0.0000,-44.70,-1.22,61.25,58.19,56,56,1.00000,1.00000,1.00000,1.00000,3,3,1,23.46882,0.00265,1.10276,-0.0359,-0.0648,0.0331,0.0000,0.0000,0.0000,44.70,-5.25,-10.87,1,1,1,56,218,82869,82869,62644,20225,0,60.00,604,3050,0,0,0,0,0,0.00,0.00,0,0,0.0000,0.0000,0.0000,0.0000,0.0000
2026-04-20T20:04:04.215,0.957,1,-0.26,-0.40,0.03,0.03,1,0.0358,0.0648,0.3168,0.0000,0.0000,0.0000,-44.74,2.23,59.71,61.93,57,57,1.00000,1.00000,1.00000,1.00000,3,3,1,23.47119,0.00274,1.10124,-0.0358,-0.0648,0.0332,0.0000,0.0000,0.0000,44.74,-5.28,-10.86,1,1,1,57,219,82869,82869,62644,20225,0,60.00,604,3050,0,0,0,0,0,0.00,0.00,0,0,0.0000,0.0000,0.0000,0.0000,0.0000
2026-04-20T20:04:04.229,0.971,1,-0.26,-0.37,0.14,0.00,1,0.0358,0.0647,0.3169,0.0000,0.0000,0.0000,-44.78,2.61,59.27,60.73,58,58,1.00000,1.00000,1.00000,1.00000,3,3,1,23.44573,0.00269,1.10317,-0.0358,-0.0647,0.0331,0.0000,0.0000,0.0000,44.78,-5.32,-10.89,1,1,1,58,219,82869,82869,62644,20225,0,60.00,604,3050,0,0,0,0,0,0.00,0.00,0,0,0.0000,0.0000,0.0000,0.0000,0.0000
2026-04-20T20:04:04.247,0.989,1,-0.26,-0.37,0.14,0.00,1,0.0358,0.0648,0.3168,0.0000,0.0000,0.0000,-44.76,-1.12,71.32,56.49,59,59,1.00000,1.00000,1.00000,1.00000,3,3,1,23.46931,0.00273,1.10155,-0.0358,-0.0648,0.0332,0.0000,0.0000,0.0000,44.76,-5.28,-10.90,1,1,1,59,218,82869,82869,62644,20225,0,60.00,604,3050,0,0,0,0,0,0.00,0.00,0,0,0.0000,0.0000,0.0000,0.0000,0.0000
2026-04-20T20:04:04.259,1.001,1,-0.26,-0.37,0.14,0.00,1,0.0358,0.0648,0.3168,0.0000,0.0000,0.0000,-44.73,-2.46,51.83,62.13,60,60,1.00000,1.00000,1.00000,1.00000,3,3,1,23.50224,0.00281,1.10078,-0.0358,-0.0648,0.0332,0.0000,0.0000,0.0000,44.73,-5.37,-10.92,1,1,1,60,219,82869,82869,62644,20225,0,60.00,604,3050,0,0,0,0,0,0.00,0.00,0,0,0.0000,0.0000,0.0000,0.0000,0.0000
2026-04-20T20:04:04.285,1.028,1,-0.26,-0.38,0.20,0.05,1,0.0358,0.0647,0.3169,0.0000,0.0000,0.0000,-44.74,0.41,92.62,61.33,61,61,1.00000,1.00000,1.00000,1.00000,3,3,1,23.48876,0.00275,1.10164,-0.0358,-0.0647,0.0331,0.0000,0.0000,0.0000,44.74,-5.33,-10.80,1,1,1,61,218,82869,82869,62644,20225,0,60.00,604,3050,0,0,0,0,0,0.00,0.00,0,0,0.0000,0.0000,0.0000,0.0000,0.0000
2026-04-20T20:04:04.300,1.042,1,-0.26,-0.38,0.20,0.05,1,0.0359,0.0649,0.3168,0.0000,0.0000,0.0000,-44.69,-3.22,36.30,58.01,62,62,1.00000,1.00000,1.00000,1.00000,3,3,1,23.46806,0.00261,1.10297,-0.0359,-0.0649,0.0332,0.0000,0.0000,0.0000,44.69,-5.02,-10.84,1,1,1,62,219,82869,82869,62644,20225,0,60.00,604,3050,0,0,0,0,0,0.00,0.00,0,0,0.0000,0.0000,0.0000,0.0000,0.0000
2026-04-20T20:04:04.314,1.056,1,-0.26,-0.38,0.20,0.05,1,0.0357,0.0647,0.3168,0.0000,0.0000,0.0000,-44.73,2.67,70.97,61.92,63,63,1.00000,1.00000,1.00000,1.00000,3,3,1,23.48439,0.00289,1.10060,-0.0357,-0.0647,0.0332,0.0000,0.0000,0.0000,44.73,-5.32,-10.83,1,1,1,63,219,82869,82869,62644,20225,0,60.00,604,3050,0,0,0,0,0,0.00,0.00,0,0,0.0000,0.0000,0.0000,0.0000,0.0000
2026-04-20T20:04:04.330,1.073,1,-0.26,-0.38,0.20,0.05,1,0.0359,0.0649,0.3169,0.0000,0.0000,0.0000,-44.68,-3.03,69.81,59.37,64,64,1.00000,1.00000,1.00000,1.00000,3,3,1,23.49845,0.00274,1.10361,-0.0359,-0.0649,0.0331,0.0000,0.0000,0.0000,44.68,-5.20,-10.92,1,1,1,64,218,82869,82869,62644,20225,0,60.00,604,3050,0,0,0,0,0,0.00,0.00,0,0,0.0000,0.0000,0.0000,0.0000,0.0000
2026-04-20T20:04:04.348,1.090,1,-0.25,-0.38,0.10,0.03,1,0.0357,0.0648,0.3168,0.0000,0.0000,0.0000,-44.75,4.28,60.37,60.55,65,65,1.00000,1.00000,1.00000,1.00000,3,3,1,23.49854,0.00285,1.10040,-0.0357,-0.0648,0.0332,0.0000,0.0000,0.0000,44.75,-5.42,-10.86,1,1,1,65,219,82869,82869,62644,20225,0,60.00,604,3050,0,0,0,0,0,0.00,0.00,0,0,0.0000,0.0000,0.0000,0.0000,0.0000
2026-04-20T20:04:04.363,1.106,1,-0.25,-0.38,0.10,0.03,1,0.0359,0.0649,0.3169,0.0000,0.0000,0.0000,-44.69,-3.82,60.96,60.02,66,66,1.00000,1.00000,1.00000,1.00000,3,3,1,23.44704,0.00263,1.10354,-0.0359,-0.0649,0.0331,0.0000,0.0000,0.0000,44.69,-5.12,-10.86,1,1,1,66,219,82869,82869,62644,20225,0,60.00,604,3050,0,0,0,0,0,0.00,0.00,0,0,0.0000,0.0000,0.0000,0.0000,0.0000
2026-04-20T20:04:04.381,1.124,1,-0.26,-0.38,0.14,-0.01,1,0.0358,0.0649,0.3168,0.0000,0.0000,0.0000,-44.70,0.56,64.76,56.71,67,67,1.00000,1.00000,1.00000,1.00000,3,3,1,23.49526,0.00285,1.10266,-0.0358,-0.0649,0.0332,0.0000,0.0000,0.0000,44.70,-5.31,-10.91,1,1,1,67,218,82869,82869,62644,20225,0,60.00,604,3050,0,0,0,0,0,0.00,0.00,0,0,0.0000,0.0000,0.0000,0.0000,0.0000
2026-04-20T20:04:04.394,1.137,1,-0.26,-0.38,0.14,-0.01,1,0.0358,0.0649,0.3168,0.0000,0.0000,0.0000,-44.68,-1.43,53.34,63.49,68,68,1.00000,1.00000,1.00000,1.00000,3,3,1,23.47761,0.00283,1.10289,-0.0358,-0.0649,0.0332,0.0000,0.0000,0.0000,44.68,-5.45,-10.98,1,1,1,68,219,82869,82869,62644,20225,0,60.00,604,3050,0,0,0,0,0,0.00,0.00,0,0,0.0000,0.0000,0.0000,0.0000,0.0000
2026-04-20T20:04:04.415,1.157,1,-0.26,-0.38,0.14,-0.01,1,0.0357,0.0648,0.3168,0.0000,0.0000,0.0000,-44.72,2.06,53.26,57.71,69,69,1.00000,1.00000,1.00000,1.00000,3,3,1,23.41989,0.00254,1.10402,-0.0357,-0.0648,0.0332,0.0000,0.0000,0.0000,44.72,-5.47,-10.91,1,1,1,69,219,82869,82869,62644,20225,0,60.00,604,3050,0,0,0,0,0,0.00,0.00,0,0,0.0000,0.0000,0.0000,0.0000,0.0000
2026-04-20T20:04:04.430,1.173,1,-0.26,-0.38,0.14,-0.01,1,0.0358,0.0649,0.3167,0.0000,0.0000,0.0000,-44.71,-0.60,71.37,64.32,70,70,1.00000,1.00000,1.00000,1.00000,3,3,1,23.43683,0.00256,1.10453,-0.0358,-0.0649,0.0333,0.0000,0.0000,0.0000,44.71,-5.37,-10.96,1,1,1,70,219,82869,82869,62644,20225,0,60.00,604,3050,0,0,0,0,0,0.00,0.00,0,0,0.0000,0.0000,0.0000,0.0000,0.0000
2026-04-20T20:04:04.447,1.190,1,-0.26,-0.38,0.14,-0.01,1,0.0357,0.0647,0.3168,0.0000,0.0000,0.0000,-44.80,5.23,65.78,59.31,71,71,1.00000,1.00000,1.00000,1.00000,3,3,1,23.46788,0.00284,1.09941,-0.0357,-0.0647,0.0332,0.0000,0.0000,0.0000,44.80,-5.61,-10.86,1,1,1,71,218,82869,82869,62644,20225,0,60.00,604,3050,0,0,0,0,0,0.00,0.00,0,0,0.0000,0.0000,0.0000,0.0000,0.0000
2026-04-20T20:04:04.465,1.208,1,-0.26,-0.38,0.14,-0.01,1,0.0358,0.0648,0.3168,0.0000,0.0000,0.0000,-44.76,-2.37,58.07,56.01,72,72,1.00000,1.00000,1.00000,1.00000,3,3,1,23.42848,0.00259,1.10448,-0.0358,-0.0648,0.0332,0.0000,0.0000,0.0000,44.76,-5.36,-10.88,1,1,1,72,219,82869,82869,62644,20225,0,60.00,604,3050,0,0,0,0,0,0.00,0.00,0,0,0.0000,0.0000,0.0000,0.0000,0.0000
2026-04-20T20:04:04.480,1.223,1,-0.26,-0.38,0.14,-0.01,1,0.0357,0.0648,0.3168,0.0000,0.0000,0.0000,-44.80,2.45,54.45,64.09,73,73,1.00000,1.00000,1.00000,1.00000,3,3,1,23.43490,0.00269,1.10362,-0.0357,-0.0648,0.0332,0.0000,0.0000,0.0000,44.80,-5.52,-10.85,1,1,1,73,218,82869,82869,62644,20225,0,60.00,604,3050,0,0,0,0,0,0.00,0.00,0,0,0.0000,0.0000,0.0000,0.0000,0.0000
2026-04-20T20:04:04.498,1.240,1,-0.27,-0.38,0.14,0.08,1,0.0359,0.0648,0.3168,0.0000,0.0000,0.0000,-44.76,-2.48,67.37,58.06,74,74,1.00000,1.00000,1.00000,1.00000,3,3,1,23.46791,0.00268,1.10243,-0.0359,-0.0648,0.0332,0.0000,0.0000,0.0000,44.76,-5.16,-10.81,1,1,1,74,219,82869,82869,62644,20225,0,60.00,604,3050,0,0,0,0,0,0.00,0.00,0,0,0.0000,0.0000,0.0000,0.0000,0.0000
2026-04-20T20:04:04.507,1.250,1,-0.27,-0.38,0.14,0.08,1,0.0358,0.0648,0.3170,0.0000,0.0000,0.0000,-44.74,-1.83,57.68,60.58,75,75,1.00000,1.00000,1.00000,1.00000,3,3,1,23.46754,0.00279,1.10463,-0.0358,-0.0648,0.0330,0.0000,0.0000,0.0000,44.74,-5.28,-10.92,1,1,1,75,219,82869,82869,62644,20225,0,60.00,604,3050,0,0,0,0,0,0.00,0.00,0,0,0.0000,0.0000,0.0000,0.0000,0.0000
2026-04-20T20:04:04.530,1.272,1,-0.27,-0.38,0.14,0.08,1,0.0358,0.0649,0.3169,0.0000,0.0000,0.0000,-44.72,-0.94,103.45,60.74,76,76,1.00000,1.00000,1.00000,1.00000,3,3,1,23.40798,0.00250,1.10427,-0.0358,-0.0649,0.0331,0.0000,0.0000,0.0000,44.72,-5.14,-10.98,1,1,1,76,219,82869,82869,62644,20225,0,60.00,604,3050,0,0,0,0,0,0.00,0.00,0,0,0.0000,0.0000,0.0000,0.0000,0.0000
2026-04-20T20:04:04.548,1.291,1,-0.27,-0.38,0.14,0.08,1,0.0356,0.0647,0.3169,0.0000,0.0000,0.0000,-44.75,1.68,43.12,57.97,77,77,1.00000,1.00000,1.00000,1.00000,3,3,1,23.42642,0.00263,1.10333,-0.0356,-0.0647,0.0331,0.0000,0.0000,0.0000,44.75,-5.49,-10.92,1,1,1,77,219,82869,82869,62644,20225,0,60.00,604,3050,0,0,0,0,0,0.00,0.00,0,0,0.0000,0.0000,0.0000,0.0000,0.0000
2026-04-20T20:04:04.561,1.304,1,-0.27,-0.38,0.14,0.08,1,0.0358,0.0649,0.3169,0.0000,0.0000,0.0000,-44.71,-2.76,57.60,67.51,78,78,1.00000,1.00000,1.00000,1.00000,3,3,1,23.46842,0.00268,1.10387,-0.0358,-0.0649,0.0331,0.0000,0.0000,0.0000,44.71,-5.31,-10.98,1,1,1,78,219,82869,82869,62644,20225,0,60.00,604,3050,0,0,0,0,0,0.00,0.00,0,0,0.0000,0.0000,0.0000,0.0000,0.0000
2026-04-20T20:04:04.580,1.323,1,-0.27,-0.38,0.14,0.08,1,0.0358,0.0648,0.3170,0.0000,0.0000,0.0000,-44.71,0.00,59.89,57.09,79,79,1.00000,1.00000,1.00000,1.00000,3,3,1,23.44123,0.00264,1.10740,-0.0358,-0.0648,0.0330,0.0000,0.0000,0.0000,44.71,-5.22,-11.01,1,1,1,79,216,82869,82869,62644,20225,0,60.00,604,3050,0,0,0,0,0,0.00,0.00,0,0,0.0000,0.0000,0.0000,0.0000,0.0000
2026-04-20T20:04:04.598,1.341,1,-0.28,-0.38,0.16,0.03,1,0.0357,0.0648,0.3169,0.0000,0.0000,0.0000,-44.72,0.54,60.67,58.71,80,80,1.00000,1.00000,1.00000,1.00000,3,3,1,23.40551,0.00256,1.10505,-0.0357,-0.0648,0.0331,0.0000,0.0000,0.0000,44.72,-5.30,-11.03,1,1,1,80,218,82869,82869,62644,20225,0,60.00,604,3050,0,0,0,0,0,0.00,0.00,0,0,0.0000,0.0000,0.0000,0.0000,0.0000
2026-04-20T20:04:04.610,1.352,1,-0.28,-0.38,0.16,0.03,1,0.0357,0.0647,0.3170,0.0000,0.0000,0.0000,-44.70,-1.63,54.25,59.86,81,81,1.00000,1.00000,1.00000,1.00000,3,3,1,23.40765,0.00254,1.10327,-0.0357,-0.0647,0.0330,0.0000,0.0000,0.0000,44.70,-5.42,-10.93,1,1,1,81,218,82869,82869,62644,20225,0,60.00,604,3050,0,0,0,0,0,0.00,0.00,0,0,0.0000,0.0000,0.0000,0.0000,0.0000
2026-04-20T20:04:04.630,1.372,1,-0.28,-0.38,0.16,0.03,1,0.0357,0.0647,0.3169,0.0000,0.0000,0.0000,-44.73,1.58,97.62,62.68,82,82,1.00000,1.00000,1.00000,1.00000,3,3,1,23.38776,0.00258,1.10518,-0.0357,-0.0647,0.0331,0.0000,0.0000,0.0000,44.73,-5.39,-10.97,1,1,1,82,219,82869,82869,62644,20225,0,60.00,604,3050,0,0,0,0,0,0.00,0.00,0,0,0.0000,0.0000,0.0000,0.0000,0.0000
2026-04-20T20:04:04.647,1.390,1,-0.25,-0.38,0.13,0.00,1,0.0356,0.0646,0.3170,0.0000,0.0000,0.0000,-44.77,2.15,49.17,57.62,83,83,1.00000,1.00000,1.00000,1.00000,3,3,1,23.38338,0.00253,1.10266,-0.0356,-0.0646,0.0330,0.0000,0.0000,0.0000,44.77,-5.66,-10.84,1,1,1,83,219,82869,82869,62644,20225,0,60.00,604,3050,0,0,0,0,0,0.00,0.00,0,0,0.0000,0.0000,0.0000,0.0000,0.0000
2026-04-20T20:04:04.658,1.400,1,-0.25,-0.38,0.13,0.00,1,0.0356,0.0645,0.3172,0.0000,0.0000,0.0000,-44.77,0.00,54.85,60.85,84,84,1.00000,1.00000,1.00000,1.00000,3,3,1,23.40705,0.00270,1.10574,-0.0356,-0.0645,0.0328,0.0000,0.0000,0.0000,44.77,-5.94,-10.88,1,1,1,84,219,82869,82869,62644,20225,0,60.00,604,3050,0,0,0,0,0,0.00,0.00,0,0,0.0000,0.0000,0.0000,0.0000,0.0000
2026-04-20T20:04:04.680,1.422,1,-0.25,-0.38,0.13,0.00,1,0.0357,0.0647,0.3170,0.0000,0.0000,0.0000,-44.73,-1.91,107.33,59.70,85,85,1.00000,1.00000,1.00000,1.00000,3,3,1,23.40925,0.00250,1.10477,-0.0357,-0.0647,0.0330,0.0000,0.0000,0.0000,44.73,-5.46,-10.91,1,1,1,85,219,82869,82869,62644,20225,0,60.00,604,3050,0,0,0,0,0,0.00,0.00,0,0,0.0000,0.0000,0.0000,0.0000,0.0000
2026-04-20T20:04:04.697,1.440,1,-0.25,-0.38,0.13,0.00,1,0.0356,0.0646,0.3170,0.0000,0.0000,0.0000,-44.74,0.57,42.78,56.84,86,86,1.00000,1.00000,1.00000,1.00000,3,3,1,23.41588,0.00266,1.10561,-0.0356,-0.0646,0.0330,0.0000,0.0000,0.0000,44.74,-5.66,-10.98,1,1,1,86,219,82869,82869,62644,20225,0,60.00,604,3050,0,0,0,0,0,0.00,0.00,0,0,0.0000,0.0000,0.0000,0.0000,0.0000
2026-04-20T20:04:04.711,1.453,1,-0.25,-0.38,0.13,0.00,1,0.0356,0.0648,0.3168,0.0000,0.0000,0.0000,-44.73,-0.68,55.06,64.40,87,87,1.00000,1.00000,1.00000,1.00000,3,3,1,23.43721,0.00254,1.10285,-0.0356,-0.0648,0.0332,0.0000,0.0000,0.0000,44.73,-5.56,-10.98,1,1,1,87,219,82869,82869,62644,20225,0,60.00,604,3050,0,0,0,0,0,0.00,0.00,0,0,0.0000,0.0000,0.0000,0.0000,0.0000
2026-04-20T20:04:04.732,1.475,1,-0.25,-0.38,0.13,0.00,1,0.0356,0.0647,0.3169,0.0000,0.0000,0.0000,-44.72,-0.49,66.01,59.38,88,88,1.00000,1.00000,1.00000,1.00000,3,3,1,23.41500,0.00255,1.10476,-0.0356,-0.0647,0.0331,0.0000,0.0000,0.0000,44.72,-5.47,-10.95,1,1,1,88,219,82869,82869,62644,20225,0,60.00,604,3050,0,0,0,0,0,0.00,0.00,0,0,0.0000,0.0000,0.0000,0.0000,0.0000
2026-04-20T20:04:04.740,1.483,1,-0.25,-0.38,0.13,0.00,1,0.0358,0.0647,0.3170,0.0000,0.0000,0.0000,-44.72,0.00,53.93,60.94,89,89,1.00000,1.00000,1.00000,1.00000,3,3,1,23.42274,0.00255,1.10373,-0.0358,-0.0647,0.0330,0.0000,0.0000,0.0000,44.72,-5.32,-10.87,1,1,1,89,219,82929,82929,62704,20225,0,60.00,664,3043,0,0,0,0,0,0.00,0.00,0,0,0.0000,0.0000,0.0000,0.0000,0.0000
2026-04-20T20:04:04.763,1.506,1,-0.25,-0.38,0.13,0.00,1,0.0358,0.0647,0.3169,0.0000,0.0000,0.0000,-44.77,2.20,140.29,59.52,90,90,1.00000,1.00000,1.00000,1.00000,3,3,1,23.40409,0.00250,1.10277,-0.0358,-0.0647,0.0331,0.0000,0.0000,0.0000,44.77,-5.31,-10.82,1,1,1,90,219,82929,82929,62704,20225,0,60.00,664,3043,0,0,0,0,0,0.00,0.00,0,0,0.0000,0.0000,0.0000,0.0000,0.0000
2026-04-20T20:04:04.781,1.524,1,-0.25,-0.38,0.13,0.00,1,0.0357,0.0647,0.3169,0.0000,0.0000,0.0000,-44.72,-2.99,43.11,57.12,91,91,1.00000,1.00000,1.00000,1.00000,3,3,1,23.40847,0.00252,1.10349,-0.0357,-0.0647,0.0331,0.0000,0.0000,0.0000,44.72,-5.33,-10.82,1,1,1,91,219,82929,82929,62704,20225,0,60.00,664,3043,0,0,0,0,0,0.00,0.00,0,0,0.0000,0.0000,0.0000,0.0000,0.0000
2026-04-20T20:04:04.792,1.534,1,-0.25,-0.38,0.13,0.00,1,0.0356,0.0645,0.3171,0.0000,0.0000,0.0000,-44.78,4.91,53.45,68.62,92,92,1.00000,1.00000,1.00000,1.00000,3,3,1,23.39201,0.00260,1.10522,-0.0356,-0.0645,0.0329,0.0000,0.0000,0.0000,44.78,-5.66,-10.84,1,1,1,92,219,82929,82929,62704,20225,0,60.00,664,3043,0,0,0,0,0,0.00,0.00,0,0,0.0000,0.0000,0.0000,0.0000,0.0000
2026-04-20T20:04:04.815,1.558,1,-0.25,-0.36,0.13,0.05,1,0.0357,0.0647,0.3170,0.0000,0.0000,0.0000,-44.73,-2.26,102.32,55.58,93,93,1.00000,1.00000,1.00000,1.00000,3,3,1,23.42533,0.00263,1.10465,-0.0357,-0.0647,0.0330,0.0000,0.0000,0.0000,44.73,-5.48,-10.96,1,1,1,93,219,82929,82929,62704,20225,0,60.00,664,3043,0,0,0,0,0,0.00,0.00,0,0,0.0000,0.0000,0.0000,0.0000,0.0000
2026-04-20T20:04:04.830,1.573,1,-0.25,-0.36,0.13,0.05,1,0.0357,0.0647,0.3170,0.0000,0.0000,0.0000,-44.73,0.00,40.98,59.36,94,94,1.00000,1.00000,1.00000,1.00000,3,3,1,23.40439,0.00253,1.10520,-0.0357,-0.0647,0.0330,0.0000,0.0000,0.0000,44.73,-5.43,-10.93,1,1,1,94,219,82929,82929,62704,20225,0,60.00,664,3043,0,0,0,0,0,0.00,0.00,0,0,0.0000,0.0000,0.0000,0.0000,0.0000
2026-04-20T20:04:04.848,1.590,1,-0.25,-0.37,0.11,0.02,1,0.0358,0.0647,0.3170,0.0000,0.0000,0.0000,-44.74,0.60,65.66,61.13,95,95,1.00000,1.00000,1.00000,1.00000,3,3,1,23.47228,0.00265,1.10072,-0.0358,-0.0647,0.0330,0.0000,0.0000,0.0000,44.74,-5.28,-10.90,1,1,1,95,218,82929,82929,62704,20225,0,60.00,664,3043,0,0,0,0,0,0.00,0.00,0,0,0.0000,0.0000,0.0000,0.0000,0.0000
2026-04-20T20:04:04.863,1.606,1,-0.25,-0.37,0.11,0.02,1,0.0358,0.0647,0.3171,0.0000,0.0000,0.0000,-44.79,3.15,61.55,59.55,96,96,1.00000,1.00000,1.00000,1.00000,3,3,1,23.47619,0.00273,1.10162,-0.0358,-0.0647,0.0329,0.0000,0.0000,0.0000,44.79,-5.28,-10.81,1,1,1,96,219,82929,82929,62704,20225,0,60.00,664,3043,0,0,0,0,0,0.00,0.00,0,0,0.0000,0.0000,0.0000,0.0000,0.0000
2026-04-20T20:04:04.880,1.623,1,-0.25,-0.37,0.11,0.02,1,0.0357,0.0647,0.3170,0.0000,0.0000,0.0000,-44.78,-0.58,61.12,60.80,97,97,1.00000,1.00000,1.00000,1.00000,3,3,1,23.39221,0.00259,1.10545,-0.0357,-0.0647,0.0330,0.0000,0.0000,0.0000,44.78,-5.44,-10.92,1,1,1,97,219,82929,82929,62704,20225,0,60.00,664,3043,0,0,0,0,0,0.00,0.00,0,0,0.0000,0.0000,0.0000,0.0000,0.0000
2026-04-20T20:04:04.894,1.636,1,-0.25,-0.37,0.11,0.02,1,0.0356,0.0647,0.3170,0.0000,0.0000,0.0000,-44.80,1.39,57.72,58.42,98,98,1.00000,1.00000,1.00000,1.00000,3,3,1,23.40418,0.00262,1.10523,-0.0356,-0.0647,0.0330,0.0000,0.0000,0.0000,44.80,-5.63,-10.96,1,1,1,98,218,82929,82929,62704,20225,0,60.00,664,3043,0,0,0,0,0,0.00,0.00,0,0,0.0000,0.0000,0.0000,0.0000,0.0000
2026-04-20T20:04:04.913,1.656,1,-0.25,-0.37,0.11,0.02,1,0.0356,0.0646,0.3169,0.0000,0.0000,0.0000,-44.79,-0.54,60.30,60.37,99,99,1.00000,1.00000,1.00000,1.00000,3,3,1,23.42341,0.00254,1.10395,-0.0356,-0.0646,0.0331,0.0000,0.0000,0.0000,44.79,-5.63,-10.97,1,1,1,99,219,82929,82929,62704,20225,0,60.00,664,3043,0,0,0,0,0,0.00,0.00,0,0,0.0000,0.0000,0.0000,0.0000,0.0000
2026-04-20T20:04:04.930,1.673,1,-0.25,-0.37,0.11,0.02,1,0.0357,0.0647,0.3170,0.0000,0.0000,0.0000,-44.79,0.00,61.76,60.65,100,100,1.00000,1.00000,1.00000,1.00000,3,3,1,23.44272,0.00257,1.10311,-0.0357,-0.0647,0.0330,0.0000,0.0000,0.0000,44.79,-5.41,-10.87,1,1,1,100,219,82929,82929,62704,20225,0,60.00,664,3043,0,0,0,0,0,0.00,0.00,0,0,0.0000,0.0000,0.0000,0.0000,0.0000
2026-04-20T20:04:04.945,1.688,1,-0.25,-0.37,0.11,0.02,1,0.0356,0.0645,0.3170,0.0000,0.0000,0.0000,-44.79,0.00,57.29,60.90,101,101,1.00000,1.00000,1.00000,1.00000,3,3,1,23.42254,0.00264,1.10266,-0.0356,-0.0645,0.0330,0.0000,0.0000,0.0000,44.79,-5.65,-10.86,1,1,1,101,219,82929,82929,62704,20225,0,60.00,664,3043,0,0,0,0,0,0.00,0.00,0,0,0.0000,0.0000,0.0000,0.0000,0.0000
2026-04-20T20:04:04.963,1.706,1,-0.25,-0.37,0.11,0.02,1,0.0357,0.0646,0.3170,0.0000,0.0000,0.0000,-44.76,-1.81,66.84,58.70,102,102,1.00000,1.00000,1.00000,1.00000,3,3,1,23.40181,0.00259,1.10524,-0.0357,-0.0646,0.0330,0.0000,0.0000,0.0000,44.76,-5.55,-10.93,1,1,1,102,219,82929,82929,62704,20225,0,60.00,664,3043,0,0,0,0,0,0.00,0.00,0,0,0.0000,0.0000,0.0000,0.0000,0.0000
2026-04-20T20:04:04.980,1.723,1,-0.25,-0.37,0.11,0.02,1,0.0356,0.0647,0.3169,0.0000,0.0000,0.0000,-44.74,-1.16,56.71,60.23,103,103,1.00000,1.00000,1.00000,1.00000,3,3,1,23.42416,0.00258,1.10381,-0.0356,-0.0647,0.0331,0.0000,0.0000,0.0000,44.74,-5.62,-10.96,1,1,1,103,219,82929,82929,62704,20225,0,60.00,664,3043,0,0,0,0,0,0.00,0.00,0,0,0.0000,0.0000,0.0000,0.0000,0.0000
2026-04-20T20:04:04.996,1.739,1,-0.25,-0.37,0.11,0.02,1,0.0356,0.0647,0.3169,0.0000,0.0000,0.0000,-44.77,1.89,57.99,61.21,104,104,1.00000,1.00000,1.00000,1.00000,3,3,1,23.42227,0.00260,1.10377,-0.0356,-0.0647,0.0331,0.0000,0.0000,0.0000,44.77,-5.65,-10.93,1,1,1,104,219,82929,82929,62704,20225,0,60.00,664,3043,0,0,0,0,0,0.00,0.00,0,0,0.0000,0.0000,0.0000,0.0000,0.0000
2026-04-20T20:04:05.013,1.755,1,-0.24,-0.37,0.07,0.05,1,0.0355,0.0646,0.3169,0.0000,0.0000,0.0000,-44.82,3.28,63.04,58.54,105,105,1.00000,1.00000,1.00000,1.00000,3,3,1,23.42340,0.00260,1.10450,-0.0355,-0.0646,0.0331,0.0000,0.0000,0.0000,44.82,-5.68,-10.91,1,1,1,105,219,82929,82929,62704,20225,0,60.00,664,3043,0,0,0,0,0,0.00,0.00,0,0,0.0000,0.0000,0.0000,0.0000,0.0000
2026-04-20T20:04:05.030,1.773,1,-0.24,-0.37,0.07,0.05,1,0.0356,0.0646,0.3169,0.0000,0.0000,0.0000,-44.78,-2.13,58.60,60.72,106,106,1.00000,1.00000,1.00000,1.00000,3,3,1,23.43253,0.00262,1.10360,-0.0356,-0.0646,0.0331,0.0000,0.0000,0.0000,44.78,-5.70,-10.94,1,1,1,106,218,82929,82929,62704,20225,0,60.00,664,3043,0,0,0,0,0,0.00,0.00,0,0,0.0000,0.0000,0.0000,0.0000,0.0000
2026-04-20T20:04:05.045,1.788,1,-0.24,-0.37,0.07,0.05,1,0.0356,0.0646,0.3169,0.0000,0.0000,0.0000,-44.80,1.23,62.83,60.85,107,107,1.00000,1.00000,1.00000,1.00000,3,3,1,23.40173,0.00257,1.10411,-0.0356,-0.0646,0.0331,0.0000,0.0000,0.0000,44.80,-5.71,-10.91,1,1,1,107,218,82929,82929,62704,20225,0,60.00,664,3043,0,0,0,0,0,0.00,0.00,0,0,0.0000,0.0000,0.0000,0.0000,0.0000
2026-04-20T20:04:05.063,1.806,1,-0.22,-0.37,0.13,0.09,1,0.0355,0.0645,0.3170,0.0000,0.0000,0.0000,-44.80,0.00,61.56,60.03,108,108,1.00000,1.00000,1.00000,1.00000,3,3,1,23.40032,0.00265,1.10375,-0.0355,-0.0645,0.0330,0.0000,0.0000,0.0000,44.80,-5.87,-10.84,1,1,1,108,218,82929,82929,62704,20225,0,60.00,664,3043,0,0,0,0,0,0.00,0.00,0,0,0.0000,0.0000,0.0000,0.0000,0.0000
2026-04-20T20:04:05.081,1.823,1,-0.22,-0.37,0.13,0.09,1,0.0355,0.0646,0.3170,0.0000,0.0000,0.0000,-44.77,-1.74,56.55,59.24,109,109,1.00000,1.00000,1.00000,1.00000,3,3,1,23.41588,0.00266,1.10561,-0.0355,-0.0646,0.0330,0.0000,0.0000,0.0000,44.77,-5.87,-10.94,1,1,1,109,219,82929,82929,62704,20225,0,60.00,664,3043,0,0,0,0,0,0.00,0.00,0,0,0.0000,0.0000,0.0000,0.0000,0.0000
2026-04-20T20:04:05.095,1.838,1,-0.22,-0.37,0.13,0.09,1,0.0356,0.0645,0.3171,0.0000,0.0000,0.0000,-44.87,6.21,56.04,60.84,110,110,1.00000,1.00000,1.00000,1.00000,3,3,1,23.41363,0.00259,1.10253,-0.0356,-0.0645,0.0329,0.0000,0.0000,0.0000,44.87,-5.81,-10.77,1,1,1,110,219,82929,82929,62704,20225,0,60.00,664,3043,0,0,0,0,0,0.00,0.00,0,0,0.0000,0.0000,0.0000,0.0000,0.0000
2026-04-20T20:04:05.113,1.856,1,-0.23,-0.37,0.14,0.03,1,0.0355,0.0644,0.3172,0.0000,0.0000,0.0000,-44.88,0.60,69.09,60.00,111,111,1.00000,1.00000,1.00000,1.00000,3,3,1,23.41151,0.00265,1.10401,-0.0355,-0.0644,0.0328,0.0000,0.0000,0.0000,44.88,-6.00,-10.74,1,1,1,111,216,82929,82929,62704,20225,0,60.00,664,3043,0,0,0,0,0,0.00,0.00,0,0,0.0000,0.0000,0.0000,0.0000,0.0000
2026-04-20T20:04:05.130,1.873,1,-0.23,-0.37,0.14,0.03,1,0.0356,0.0646,0.3171,0.0000,0.0000,0.0000,-44.83,-2.76,58.52,58.73,112,112,1.00000,1.00000,1.00000,1.00000,3,3,1,23.42459,0.00263,1.10431,-0.0356,-0.0646,0.0329,0.0000,0.0000,0.0000,44.83,-5.83,-10.80,1,1,1,112,218,82929,82929,62704,20225,0,60.00,664,3043,0,0,0,0,0,0.00,0.00,0,0,0.0000,0.0000,0.0000,0.0000,0.0000
2026-04-20T20:04:05.146,1.888,1,-0.23,-0.37,0.14,0.03,1,0.0357,0.0646,0.3170,0.0000,0.0000,0.0000,-44.79,-2.59,55.94,59.70,113,113,1.00000,1.00000,1.00000,1.00000,3,3,1,23.43015,0.00260,1.10326,-0.0357,-0.0646,0.0330,0.0000,0.0000,0.0000,44.79,-5.63,-10.84,1,1,1,113,219,82929,82929,62704,20225,0,60.00,664,3043,0,0,0,0,0,0.00,0.00,0,0,0.0000,0.0000,0.0000,0.0000,0.0000
2026-04-20T20:04:05.162,1.904,1,-0.23,-0.37,0.16,0.03,1,0.0356,0.0646,0.3170,0.0000,0.0000,0.0000,-44.80,0.62,65.78,61.66,114,114,1.00000,1.00000,1.00000,1.00000,3,3,1,23.41267,0.00257,1.10409,-0.0356,-0.0646,0.0330,0.0000,0.0000,0.0000,44.80,-5.52,-10.86,1,1,1,114,218,82929,82929,62704,20225,0,60.00,664,3043,0,0,0,0,0,0.00,0.00,0,0,0.0000,0.0000,0.0000,0.0000,0.0000
2026-04-20T20:04:05.181,1.923,1,-0.23,-0.37,0.16,0.03,1,0.0356,0.0647,0.3168,0.0000,0.0000,0.0000,-44.78,-1.05,66.40,56.50,115,115,1.00000,1.00000,1.00000,1.00000,3,3,1,23.43927,0.00262,1.10386,-0.0356,-0.0647,0.0332,0.0000,0.0000,0.0000,44.78,-5.58,-10.94,1,1,1,115,219,82929,82929,62704,20225,0,60.00,664,3043,0,0,0,0,0,0.00,0.00,0,0,0.0000,0.0000,0.0000,0.0000,0.0000
2026-04-20T20:04:05.188,1.931,1,-0.23,-0.37,0.16,0.03,1,0.0356,0.0646,0.3168,0.0000,0.0000,0.0000,-44.78,0.00,49.79,70.78,116,116,1.00000,1.00000,1.00000,1.00000,3,3,1,23.40381,0.00248,1.10273,-0.0356,-0.0646,0.0332,0.0000,0.0000,0.0000,44.78,-5.58,-10.87,1,1,1,116,219,82929,82929,62704,20225,0,60.00,664,3043,0,0,0,0,0,0.00,0.00,0,0,0.0000,0.0000,0.0000,0.0000,0.0000
2026-04-20T20:04:05.212,1.955,1,-0.23,-0.37,0.16,0.03,1,0.0356,0.0646,0.3168,0.0000,0.0000,0.0000,-44.79,0.42,151.20,55.73,117,117,1.00000,1.00000,1.00000,1.00000,3,3,1,23.39834,0.00251,1.10213,-0.0356,-0.0646,0.0332,0.0000,0.0000,0.0000,44.79,-5.61,-10.79,1,1,1,117,219,82929,82929,62704,20225,0,60.00,664,3043,0,0,0,0,0,0.00,0.00,0,0,0.0000,0.0000,0.0000,0.0000,0.0000
2026-04-20T20:04:05.230,1.973,1,-0.23,-0.37,0.16,0.03,1,0.0357,0.0646,0.3169,0.0000,0.0000,0.0000,-44.80,0.56,39.91,55.03,118,118,1.00000,1.00000,1.00000,1.00000,3,3,1,23.45079,0.00262,1.10262,-0.0357,-0.0646,0.0331,0.0000,0.0000,0.0000,44.80,-5.54,-10.82,1,1,1,118,218,82929,82929,62704,20225,0,60.00,664,3043,0,0,0,0,0,0.00,0.00,0,0,0.0000,0.0000,0.0000,0.0000,0.0000
2026-04-20T20:04:05.244,1.987,1,-0.23,-0.37,0.16,0.03,1,0.0356,0.0646,0.3169,0.0000,0.0000,0.0000,-44.81,0.72,55.90,65.12,119,119,1.00000,1.00000,1.00000,1.00000,3,3,1,23.39706,0.00254,1.10378,-0.0356,-0.0646,0.0331,0.0000,0.0000,0.0000,44.81,-5.65,-10.84,1,1,1,119,219,82929,82929,62704,20225,0,60.00,664,3043,0,0,0,0,0,0.00,0.00,0,0,0.0000,0.0000,0.0000,0.0000,0.0000
2026-04-20T20:04:05.263,2.005,1,-0.23,-0.37,0.16,0.03,1,0.0356,0.0647,0.3169,0.0000,0.0000,0.0000,-44.82,0.57,61.08,60.03,120,120,1.00000,1.00000,1.00000,1.00000,3,3,1,23.42122,0.00266,1.10617,-0.0356,-0.0647,0.0331,0.0000,0.0000,0.0000,44.82,-5.68,-10.83,1,1,1,120,219,82929,82929,62704,20225,0,60.00,664,3043,0,0,0,0,0,0.00,0.00,0,0,0.0000,0.0000,0.0000,0.0000,0.0000
2026-04-20T20:04:05.281,2.023,1,-0.23,-0.37,0.16,0.03,1,0.0355,0.0646,0.3170,0.0000,0.0000,0.0000,-44.83,0.62,62.10,60.04,121,121,1.00000,1.00000,1.00000,1.00000,3,3,1,23.42182,0.00269,1.10573,-0.0355,-0.0646,0.0330,0.0000,0.0000,0.0000,44.83,-5.84,-10.88,1,1,1,121,219,82929,82929,62704,20225,0,60.00,664,3043,0,0,0,0,0,0.00,0.00,0,0,0.0000,0.0000,0.0000,0.0000,0.0000
2026-04-20T20:04:05.294,2.037,1,-0.23,-0.37,0.16,0.03,1,0.0356,0.0646,0.3169,0.0000,0.0000,0.0000,-44.82,-0.62,58.85,58.81,122,122,1.00000,1.00000,1.00000,1.00000,3,3,1,23.39165,0.00254,1.10393,-0.0356,-0.0646,0.0331,0.0000,0.0000,0.0000,44.82,-5.83,-10.84,1,1,1,122,219,82929,82929,62704,20225,0,60.00,664,3043,0,0,0,0,0,0.00,0.00,0,0,0.0000,0.0000,0.0000,0.0000,0.0000
2026-04-20T20:04:05.313,2.055,1,-0.23,-0.37,0.16,0.03,1,0.0357,0.0647,0.3170,0.0000,0.0000,0.0000,-44.75,-3.96,75.65,60.89,123,123,1.00000,1.00000,1.00000,1.00000,3,3,1,23.41820,0.00265,1.10583,-0.0357,-0.0647,0.0330,0.0000,0.0000,0.0000,44.75,-5.52,-10.91,1,1,1,123,219,82929,82929,62704,20225,0,60.00,664,3043,0,0,0,0,0,0.00,0.00,0,0,0.0000,0.0000,0.0000,0.0000,0.0000
2026-04-20T20:04:05.330,2.073,1,-0.23,-0.37,0.16,0.03,1,0.0356,0.0645,0.3170,0.0000,0.0000,0.0000,-44.79,2.25,53.50,57.79,124,124,1.00000,1.00000,1.00000,1.00000,3,3,1,23.44584,0.00267,1.10464,-0.0356,-0.0645,0.0330,0.0000,0.0000,0.0000,44.79,-5.80,-10.88,1,1,1,124,218,82929,82929,62704,20225,0,60.00,664,3043,0,0,0,0,0,0.00,0.00,0,0,0.0000,0.0000,0.0000,0.0000,0.0000
2026-04-20T20:04:05.345,2.088,1,-0.23,-0.37,0.16,0.03,1,0.0356,0.0646,0.3168,0.0000,0.0000,0.0000,-44.80,0.64,53.20,62.44,125,125,1.00000,1.00000,1.00000,1.00000,3,3,1,23.42484,0.00256,1.10348,-0.0356,-0.0646,0.0332,0.0000,0.0000,0.0000,44.80,-5.75,-10.89,1,1,1,125,218,82929,82929,62704,20225,0,60.00,664,3043,0,0,0,0,0,0.00,0.00,0,0,0.0000,0.0000,0.0000,0.0000,0.0000
2026-04-20T20:04:05.363,2.105,1,-0.23,-0.37,0.16,0.03,1,0.0358,0.0647,0.3168,0.0000,0.0000,0.0000,-44.79,-0.56,62.71,60.38,126,126,1.00000,1.00000,1.00000,1.00000,3,3,1,23.43600,0.00260,1.10229,-0.0358,-0.0647,0.0332,0.0000,0.0000,0.0000,44.79,-5.39,-10.83,1,1,1,126,219,82929,82929,62704,20225,0,60.00,664,3043,0,0,0,0,0,0.00,0.00,0,0,0.0000,0.0000,0.0000,0.0000,0.0000
2026-04-20T20:04:05.380,2.122,1,-0.23,-0.36,0.20,0.02,1,0.0356,0.0646,0.3170,0.0000,0.0000,0.0000,-44.81,1.25,61.10,59.98,127,127,1.00000,1.00000,1.00000,1.00000,3,3,1,23.43334,0.00271,1.10404,-0.0356,-0.0646,0.0330,0.0000,0.0000,0.0000,44.81,-5.58,-10.83,1,1,1,127,219,82929,82929,62704,20225,0,60.00,664,3043,0,0,0,0,0,0.00,0.00,0,0,0.0000,0.0000,0.0000,0.0000,0.0000
2026-04-20T20:04:05.399,2.142,1,-0.23,-0.36,0.20,0.02,1,0.0356,0.0647,0.3168,0.0000,0.0000,0.0000,-44.76,-3.25,55.60,60.08,128,128,1.00000,1.00000,1.00000,1.00000,3,3,1,23.43929,0.00263,1.10479,-0.0356,-0.0647,0.0332,0.0000,0.0000,0.0000,44.76,-5.64,-10.92,1,1,1,128,219,82929,82929,62704,20225,0,60.00,664,3043,0,0,0,0,0,0.00,0.00,0,0,0.0000,0.0000,0.0000,0.0000,0.0000
2026-04-20T20:04:05.414,2.157,1,-0.23,-0.36,0.20,0.02,1,0.0356,0.0646,0.3168,0.0000,0.0000,0.0000,-44.77,0.50,53.13,56.93,129,129,1.00000,1.00000,1.00000,1.00000,3,3,1,23.41759,0.00263,1.10287,-0.0356,-0.0646,0.0332,0.0000,0.0000,0.0000,44.77,-5.74,-10.86,1,1,1,129,219,82929,82929,62704,20225,0,60.00,664,3043,0,0,0,0,0,0.00,0.00,0,0,0.0000,0.0000,0.0000,0.0000,0.0000
2026-04-20T20:04:05.428,2.171,1,-0.23,-0.36,0.20,0.02,1,0.0356,0.0646,0.3168,0.0000,0.0000,0.0000,-44.78,0.74,63.55,63.41,130,130,1.00000,1.00000,1.00000,1.00000,3,3,1,23.41667,0.00252,1.10079,-0.0356,-0.0646,0.0332,0.0000,0.0000,0.0000,44.78,-5.76,-10.77,1,1,1,130,219,82929,82929,62704,20225,0,60.00,664,3043,0,0,0,0,0,0.00,0.00,0,0,0.0000,0.0000,0.0000,0.0000,0.0000
2026-04-20T20:04:05.450,2.192,1,-0.23,-0.36,0.20,0.02,1,0.0357,0.0647,0.3169,0.0000,0.0000,0.0000,-44.73,-2.40,86.25,56.54,131,131,1.00000,1.00000,1.00000,1.00000,3,3,1,23.43275,0.00261,1.10488,-0.0357,-0.0647,0.0331,0.0000,0.0000,0.0000,44.73,-5.67,-10.85,1,1,1,131,219,82929,82929,62704,20225,0,60.00,664,3043,0,0,0,0,0,0.00,0.00,0,0,0.0000,0.0000,0.0000,0.0000,0.0000
2026-04-20T20:04:05.460,2.202,1,-0.23,-0.36,0.20,0.02,1,0.0356,0.0646,0.3168,0.0000,0.0000,0.0000,-44.77,3.64,43.69,60.68,132,132,1.00000,1.00000,1.00000,1.00000,3,3,1,23.43002,0.00263,1.10359,-0.0356,-0.0646,0.0332,0.0000,0.0000,0.0000,44.77,-5.73,-10.87,1,1,1,132,219,82929,82929,62704,20225,0,60.00,664,3043,0,0,0,0,0,0.00,0.00,0,0,0.0000,0.0000,0.0000,0.0000,0.0000
2026-04-20T20:04:05.481,2.224,1,-0.23,-0.36,0.08,-0.03,1,0.0356,0.0647,0.3168,0.0000,0.0000,0.0000,-44.75,-0.97,60.45,62.12,133,133,1.00000,1.00000,1.00000,1.00000,3,3,1,23.40295,0.00255,1.10468,-0.0356,-0.0647,0.0332,0.0000,0.0000,0.0000,44.75,-5.61,-10.85,1,1,1,133,219,82929,82929,62704,20225,0,60.00,664,3043,0,0,0,0,0,0.00,0.00,0,0,0.0000,0.0000,0.0000,0.0000,0.0000
2026-04-20T20:04:05.501,2.244,1,-0.23,-0.36,0.08,-0.03,1,0.0356,0.0646,0.3168,0.0000,0.0000,0.0000,-44.77,1.00,73.94,56.73,134,134,1.00000,1.00000,1.00000,1.00000,3,3,1,23.43403,0.00261,1.10304,-0.0356,-0.0646,0.0332,0.0000,0.0000,0.0000,44.77,-5.72,-10.85,1,1,1,134,219,82929,82929,62704,20225,0,60.00,664,3043,0,0,0,0,0,0.00,0.00,0,0,0.0000,0.0000,0.0000,0.0000,0.0000
2026-04-20T20:04:05.521,2.264,1,-0.23,-0.36,0.08,-0.03,1,0.0356,0.0646,0.3168,0.0000,0.0000,0.0000,-44.76,-0.50,46.38,52.58,135,135,1.00000,1.00000,1.00000,1.00000,3,3,1,23.42384,0.00264,1.10498,-0.0356,-0.0646,0.0332,0.0000,0.0000,0.0000,44.76,-5.80,-10.94,1,1,1,135,218,82929,82929,62704,20225,0,60.00,664,3043,0,0,0,0,0,0.00,0.00,0,0,0.0000,0.0000,0.0000,0.0000,0.0000
2026-04-20T20:04:05.532,2.275,1,-0.22,-0.35,0.08,0.02,1,0.0357,0.0647,0.3168,0.0000,0.0000,0.0000,-44.77,0.95,50.17,67.34,136,136,1.00000,1.00000,1.00000,1.00000,3,3,1,23.41888,0.00261,1.10386,-0.0357,-0.0647,0.0332,0.0000,0.0000,0.0000,44.77,-5.65,-10.88,1,1,1,136,219,82929,82929,62704,20225,0,60.00,664,3043,0,0,0,0,0,0.00,0.00,0,0,0.0000,0.0000,0.0000,0.0000,0.0000
2026-04-20T20:04:05.547,2.290,1,-0.22,-0.35,0.08,0.02,1,0.0356,0.0645,0.3169,0.0000,0.0000,0.0000,-44.80,1.80,95.37,66.99,137,137,1.00000,1.00000,1.00000,1.00000,3,3,1,23.40647,0.00262,1.10212,-0.0356,-0.0645,0.0331,0.0000,0.0000,0.0000,44.80,-5.86,-10.79,1,1,1,137,218,82929,82929,62704,20225,0,60.00,664,3043,0,0,0,0,0,0.00,0.00,0,0,0.0000,0.0000,0.0000,0.0000,0.0000
2026-04-20T20:04:05.565,2.308,1,-0.22,-0.35,0.08,0.02,1,0.0356,0.0645,0.3169,0.0000,0.0000,0.0000,-44.84,2.41,56.20,56.92,138,138,1.00000,1.00000,1.00000,1.00000,3,3,1,23.40962,0.00256,1.10193,-0.0356,-0.0645,0.0331,0.0000,0.0000,0.0000,44.84,-5.90,-10.74,1,1,1,138,218,82929,82929,62704,20225,0,60.00,664,3043,0,0,0,0,0,0.00,0.00,0,0,0.0000,0.0000,0.0000,0.0000,0.0000
2026-04-20T20:04:05.580,2.322,1,-0.22,-0.35,0.08,0.02,1,0.0356,0.0646,0.3168,0.0000,0.0000,0.0000,-44.80,-2.58,64.53,59.06,139,139,1.00000,1.00000,1.00000,1.00000,3,3,1,23.41831,0.00259,1.10353,-0.0356,-0.0646,0.0332,0.0000,0.0000,0.0000,44.80,-5.85,-10.81,1,1,1,139,218,82929,82929,62704,20225,0,60.00,664,3043,0,0,0,0,0,0.00,0.00,0,0,0.0000,0.0000,0.0000,0.0000,0.0000
2026-04-20T20:04:05.598,2.341,1,-0.22,-0.35,0.08,0.02,1,0.0356,0.0646,0.3169,0.0000,0.0000,0.0000,-44.77,-1.71,74.21,61.67,140,140,1.00000,1.00000,1.00000,1.00000,3,3,1,23.38167,0.00260,1.10547,-0.0356,-0.0646,0.0331,0.0000,0.0000,0.0000,44.77,-5.84,-10.89,1,1,1,140,219,82929,82929,62704,20225,0,60.00,664,3043,0,0,0,0,0,0.00,0.00,0,0,0.0000,0.0000,0.0000,0.0000,0.0000
2026-04-20T20:04:05.616,2.359,1,-0.22,-0.35,0.08,0.02,1,0.0357,0.0647,0.3167,0.0000,0.0000,0.0000,-44.75,-1.51,51.23,63.21,141,141,1.00000,1.00000,1.00000,1.00000,3,3,1,23.40247,0.00252,1.10441,-0.0357,-0.0647,0.0333,0.0000,0.0000,0.0000,44.75,-5.72,-10.94,1,1,1,141,219,82929,82929,62704,20225,0,60.00,664,3043,0,0,0,0,0,0.00,0.00,0,0,0.0000,0.0000,0.0000,0.0000,0.0000
2026-04-20T20:04:05.630,2.373,1,-0.22,-0.35,0.08,0.02,1,0.0357,0.0647,0.3168,0.0000,0.0000,0.0000,-44.76,0.56,53.78,57.62,142,142,1.00000,1.00000,1.00000,1.00000,3,3,1,23.45677,0.00267,1.10231,-0.0357,-0.0647,0.0332,0.0000,0.0000,0.0000,44.76,-5.63,-10.88,1,1,1,142,219,82929,82929,62704,20225,0,60.00,664,3043,0,0,0,0,0,0.00,0.00,0,0,0.0000,0.0000,0.0000,0.0000,0.0000
2026-04-20T20:04:05.643,2.386,1,-0.23,-0.36,0.10,-0.03,1,0.0358,0.0646,0.3168,0.0000,0.0000,0.0000,-44.78,1.31,75.79,62.88,143,143,1.00000,1.00000,1.00000,1.00000,3,3,1,23.36874,0.00242,1.10362,-0.0358,-0.0646,0.0332,0.0000,0.0000,0.0000,44.78,-5.43,-10.85,1,1,1,143,219,82929,82929,62704,20225,0,60.00,664,3043,0,0,0,0,0,0.00,0.00,0,0,0.0000,0.0000,0.0000,0.0000,0.0000
2026-04-20T20:04:05.665,2.408,1,-0.23,-0.36,0.10,-0.03,1,0.0357,0.0647,0.3167,0.0000,0.0000,0.0000,-44.74,-1.93,79.77,58.53,144,144,1.00000,1.00000,1.00000,1.00000,3,3,1,23.41568,0.00262,1.10467,-0.0357,-0.0647,0.0333,0.0000,0.0000,0.0000,44.74,-5.54,-10.95,1,1,1,144,219,82929,82929,62704,20225,0,60.00,664,3043,0,0,0,0,0,0.00,0.00,0,0,0.0000,0.0000,0.0000,0.0000,0.0000
2026-04-20T20:04:05.684,2.426,1,-0.23,-0.36,0.10,-0.03,1,0.0358,0.0647,0.3168,0.0000,0.0000,0.0000,-44.77,1.61,43.81,56.31,145,145,1.00000,1.00000,1.00000,1.00000,3,3,1,23.42044,0.00255,1.10347,-0.0358,-0.0647,0.0332,0.0000,0.0000,0.0000,44.77,-5.48,-10.91,1,1,1,145,219,82929,82929,62704,20225,0,60.00,664,3043,0,0,0,0,0,0.00,0.00,0,0,0.0000,0.0000,0.0000,0.0000,0.0000
2026-04-20T20:04:05.698,2.441,1,-0.23,-0.36,0.10,-0.03,1,0.0358,0.0647,0.3168,0.0000,0.0000,0.0000,-44.81,2.60,53.68,65.78,146,146,1.00000,1.00000,1.00000,1.00000,3,3,1,23.45386,0.00262,1.10217,-0.0358,-0.0647,0.0332,0.0000,0.0000,0.0000,44.81,-5.46,-10.79,1,1,1,146,219,82929,82929,62704,20225,0,60.00,664,3043,0,0,0,0,0,0.00,0.00,0,0,0.0000,0.0000,0.0000,0.0000,0.0000
2026-04-20T20:04:05.716,2.459,1,-0.23,-0.36,0.10,-0.03,1,0.0356,0.0646,0.3170,0.0000,0.0000,0.0000,-44.82,0.61,64.21,56.22,147,147,1.00000,1.00000,1.00000,1.00000,3,3,1,23.41733,0.00269,1.10476,-0.0356,-0.0646,0.0330,0.0000,0.0000,0.0000,44.82,-5.78,-10.84,1,1,1,147,219,82929,82929,62704,20225,0,60.00,664,3043,0,0,0,0,0,0.00,0.00,0,0,0.0000,0.0000,0.0000,0.0000,0.0000
2026-04-20T20:04:05.730,2.473,1,-0.23,-0.36,0.10,-0.03,1,0.0356,0.0646,0.3170,0.0000,0.0000,0.0000,-44.84,1.24,60.04,62.42,148,148,1.00000,1.00000,1.00000,1.00000,3,3,1,23.41677,0.00262,1.10469,-0.0356,-0.0646,0.0330,0.0000,0.0000,0.0000,44.84,-5.87,-10.86,1,1,1,148,219,82929,82929,62704,20225,0,60.00,664,3043,0,0,0,0,0,0.00,0.00,0,0,0.0000,0.0000,0.0000,0.0000,0.0000
2026-04-20T20:04:05.748,2.491,1,-0.23,-0.36,0.10,-0.03,1,0.0357,0.0646,0.3168,0.0000,0.0000,0.0000,-44.83,-0.60,61.72,61.78,149,149,1.00000,1.00000,1.00000,1.00000,3,3,1,23.41235,0.00256,1.10364,-0.0357,-0.0646,0.0332,0.0000,0.0000,0.0000,44.83,-5.81,-10.86,1,1,1,149,219,82989,82989,62764,20225,0,60.00,724,3047,0,0,0,0,0,0.00,0.00,0,0,0.0000,0.0000,0.0000,0.0000,0.0000
2026-04-20T20:04:05.761,2.504,1,-0.23,-0.36,0.10,-0.03,1,0.0358,0.0647,0.3169,0.0000,0.0000,0.0000,-44.84,0.70,67.73,58.78,150,150,1.00000,1.00000,1.00000,1.00000,3,3,1,23.38092,0.00246,1.10551,-0.0358,-0.0647,0.0331,0.0000,0.0000,0.0000,44.84,-5.54,-10.82,1,1,1,150,219,82989,82989,62764,20225,0,60.00,724,3047,0,0,0,0,0,0.00,0.00,0,0,0.0000,0.0000,0.0000,0.0000,0.0000
2026-04-20T20:04:05.783,2.526,1,-0.23,-0.36,0.10,-0.03,1,0.0356,0.0646,0.3169,0.0000,0.0000,0.0000,-44.83,-0.48,52.44,56.75,151,151,1.00000,1.00000,1.00000,1.00000,3,3,1,23.41250,0.00264,1.10330,-0.0356,-0.0646,0.0331,0.0000,0.0000,0.0000,44.83,-5.78,-10.78,1,1,1,151,219,82989,82989,62764,20225,0,60.00,724,3047,0,0,0,0,0,0.00,0.00,0,0,0.0000,0.0000,0.0000,0.0000,0.0000
2026-04-20T20:04:05.796,2.539,1,-0.23,-0.36,0.10,-0.03,1,0.0357,0.0647,0.3169,0.0000,0.0000,0.0000,-44.79,-2.84,61.62,65.38,152,152,1.00000,1.00000,1.00000,1.00000,3,3,1,23.40027,0.00256,1.10652,-0.0357,-0.0647,0.0331,0.0000,0.0000,0.0000,44.79,-5.62,-10.89,1,1,1,152,219,82989,82989,62764,20225,0,60.00,724,3047,0,0,0,0,0,0.00,0.00,0,0,0.0000,0.0000,0.0000,0.0000,0.0000
2026-04-20T20:04:05.814,2.557,1,-0.23,-0.36,0.10,-0.03,1,0.0358,0.0646,0.3170,0.0000,0.0000,0.0000,-44.83,2.41,57.89,57.78,153,153,1.00000,1.00000,1.00000,1.00000,3,3,1,23.36410,0.00249,1.10471,-0.0358,-0.0646,0.0330,0.0000,0.0000,0.0000,44.83,-5.50,-10.82,1,1,1,153,218,82989,82989,62764,20225,0,60.00,724,3047,0,0,0,0,0,0.00,0.00,0,0,0.0000,0.0000,0.0000,0.0000,0.0000
2026-04-20T20:04:05.829,2.572,1,-0.23,-0.36,0.10,-0.03,1,0.0357,0.0647,0.3169,0.0000,0.0000,0.0000,-44.80,-1.86,69.74,60.63,154,154,1.00000,1.00000,1.00000,1.00000,3,3,1,23.42535,0.00269,1.10614,-0.0357,-0.0647,0.0331,0.0000,0.0000,0.0000,44.80,-5.62,-10.90,1,1,1,154,217,82989,82989,62764,20225,0,60.00,724,3047,0,0,0,0,0,0.00,0.00,0,0,0.0000,0.0000,0.0000,0.0000,0.0000
2026-04-20T20:04:05.847,2.590,1,-0.23,-0.36,0.10,-0.03,1,0.0357,0.0646,0.3167,0.0000,0.0000,0.0000,-44.84,2.38,52.93,57.97,155,155,1.00000,1.00000,1.00000,1.00000,3,3,1,23.45692,0.00253,1.09953,-0.0357,-0.0646,0.0333,0.0000,0.0000,0.0000,44.84,-5.63,-10.75,1,1,1,155,219,82989,82989,62764,20225,0,60.00,724,3047,0,0,0,0,0,0.00,0.00,0,0,0.0000,0.0000,0.0000,0.0000,0.0000
2026-04-20T20:04:05.865,2.608,1,-0.24,-0.39,0.08,0.03,1,0.0357,0.0647,0.3169,0.0000,0.0000,0.0000,-44.82,-1.04,76.42,65.40,156,156,1.00000,1.00000,1.00000,1.00000,3,3,1,23.40194,0.00262,1.10570,-0.0357,-0.0647,0.0331,0.0000,0.0000,0.0000,44.82,-5.60,-10.85,1,1,1,156,218,82989,82989,62764,20225,0,60.00,724,3047,0,0,0,0,0,0.00,0.00,0,0,0.0000,0.0000,0.0000,0.0000,0.0000
2026-04-20T20:04:05.882,2.625,1,-0.24,-0.39,0.08,0.03,1,0.0357,0.0646,0.3168,0.0000,0.0000,0.0000,-44.81,-0.62,46.94,53.52,157,157,1.00000,1.00000,1.00000,1.00000,3,3,1,23.39078,0.00256,1.10450,-0.0357,-0.0646,0.0332,0.0000,0.0000,0.0000,44.81,-5.68,-10.85,1,1,1,157,219,82989,82989,62764,20225,0,60.00,724,3047,0,0,0,0,0,0.00,0.00,0,0,0.0000,0.0000,0.0000,0.0000,0.0000
2026-04-20T20:04:05.896,2.638,1,-0.24,-0.39,0.08,0.03,1,0.0356,0.0646,0.3169,0.0000,0.0000,0.0000,-44.80,-0.69,66.70,69.82,158,158,1.00000,1.00000,1.00000,1.00000,3,3,1,23.42586,0.00259,1.10562,-0.0356,-0.0646,0.0331,0.0000,0.0000,0.0000,44.80,-5.78,-10.91,1,1,1,158,218,82989,82989,62764,20225,0,60.00,724,3047,0,0,0,0,0,0.00,0.00,0,0,0.0000,0.0000,0.0000,0.0000,0.0000
2026-04-20T20:04:05.914,2.656,1,-0.24,-0.38,0.22,-0.01,1,0.0358,0.0646,0.3170,0.0000,0.0000,0.0000,-44.83,1.76,80.34,57.59,159,159,1.00000,1.00000,1.00000,1.00000,3,3,1,23.39051,0.00247,1.10320,-0.0358,-0.0646,0.0330,0.0000,0.0000,0.0000,44.83,-5.50,-10.86,1,1,1,159,218,82989,82989,62764,20225,0,60.00,724,3047,0,0,0,0,0,0.00,0.00,0,0,0.0000,0.0000,0.0000,0.0000,0.0000
