iso_time,elapsed_s,imu_ready,imu_pitch_deg,imu_roll_deg,imu_pitch_rate_deg_s,imu_roll_rate_deg_s,mocap_valid,mocap_x_error_m,mocap_y_error_m,mocap_z_error_m,mocap_vx_m_s,mocap_vy_m_s,mocap_vz_m_s,mocap_yaw_error_deg,mocap_yaw_rate_deg_s,backend_loop_hz,tracking_loop_hz,frames_processed,valid_pose_frames,pose_success_rate,full_marker_detection_rate,cam1_full_detection_rate,cam2_full_detection_rate,cam1_leds,cam2_leds,spatial_data_valid,mapping_error_px,model_fit_error_m,scale_factor,position_x_m,position_y_m,position_z_m,velocity_x_m_s,velocity_y_m_s,velocity_z_m_s,yaw_deg,pitch_deg,roll_deg,serial_connected,serial_send_enabled,serial_send_ok,serial_payload_seq,serial_payload_size_bytes,bridge_serial_frames_rx,bridge_espnow_tx_attempts,bridge_espnow_tx_ok,bridge_espnow_tx_fail,bridge_oversize_drops,bridge_tx_rate_hz,bridge_last_tx_seq,bridge_last_tx_latency_us,controller_rx_packets,controller_rx_missing_packets,controller_rx_duplicate_packets,controller_rx_out_of_order_packets,controller_last_rx_seq,controller_loop_hz,controller_control_hz,controller_command_age_ms,controller_apply_latency_us,controller_motor_imbalance,motor_1_output,motor_2_output,motor_3_output,motor_4_output
2026-04-20T18:05:27.570,0.018,1,0.47,-0.48,-0.04,-0.02,1,-0.0176,0.0706,0.3056,0.0000,0.0000,0.0000,95.76,2.21,62.41,58.94,1,1,1.00000,1.00000,1.00000,1.00000,3,3,1,24.38911,0.00256,1.06657,0.0176,-0.0706,0.0444,0.0000,0.0000,0.0000,-95.76,-4.50,12.79,1,1,1,1,217,0,0,0,0,0,20.00,0,3108,0,0,0,0,0,250.06,0.00,14,1722,0.0000,0.0000,0.0000,0.0000,0.0000
2026-04-20T18:05:27.585,0.033,1,0.47,-0.48,-0.04,-0.02,1,-0.0177,0.0703,0.3056,0.0000,0.0000,0.0000,95.65,7.46,57.14,61.78,2,2,1.00000,1.00000,1.00000,1.00000,3,3,1,24.34114,0.00256,1.06734,0.0177,-0.0703,0.0444,0.0000,0.0000,0.0000,-95.65,-4.11,12.85,1,1,1,2,217,0,0,0,0,0,20.00,0,3108,0,0,0,0,0,250.06,0.00,14,1722,0.0000,0.0000,0.0000,0.0000,0.0000
2026-04-20T18:05:27.602,0.049,1,0.47,-0.48,-0.04,-0.02,1,-0.0176,0.0706,0.3057,0.0000,0.0000,0.0000,95.74,-5.26,67.79,57.72,3,3,1.00000,1.00000,1.00000,1.00000,3,3,1,24.37070,0.00257,1.06863,0.0176,-0.0706,0.0443,0.0000,0.0000,0.0000,-95.74,-4.55,12.85,1,1,1,3,218,0,0,0,0,0,20.00,0,3108,0,0,0,0,0,250.06,0.00,14,1722,0.0000,0.0000,0.0000,0.0000,0.0000
2026-04-20T18:05:27.619,0.067,1,0.47,-0.48,-0.04,-0.02,1,-0.0175,0.0706,0.3057,0.0000,0.0000,0.0000,95.76,-1.13,58.49,61.29,4,4,1.00000,1.00000,1.00000,1.00000,3,3,1,24.34055,0.00248,1.07062,0.0175,-0.0706,0.0443,0.0000,0.0000,0.0000,-95.76,-4.60,12.74,1,1,1,4,217,0,0,0,0,0,20.00,0,3108,0,0,0,0,0,250.06,0.00,14,1722,0.0000,0.0000,0.0000,0.0000,0.0000
2026-04-20T18:05:27.635,0.083,1,0.47,-0.48,-0.04,-0.02,1,-0.0176,0.0705,0.3058,0.0000,0.0000,0.0000,95.76,0.00,56.33,59.98,5,5,1.00000,1.00000,1.00000,1.00000,3,3,1,24.37912,0.00253,1.06892,0.0176,-0.0705,0.0442,0.0000,0.0000,0.0000,-95.76,-4.60,12.74,1,1,1,5,216,0,0,0,0,0,20.00,0,3108,0,0,0,0,0,250.06,0.00,14,1722,0.0000,0.0000,0.0000,0.0000,0.0000
2026-04-20T18:05:27.653,0.101,1,0.47,-0.48,-0.04,-0.02,1,-0.0175,0.0707,0.3057,0.0000,0.0000,0.0000,95.85,-5.29,62.62,57.95,6,6,1.00000,1.00000,1.00000,1.00000,3,3,1,24.31465,0.00254,1.06969,0.0175,-0.0707,0.0443,0.0000,0.0000,0.0000,-95.85,-4.83,12.68,1,1,1,6,218,0,0,0,0,0,20.00,0,3108,0,0,0,0,0,250.06,0.00,14,1722,0.0000,0.0000,0.0000,0.0000,0.0000
2026-04-20T18:05:27.668,0.116,1,0.47,-0.48,-0.04,-0.02,1,-0.0176,0.0706,0.3059,0.0000,0.0000,0.0000,95.86,-0.65,55.18,62.25,7,7,1.00000,1.00000,1.00000,1.00000,3,3,1,24.39682,0.00248,1.07073,0.0176,-0.0706,0.0441,0.0000,0.0000,0.0000,-95.86,-4.79,12.70,1,1,1,7,217,0,0,0,0,0,20.00,0,3108,0,0,0,0,0,250.06,0.00,14,1722,0.0000,0.0000,0.0000,0.0000,0.0000
2026-04-20T18:05:27.685,0.133,1,0.47,-0.48,-0.04,-0.02,1,-0.0177,0.0706,0.3059,0.0000,0.0000,0.0000,95.88,-1.21,67.74,61.07,8,8,1.00000,1.00000,1.00000,1.00000,3,3,1,24.38006,0.00256,1.07105,0.0177,-0.0706,0.0441,0.0000,0.0000,0.0000,-95.88,-4.87,12.89,1,1,1,8,218,0,0,0,0,0,20.00,0,3108,0,0,0,0,0,250.06,0.00,14,1722,0.0000,0.0000,0.0000,0.0000,0.0000
2026-04-20T18:05:27.702,0.150,1,0.47,-0.48,-0.04,-0.02,1,-0.0176,0.0709,0.3057,0.0000,0.0000,0.0000,95.97,-5.20,55.83,57.02,9,9,1.00000,1.00000,1.00000,1.00000,3,3,1,24.38245,0.00243,1.06999,0.0176,-0.0709,0.0443,0.0000,0.0000,0.0000,-95.97,-5.06,12.86,1,1,1,9,218,0,0,0,0,0,20.00,0,3108,0,0,0,0,0,250.06,0.00,14,1722,0.0000,0.0000,0.0000,0.0000,0.0000
2026-04-20T18:05:27.718,0.166,1,0.47,-0.48,-0.04,-0.02,1,-0.0176,0.0705,0.3055,0.0000,0.0000,0.0000,95.87,6.26,63.00,62.68,10,10,1.00000,1.00000,1.00000,1.00000,3,3,1,24.37806,0.00250,1.06830,0.0176,-0.0705,0.0445,0.0000,0.0000,0.0000,-95.87,-4.59,12.83,1,1,1,10,217,0,0,0,0,0,20.00,0,3108,0,0,0,0,0,250.06,0.00,14,1722,0.0000,0.0000,0.0000,0.0000,0.0000
2026-04-20T18:05:27.734,0.181,1,0.47,-0.48,-0.04,-0.02,1,-0.0175,0.0705,0.3057,0.0000,0.0000,0.0000,95.81,3.60,62.62,61.86,11,11,1.00000,1.00000,1.00000,1.00000,3,3,1,24.35608,0.00262,1.06920,0.0175,-0.0705,0.0443,0.0000,0.0000,0.0000,-95.81,-4.61,12.71,1,1,1,11,217,0,0,0,0,0,20.00,0,3108,0,0,0,0,0,250.06,0.00,14,1722,0.0000,0.0000,0.0000,0.0000,0.0000
2026-04-20T18:05:27.752,0.200,1,0.47,-0.48,-0.04,-0.02,1,-0.0176,0.0707,0.3057,0.0000,0.0000,0.0000,95.87,-3.42,61.86,59.31,12,12,1.00000,1.00000,1.00000,1.00000,3,3,1,24.34470,0.00258,1.07105,0.0176,-0.0707,0.0443,0.0000,0.0000,0.0000,-95.87,-4.86,12.83,1,1,1,12,218,0,0,0,0,0,20.00,0,3108,0,0,0,0,0,250.06,0.00,14,1722,0.0000,0.0000,0.0000,0.0000,0.0000
2026-04-20T18:05:27.769,0.217,1,0.47,-0.48,-0.04,-0.02,1,-0.0177,0.0706,0.3057,0.0000,0.0000,0.0000,95.91,-2.48,55.43,57.75,13,13,1.00000,1.00000,1.00000,1.00000,3,3,1,24.42074,0.00255,1.07004,0.0177,-0.0706,0.0443,0.0000,0.0000,0.0000,-95.91,-4.76,13.00,1,1,1,13,215,0,0,0,0,0,20.00,0,3108,0,0,0,0,0,250.06,0.00,14,1722,0.0000,0.0000,0.0000,0.0000,0.0000
2026-04-20T18:05:27.785,0.233,1,0.47,-0.48,-0.11,-0.08,1,-0.0177,0.0707,0.3057,0.0000,0.0000,0.0000,95.96,-2.91,60.09,63.61,14,14,1.00000,1.00000,1.00000,1.00000,3,3,1,24.35892,0.00252,1.07139,0.0177,-0.0707,0.0443,0.0000,0.0000,0.0000,-95.96,-4.71,13.06,1,1,1,14,218,0,0,0,0,0,20.00,0,3108,0,0,0,0,0,250.06,0.00,14,1722,0.0000,0.0000,0.0000,0.0000,0.0000
2026-04-20T18:05:27.802,0.250,1,0.47,-0.48,-0.11,-0.08,1,-0.0177,0.0707,0.3058,0.0000,0.0000,0.0000,95.91,3.06,58.10,54.46,15,15,1.00000,1.00000,1.00000,1.00000,3,3,1,24.33582,0.00265,1.06951,0.0177,-0.0707,0.0442,0.0000,0.0000,0.0000,-95.91,-4.78,12.98,1,1,1,15,218,0,0,0,0,0,20.00,0,3108,0,0,0,0,0,250.06,0.00,14,1722,0.0000,0.0000,0.0000,0.0000,0.0000
2026-04-20T18:05:27.818,0.266,1,0.47,-0.48,-0.11,-0.08,1,-0.0176,0.0708,0.3057,0.0000,0.0000,0.0000,95.91,0.00,62.29,65.56,16,16,1.00000,1.00000,1.00000,1.00000,3,3,1,24.33374,0.00244,1.06954,0.0176,-0.0708,0.0443,0.0000,0.0000,0.0000,-95.91,-4.82,12.86,1,1,1,16,218,0,0,0,0,0,20.00,0,3108,0,0,0,0,0,250.06,0.00,14,1722,0.0000,0.0000,0.0000,0.0000,0.0000
2026-04-20T18:05:27.834,0.281,1,0.47,-0.49,-0.05,-0.01,1,-0.0176,0.0706,0.3057,0.0000,0.0000,0.0000,95.88,1.95,61.74,60.60,17,17,1.00000,1.00000,1.00000,1.00000,3,3,1,24.39035,0.00252,1.06964,0.0176,-0.0706,0.0443,0.0000,0.0000,0.0000,-95.88,-4.81,12.91,1,1,1,17,218,0,0,0,0,0,20.00,0,3108,0,0,0,0,0,250.06,0.00,14,1722,0.0000,0.0000,0.0000,0.0000,0.0000
2026-04-20T18:05:27.851,0.299,1,0.47,-0.49,-0.05,-0.01,1,-0.0176,0.0705,0.3058,0.0000,0.0000,0.0000,95.83,2.66,64.97,55.63,18,18,1.00000,1.00000,1.00000,1.00000,3,3,1,24.36781,0.00256,1.06798,0.0176,-0.0705,0.0442,0.0000,0.0000,0.0000,-95.83,-4.58,12.77,1,1,1,18,217,0,0,0,0,0,20.00,0,3108,0,0,0,0,0,250.06,0.00,14,1722,0.0000,0.0000,0.0000,0.0000,0.0000
2026-04-20T18:05:27.869,0.317,1,0.47,-0.49,-0.05,-0.01,1,-0.0175,0.0703,0.3058,0.0000,0.0000,0.0000,95.67,9.46,56.21,62.89,19,19,1.00000,1.00000,1.00000,1.00000,3,3,1,24.33511,0.00254,1.06849,0.0175,-0.0703,0.0442,0.0000,0.0000,0.0000,-95.67,-4.17,12.63,1,1,1,19,217,0,0,0,0,0,20.00,0,3108,0,0,0,0,0,250.06,0.00,14,1722,0.0000,0.0000,0.0000,0.0000,0.0000
2026-04-20T18:05:27.885,0.333,1,0.47,-0.49,-0.05,-0.01,1,-0.0176,0.0706,0.3057,0.0000,0.0000,0.0000,95.73,-3.98,55.83,60.90,20,20,1.00000,1.00000,1.00000,1.00000,3,3,1,24.36526,0.00259,1.07174,0.0176,-0.0706,0.0443,0.0000,0.0000,0.0000,-95.73,-4.45,12.72,1,1,1,20,218,0,0,0,0,0,20.00,0,3108,0,0,0,0,0,250.06,0.00,14,1722,0.0000,0.0000,0.0000,0.0000,0.0000
2026-04-20T18:05:27.901,0.349,1,0.47,-0.49,-0.05,-0.01,1,-0.0177,0.0707,0.3058,0.0000,0.0000,0.0000,95.84,-6.18,62.90,57.14,21,21,1.00000,1.00000,1.00000,1.00000,3,3,1,24.35060,0.00265,1.07145,0.0177,-0.0707,0.0442,0.0000,0.0000,0.0000,-95.84,-4.75,12.95,1,1,1,21,218,0,0,0,0,0,20.00,0,3108,0,0,0,0,0,250.06,0.00,14,1722,0.0000,0.0000,0.0000,0.0000,0.0000
2026-04-20T18:05:27.918,0.366,1,0.47,-0.49,-0.05,-0.01,1,-0.0177,0.0706,0.3058,0.0000,0.0000,0.0000,95.85,-0.64,62.63,61.43,22,22,1.00000,1.00000,1.00000,1.00000,3,3,1,24.31677,0.00257,1.07025,0.0177,-0.0706,0.0442,0.0000,0.0000,0.0000,-95.85,-4.82,12.96,1,1,1,22,218,0,0,0,0,0,20.00,0,3108,0,0,0,0,0,250.06,0.00,14,1722,0.0000,0.0000,0.0000,0.0000,0.0000
2026-04-20T18:05:27.933,0.381,1,0.47,-0.49,-0.05,-0.01,1,-0.0177,0.0706,0.3057,0.0000,0.0000,0.0000,95.88,-1.87,59.98,62.84,23,23,1.00000,1.00000,1.00000,1.00000,3,3,1,24.34609,0.00259,1.07022,0.0177,-0.0706,0.0443,0.0000,0.0000,0.0000,-95.88,-4.77,12.96,1,1,1,23,218,0,0,0,0,0,20.00,0,3108,0,0,0,0,0,250.06,0.00,14,1722,0.0000,0.0000,0.0000,0.0000,0.0000
2026-04-20T18:05:27.950,0.398,1,0.48,-0.50,-0.07,0.02,1,-0.0177,0.0706,0.3058,0.0000,0.0000,0.0000,95.88,0.00,64.47,57.62,24,24,1.00000,1.00000,1.00000,1.00000,3,3,1,24.38957,0.00257,1.07084,0.0177,-0.0706,0.0442,0.0000,0.0000,0.0000,-95.88,-4.82,13.01,1,1,1,24,215,0,0,0,0,0,20.00,0,3108,0,0,0,0,0,250.06,0.00,14,1722,0.0000,0.0000,0.0000,0.0000,0.0000
2026-04-20T18:05:27.971,0.419,1,0.48,-0.50,-0.07,0.02,1,-0.0176,0.0706,0.3057,0.0000,0.0000,0.0000,95.85,1.55,58.11,62.30,25,25,1.00000,1.00000,1.00000,1.00000,3,3,1,24.34130,0.00252,1.07010,0.0176,-0.0706,0.0443,0.0000,0.0000,0.0000,-95.85,-4.63,12.92,1,1,1,25,218,0,0,0,0,0,20.00,0,3108,0,0,0,0,0,250.06,0.00,14,1722,0.0000,0.0000,0.0000,0.0000,0.0000
2026-04-20T18:05:27.984,0.432,1,0.48,-0.50,-0.07,0.02,1,-0.0177,0.0706,0.3058,0.0000,0.0000,0.0000,95.86,-0.74,49.38,59.20,26,26,1.00000,1.00000,1.00000,1.00000,3,3,1,24.36260,0.00269,1.07015,0.0177,-0.0706,0.0442,0.0000,0.0000,0.0000,-95.86,-4.68,12.99,1,1,1,26,218,0,0,0,0,0,20.00,0,3108,0,0,0,0,0,250.06,0.00,14,1722,0.0000,0.0000,0.0000,0.0000,0.0000
2026-04-20T18:05:28.000,0.448,1,0.49,-0.50,-0.04,-0.04,1,-0.0177,0.0705,0.3058,0.0000,0.0000,0.0000,95.88,-1.21,73.76,60.57,27,27,1.00000,1.00000,1.00000,1.00000,3,3,1,24.40139,0.00257,1.06979,0.0177,-0.0705,0.0442,0.0000,0.0000,0.0000,-95.88,-4.51,12.96,1,1,1,27,217,0,0,0,0,0,20.00,0,3108,0,0,0,0,0,250.06,0.00,14,1722,0.0000,0.0000,0.0000,0.0000,0.0000
2026-04-20T18:05:28.018,0.466,1,0.49,-0.50,-0.04,-0.04,1,-0.0177,0.0703,0.3056,0.0000,0.0000,0.0000,95.70,10.59,63.48,58.04,28,28,1.00000,1.00000,1.00000,1.00000,3,3,1,24.36517,0.00254,1.06853,0.0177,-0.0703,0.0444,0.0000,0.0000,0.0000,-95.70,-3.97,12.89,1,1,1,28,216,0,0,0,0,0,20.00,0,3108,0,0,0,0,0,250.06,0.00,14,1722,0.0000,0.0000,0.0000,0.0000,0.0000
2026-04-20T18:05:28.035,0.482,1,0.49,-0.50,-0.04,-0.04,1,-0.0176,0.0706,0.3057,0.0000,0.0000,0.0000,95.73,-1.85,57.19,62.16,29,29,1.00000,1.00000,1.00000,1.00000,3,3,1,24.40055,0.00250,1.06944,0.0176,-0.0706,0.0443,0.0000,0.0000,0.0000,-95.73,-4.35,12.81,1,1,1,29,218,0,0,0,0,0,20.00,0,3108,0,0,0,0,0,250.06,0.00,14,1722,0.0000,0.0000,0.0000,0.0000,0.0000
2026-04-20T18:05:28.050,0.498,1,0.49,-0.50,-0.04,-0.04,1,-0.0177,0.0708,0.3056,0.0000,0.0000,0.0000,95.91,-11.31,59.02,59.60,30,30,1.00000,1.00000,1.00000,1.00000,3,3,1,24.36706,0.00242,1.07060,0.0177,-0.0708,0.0444,0.0000,0.0000,0.0000,-95.91,-4.70,12.92,1,1,1,30,217,0,0,0,0,0,20.00,0,3108,0,0,0,0,0,250.06,0.00,14,1722,0.0000,0.0000,0.0000,0.0000,0.0000
2026-04-20T18:05:28.068,0.516,1,0.49,-0.50,-0.04,-0.04,1,-0.0177,0.0705,0.3057,0.0000,0.0000,0.0000,95.84,3.59,64.29,59.44,31,31,1.00000,1.00000,1.00000,1.00000,3,3,1,24.37820,0.00255,1.06943,0.0177,-0.0705,0.0443,0.0000,0.0000,0.0000,-95.84,-4.52,12.95,1,1,1,31,217,0,0,0,0,0,20.00,0,3108,0,0,0,0,0,250.06,0.00,14,1722,0.0000,0.0000,0.0000,0.0000,0.0000
2026-04-20T18:05:28.085,0.533,1,0.49,-0.50,-0.04,-0.04,1,-0.0177,0.0704,0.3056,0.0000,0.0000,0.0000,95.69,9.44,51.65,57.34,32,32,1.00000,1.00000,1.00000,1.00000,3,3,1,24.33825,0.00257,1.06830,0.0177,-0.0704,0.0444,0.0000,0.0000,0.0000,-95.69,-4.17,12.80,1,1,1,32,216,0,0,0,0,0,20.00,0,3108,0,0,0,0,0,250.06,0.00,14,1722,0.0000,0.0000,0.0000,0.0000,0.0000
2026-04-20T18:05:28.100,0.548,1,0.49,-0.50,-0.04,-0.04,1,-0.0177,0.0707,0.3057,0.0000,0.0000,0.0000,95.80,-7.45,65.03,63.87,33,33,1.00000,1.00000,1.00000,1.00000,3,3,1,24.38878,0.00254,1.06980,0.0177,-0.0707,0.0443,0.0000,0.0000,0.0000,-95.80,-4.53,12.95,1,1,1,33,217,0,0,0,0,0,20.00,0,3108,0,0,0,0,0,250.06,0.00,14,1722,0.0000,0.0000,0.0000,0.0000,0.0000
2026-04-20T18:05:28.117,0.565,1,0.49,-0.50,-0.04,-0.04,1,-0.0177,0.0705,0.3056,0.0000,0.0000,0.0000,95.78,1.15,64.46,59.94,34,34,1.00000,1.00000,1.00000,1.00000,3,3,1,24.38762,0.00252,1.06818,0.0177,-0.0705,0.0444,0.0000,0.0000,0.0000,-95.78,-4.40,12.93,1,1,1,34,216,0,0,0,0,0,20.00,0,3108,0,0,0,0,0,250.06,0.00,14,1722,0.0000,0.0000,0.0000,0.0000,0.0000
2026-04-20T18:05:28.135,0.582,1,0.49,-0.50,-0.04,-0.04,1,-0.0175,0.0705,0.3056,0.0000,0.0000,0.0000,95.69,5.40,58.52,58.68,35,35,1.00000,1.00000,1.00000,1.00000,3,3,1,24.38604,0.00249,1.06693,0.0175,-0.0705,0.0444,0.0000,0.0000,0.0000,-95.69,-4.32,12.73,1,1,1,35,217,0,0,0,0,0,20.00,0,3108,0,0,0,0,0,250.06,0.00,14,1722,0.0000,0.0000,0.0000,0.0000,0.0000
2026-04-20T18:05:28.155,0.603,1,0.48,-0.51,-0.05,0.01,1,-0.0177,0.0706,0.3057,0.0000,0.0000,0.0000,95.79,-4.69,61.91,61.39,36,36,1.00000,1.00000,1.00000,1.00000,3,3,1,24.38058,0.00259,1.06978,0.0177,-0.0706,0.0443,0.0000,0.0000,0.0000,-95.79,-4.64,12.84,1,1,1,36,218,0,0,0,0,0,20.00,0,3108,0,0,0,0,0,250.06,0.00,14,1722,0.0000,0.0000,0.0000,0.0000,0.0000
2026-04-20T18:05:28.169,0.617,1,0.48,-0.51,-0.05,0.01,1,-0.0176,0.0704,0.3055,0.0000,0.0000,0.0000,95.72,5.14,45.82,58.67,37,37,1.00000,1.00000,1.00000,1.00000,3,3,1,24.40355,0.00249,1.06814,0.0176,-0.0704,0.0445,0.0000,0.0000,0.0000,-95.72,-4.35,12.78,1,1,1,37,217,0,0,0,0,0,20.00,0,3108,0,0,0,0,0,250.06,0.00,14,1722,0.0000,0.0000,0.0000,0.0000,0.0000
2026-04-20T18:05:28.183,0.631,1,0.48,-0.51,-0.05,0.01,1,-0.0176,0.0705,0.3055,0.0000,0.0000,0.0000,95.72,0.00,68.33,61.07,38,38,1.00000,1.00000,1.00000,1.00000,3,3,1,24.38851,0.00260,1.06973,0.0176,-0.0705,0.0445,0.0000,0.0000,0.0000,-95.72,-4.38,12.84,1,1,1,38,217,0,0,0,0,0,20.00,0,3108,0,0,0,0,0,250.06,0.00,14,1722,0.0000,0.0000,0.0000,0.0000,0.0000
2026-04-20T18:05:28.201,0.648,1,0.48,-0.51,-0.05,0.01,1,-0.0175,0.0706,0.3055,0.0000,0.0000,0.0000,95.80,-4.64,70.04,59.91,39,39,1.00000,1.00000,1.00000,1.00000,3,3,1,24.38994,0.00249,1.06994,0.0175,-0.0706,0.0445,0.0000,0.0000,0.0000,-95.80,-4.53,12.78,1,1,1,39,217,0,0,0,0,0,20.00,0,3108,0,0,0,0,0,250.06,0.00,14,1722,0.0000,0.0000,0.0000,0.0000,0.0000
2026-04-20T18:05:28.217,0.665,1,0.48,-0.51,-0.05,0.01,1,-0.0175,0.0705,0.3055,0.0000,0.0000,0.0000,95.77,1.80,65.71,59.94,40,40,1.00000,1.00000,1.00000,1.00000,3,3,1,24.28793,0.00243,1.06908,0.0175,-0.0705,0.0445,0.0000,0.0000,0.0000,-95.77,-4.32,12.75,1,1,1,40,217,0,0,0,0,0,20.00,0,3108,0,0,0,0,0,250.06,0.00,14,1722,0.0000,0.0000,0.0000,0.0000,0.0000
2026-04-20T18:05:28.234,0.682,1,0.48,-0.51,-0.05,0.01,1,-0.0176,0.0706,0.3057,0.0000,0.0000,0.0000,95.87,-6.05,55.27,60.48,41,41,1.00000,1.00000,1.00000,1.00000,3,3,1,24.38937,0.00260,1.07044,0.0176,-0.0706,0.0443,0.0000,0.0000,0.0000,-95.87,-4.59,12.91,1,1,1,41,218,0,0,0,0,0,20.00,0,3108,0,0,0,0,0,250.06,0.00,14,1722,0.0000,0.0000,0.0000,0.0000,0.0000
2026-04-20T18:05:28.250,0.698,1,0.48,-0.51,-0.05,0.01,1,-0.0176,0.0704,0.3056,0.0000,0.0000,0.0000,95.71,9.15,60.19,60.09,42,42,1.00000,1.00000,1.00000,1.00000,3,3,1,24.32790,0.00269,1.06890,0.0176,-0.0704,0.0444,0.0000,0.0000,0.0000,-95.71,-4.23,12.92,1,1,1,42,217,0,0,0,0,0,20.00,0,3108,0,0,0,0,0,250.06,0.00,14,1722,0.0000,0.0000,0.0000,0.0000,0.0000
2026-04-20T18:05:28.266,0.714,1,0.48,-0.51,-0.05,0.01,1,-0.0177,0.0705,0.3057,0.0000,0.0000,0.0000,95.76,-3.16,62.66,59.09,43,43,1.00000,1.00000,1.00000,1.00000,3,3,1,24.36353,0.00265,1.07022,0.0177,-0.0705,0.0443,0.0000,0.0000,0.0000,-95.76,-4.44,13.04,1,1,1,43,217,0,0,0,0,0,20.00,0,3108,0,0,0,0,0,250.06,0.00,14,1722,0.0000,0.0000,0.0000,0.0000,0.0000
2026-04-20T18:05:28.285,0.732,1,0.48,-0.51,-0.05,0.01,1,-0.0176,0.0705,0.3057,0.0000,0.0000,0.0000,95.75,0.57,62.32,58.92,44,44,1.00000,1.00000,1.00000,1.00000,3,3,1,24.37406,0.00253,1.06956,0.0176,-0.0705,0.0443,0.0000,0.0000,0.0000,-95.75,-4.40,12.88,1,1,1,44,216,0,0,0,0,0,20.00,0,3108,0,0,0,0,0,250.06,0.00,14,1722,0.0000,0.0000,0.0000,0.0000,0.0000
2026-04-20T18:05:28.300,0.748,1,0.48,-0.51,-0.05,0.01,1,-0.0176,0.0705,0.3056,0.0000,0.0000,0.0000,95.72,1.77,54.92,62.20,45,45,1.00000,1.00000,1.00000,1.00000,3,3,1,24.40046,0.00251,1.06928,0.0176,-0.0705,0.0444,0.0000,0.0000,0.0000,-95.72,-4.36,12.80,1,1,1,45,216,0,0,0,0,0,20.00,0,3108,0,0,0,0,0,250.06,0.00,14,1722,0.0000,0.0000,0.0000,0.0000,0.0000
2026-04-20T18:05:28.316,0.764,1,0.48,-0.51,-0.05,0.01,1,-0.0176,0.0706,0.3058,0.0000,0.0000,0.0000,95.82,-6.32,61.12,61.93,46,46,1.00000,1.00000,1.00000,1.00000,3,3,1,24.34999,0.00254,1.07175,0.0176,-0.0706,0.0442,0.0000,0.0000,0.0000,-95.82,-4.56,12.87,1,1,1,46,218,0,0,0,0,0,20.00,0,3108,0,0,0,0,0,250.06,0.00,14,1722,0.0000,0.0000,0.0000,0.0000,0.0000
2026-04-20T18:05:28.335,0.783,1,0.48,-0.51,-0.05,0.01,1,-0.0175,0.0706,0.3057,0.0000,0.0000,0.0000,95.77,2.77,65.04,56.79,47,47,1.00000,1.00000,1.00000,1.00000,3,3,1,24.37557,0.00253,1.06691,0.0175,-0.0706,0.0443,0.0000,0.0000,0.0000,-95.77,-4.64,12.69,1,1,1,47,218,0,0,0,0,0,20.00,0,3108,0,0,0,0,0,250.06,0.00,14,1722,0.0000,0.0000,0.0000,0.0000,0.0000
2026-04-20T18:05:28.350,0.798,1,0.48,-0.51,-0.05,0.01,1,-0.0175,0.0705,0.3057,0.0000,0.0000,0.0000,95.75,1.37,52.41,61.54,48,48,1.00000,1.00000,1.00000,1.00000,3,3,1,24.38337,0.00253,1.06949,0.0175,-0.0705,0.0443,0.0000,0.0000,0.0000,-95.75,-4.48,12.68,1,1,1,48,217,0,0,0,0,0,20.00,0,3108,0,0,0,0,0,250.06,0.00,14,1722,0.0000,0.0000,0.0000,0.0000,0.0000
2026-04-20T18:05:28.367,0.815,1,0.48,-0.51,0.01,-0.05,1,-0.0175,0.0705,0.3058,0.0000,0.0000,0.0000,95.73,1.20,68.64,60.44,49,49,1.00000,1.00000,1.00000,1.00000,3,3,1,24.37390,0.00256,1.06995,0.0175,-0.0705,0.0442,0.0000,0.0000,0.0000,-95.73,-4.50,12.69,1,1,1,49,216,0,0,0,0,0,20.00,0,3108,0,0,0,0,0,250.06,0.00,14,1722,0.0000,0.0000,0.0000,0.0000,0.0000
2026-04-20T18:05:28.388,0.836,1,0.48,-0.51,0.01,-0.05,1,-0.0175,0.0707,0.3056,0.0000,0.0000,0.0000,95.78,-2.33,62.26,54.01,50,50,1.00000,1.00000,1.00000,1.00000,3,3,1,24.39521,0.00262,1.06877,0.0175,-0.0707,0.0444,0.0000,0.0000,0.0000,-95.78,-4.73,12.69,1,1,1,50,218,0,0,0,0,0,20.00,0,3108,0,0,0,0,0,250.06,0.00,14,1722,0.0000,0.0000,0.0000,0.0000,0.0000
2026-04-20T18:05:28.401,0.849,1,0.48,-0.51,0.01,-0.05,1,-0.0176,0.0705,0.3058,0.0000,0.0000,0.0000,95.79,-0.74,45.40,66.09,51,51,1.00000,1.00000,1.00000,1.00000,3,3,1,24.37283,0.00258,1.06833,0.0176,-0.0705,0.0442,0.0000,0.0000,0.0000,-95.79,-4.63,12.77,1,1,1,51,217,0,0,0,0,0,20.00,0,3108,0,0,0,0,0,250.06,0.00,14,1722,0.0000,0.0000,0.0000,0.0000,0.0000
2026-04-20T18:05:28.417,0.865,1,0.48,-0.51,0.01,-0.05,1,-0.0176,0.0707,0.3059,0.0000,0.0000,0.0000,95.86,-4.49,77.27,60.90,52,52,1.00000,1.00000,1.00000,1.00000,3,3,1,24.33163,0.00266,1.07073,0.0176,-0.0707,0.0441,0.0000,0.0000,0.0000,-95.86,-4.87,12.87,1,1,1,52,218,0,0,0,0,0,20.00,0,3108,0,0,0,0,0,250.06,0.00,14,1722,0.0000,0.0000,0.0000,0.0000,0.0000
2026-04-20T18:05:28.435,0.883,1,0.48,-0.51,0.01,-0.05,1,-0.0175,0.0707,0.3058,0.0000,0.0000,0.0000,95.83,1.61,63.15,58.59,53,53,1.00000,1.00000,1.00000,1.00000,3,3,1,24.36473,0.00257,1.07025,0.0175,-0.0707,0.0442,0.0000,0.0000,0.0000,-95.83,-4.97,12.75,1,1,1,53,218,0,0,0,0,0,20.00,0,3108,0,0,0,0,0,250.06,0.00,14,1722,0.0000,0.0000,0.0000,0.0000,0.0000
2026-04-20T18:05:28.450,0.897,1,0.48,-0.51,0.01,-0.05,1,-0.0176,0.0706,0.3058,0.0000,0.0000,0.0000,95.84,-0.67,53.72,61.51,54,54,1.00000,1.00000,1.00000,1.00000,3,3,1,24.34500,0.00261,1.06825,0.0176,-0.0706,0.0442,0.0000,0.0000,0.0000,-95.84,-4.86,12.77,1,1,1,54,218,0,0,0,0,0,20.00,0,3108,0,0,0,0,0,250.06,0.00,14,1722,0.0000,0.0000,0.0000,0.0000,0.0000
2026-04-20T18:05:28.468,0.915,1,0.48,-0.51,0.01,-0.05,1,-0.0176,0.0707,0.3057,0.0000,0.0000,0.0000,95.89,-2.96,69.92,58.30,55,55,1.00000,1.00000,1.00000,1.00000,3,3,1,24.37959,0.00262,1.06946,0.0176,-0.0707,0.0443,0.0000,0.0000,0.0000,-95.89,-4.84,12.74,1,1,1,55,218,0,0,0,0,0,20.00,0,3108,0,0,0,0,0,250.06,0.00,14,1722,0.0000,0.0000,0.0000,0.0000,0.0000
2026-04-20T18:05:28.485,0.933,1,0.48,-0.51,0.01,-0.05,1,-0.0175,0.0705,0.3058,0.0000,0.0000,0.0000,95.78,6.04,58.75,60.49,56,56,1.00000,1.00000,1.00000,1.00000,3,3,1,24.36201,0.00254,1.06791,0.0175,-0.0705,0.0442,0.0000,0.0000,0.0000,-95.78,-4.54,12.70,1,1,1,56,216,0,0,0,0,0,20.00,0,3108,0,0,0,0,0,250.06,0.00,14,1722,0.0000,0.0000,0.0000,0.0000,0.0000
2026-04-20T18:05:28.500,0.948,1,0.48,-0.51,0.01,-0.05,1,-0.0178,0.0704,0.3059,0.0000,0.0000,0.0000,95.76,1.33,53.97,61.40,57,57,1.00000,1.00000,1.00000,1.00000,3,3,1,24.35395,0.00272,1.06954,0.0178,-0.0704,0.0441,0.0000,0.0000,0.0000,-95.76,-4.32,12.93,1,1,1,57,217,0,0,0,0,0,20.00,0,3108,0,0,0,0,0,250.06,0.00,14,1722,0.0000,0.0000,0.0000,0.0000,0.0000
2026-04-20T18:05:28.518,0.966,1,0.47,-0.49,-0.05,0.07,1,-0.0177,0.0707,0.3059,0.0000,0.0000,0.0000,95.93,-9.78,67.39,57.02,58,58,1.00000,1.00000,1.00000,1.00000,3,3,1,24.37453,0.00262,1.07270,0.0177,-0.0707,0.0441,0.0000,0.0000,0.0000,-95.93,-4.79,12.95,1,1,1,58,218,0,0,0,0,0,20.00,0,3108,0,0,0,0,0,250.06,0.00,14,1722,0.0000,0.0000,0.0000,0.0000,0.0000
2026-04-20T18:05:28.534,0.981,1,0.47,-0.49,-0.05,0.07,1,-0.0177,0.0706,0.3060,0.0000,0.0000,0.0000,95.93,0.00,55.22,63.92,59,59,1.00000,1.00000,1.00000,1.00000,3,3,1,24.37655,0.00255,1.07124,0.0177,-0.0706,0.0440,0.0000,0.0000,0.0000,-95.93,-4.94,12.95,1,1,1,59,218,0,0,0,0,0,20.00,0,3108,0,0,0,0,0,250.06,0.00,14,1722,0.0000,0.0000,0.0000,0.0000,0.0000
2026-04-20T18:05:28.552,1.000,1,0.47,-0.49,-0.05,0.07,1,-0.0177,0.0707,0.3058,0.0000,0.0000,0.0000,95.92,0.54,61.07,58.56,60,60,1.00000,1.00000,1.00000,1.00000,3,3,1,24.39748,0.00265,1.07085,0.0177,-0.0707,0.0442,0.0000,0.0000,0.0000,-95.92,-4.98,12.97,1,1,1,60,218,0,0,0,0,0,20.00,0,3108,0,0,0,0,0,250.06,0.00,14,1722,0.0000,0.0000,0.0000,0.0000,0.0000
2026-04-20T18:05:28.569,1.017,1,0.47,-0.49,-0.05,0.07,1,-0.0176,0.0706,0.3058,0.0000,0.0000,0.0000,95.87,2.89,56.03,62.92,61,61,1.00000,1.00000,1.00000,1.00000,3,3,1,24.41891,0.00256,1.06968,0.0176,-0.0706,0.0442,0.0000,0.0000,0.0000,-95.87,-4.79,12.91,1,1,1,61,218,0,0,0,0,0,20.00,0,3108,0,0,0,0,0,250.06,0.00,14,1722,0.0000,0.0000,0.0000,0.0000,0.0000
2026-04-20T18:05:28.587,1.035,1,0.47,-0.49,-0.05,0.07,1,-0.0177,0.0705,0.3058,0.0000,0.0000,0.0000,95.83,2.26,54.01,57.24,62,62,1.00000,1.00000,1.00000,1.00000,3,3,1,24.39440,0.00256,1.06951,0.0177,-0.0705,0.0442,0.0000,0.0000,0.0000,-95.83,-4.56,12.97,1,1,1,62,217,0,0,0,0,0,20.00,0,3108,0,0,0,0,0,250.06,0.00,14,1722,0.0000,0.0000,0.0000,0.0000,0.0000
2026-04-20T18:05:28.601,1.049,1,0.47,-0.49,-0.05,0.07,1,-0.0176,0.0705,0.3057,0.0000,0.0000,0.0000,95.80,2.19,60.49,60.81,63,63,1.00000,1.00000,1.00000,1.00000,3,3,1,24.39286,0.00255,1.06974,0.0176,-0.0705,0.0443,0.0000,0.0000,0.0000,-95.80,-4.38,12.87,1,1,1,63,216,0,0,0,0,0,20.00,0,3108,0,0,0,0,0,250.06,0.00,14,1722,0.0000,0.0000,0.0000,0.0000,0.0000
2026-04-20T18:05:28.617,1.065,1,0.49,-0.48,-0.13,-0.05,1,-0.0177,0.0703,0.3057,0.0000,0.0000,0.0000,95.70,6.08,68.31,59.04,64,64,1.00000,1.00000,1.00000,1.00000,3,3,1,24.37322,0.00266,1.07008,0.0177,-0.0703,0.0443,0.0000,0.0000,0.0000,-95.70,-4.07,12.87,1,1,1,64,216,0,0,0,0,0,20.00,0,3108,0,0,0,0,0,250.06,0.00,14,1722,0.0000,0.0000,0.0000,0.0000,0.0000
2026-04-20T18:05:28.634,1.081,1,0.49,-0.48,-0.13,-0.05,1,-0.0176,0.0707,0.3057,0.0000,0.0000,0.0000,95.80,-6.16,64.92,61.56,65,65,1.00000,1.00000,1.00000,1.00000,3,3,1,24.35429,0.00258,1.07242,0.0176,-0.0707,0.0443,0.0000,0.0000,0.0000,-95.80,-4.53,12.91,1,1,1,65,217,0,0,0,0,0,20.00,0,3108,0,0,0,0,0,250.06,0.00,14,1722,0.0000,0.0000,0.0000,0.0000,0.0000
2026-04-20T18:05:28.652,1.099,1,0.49,-0.48,-0.13,-0.05,1,-0.0176,0.0704,0.3056,0.0000,0.0000,0.0000,95.73,4.00,60.42,55.63,66,66,1.00000,1.00000,1.00000,1.00000,3,3,1,24.39607,0.00250,1.06804,0.0176,-0.0704,0.0444,0.0000,0.0000,0.0000,-95.73,-4.31,12.80,1,1,1,66,216,0,0,0,0,0,20.00,0,3108,0,0,0,0,0,250.06,0.00,14,1722,0.0000,0.0000,0.0000,0.0000,0.0000
2026-04-20T18:05:28.669,1.117,1,0.49,-0.48,-0.13,-0.05,1,-0.0176,0.0705,0.3058,0.0000,0.0000,0.0000,95.73,0.00,60.70,63.74,67,67,1.00000,1.00000,1.00000,1.00000,3,3,1,24.33478,0.00261,1.06833,0.0176,-0.0705,0.0442,0.0000,0.0000,0.0000,-95.73,-4.54,12.81,1,1,1,67,217,0,0,0,0,0,20.00,0,3108,0,0,0,0,0,250.06,0.00,14,1722,0.0000,0.0000,0.0000,0.0000,0.0000
2026-04-20T18:05:28.686,1.133,1,0.49,-0.48,-0.13,-0.05,1,-0.0175,0.0706,0.3058,0.0000,0.0000,0.0000,95.76,-1.74,51.25,59.20,68,68,1.00000,1.00000,1.00000,1.00000,3,3,1,24.40585,0.00255,1.07031,0.0175,-0.0706,0.0442,0.0000,0.0000,0.0000,-95.76,-4.67,12.78,1,1,1,68,218,0,0,0,0,0,20.00,0,3108,0,0,0,0,0,250.06,0.00,14,1722,0.0000,0.0000,0.0000,0.0000,0.0000
2026-04-20T18:05:28.701,1.149,1,0.49,-0.48,-0.13,-0.05,1,-0.0177,0.0705,0.3057,0.0000,0.0000,0.0000,95.76,0.00,63.04,61.23,69,69,1.00000,1.00000,1.00000,1.00000,3,3,1,24.36618,0.00259,1.06942,0.0177,-0.0705,0.0443,0.0000,0.0000,0.0000,-95.76,-4.59,12.95,1,1,1,69,217,0,0,0,0,0,20.00,0,3108,0,0,0,0,0,250.06,0.00,14,1722,0.0000,0.0000,0.0000,0.0000,0.0000
2026-04-20T18:05:28.719,1.166,1,0.49,-0.49,-0.07,0.04,1,-0.0177,0.0705,0.3058,0.0000,0.0000,0.0000,95.77,-0.56,65.64,59.67,70,70,1.00000,1.00000,1.00000,1.00000,3,3,1,24.37869,0.00260,1.07019,0.0177,-0.0705,0.0442,0.0000,0.0000,0.0000,-95.77,-4.44,13.04,1,1,1,70,217,0,0,0,0,0,20.00,0,3108,0,0,0,0,0,250.06,0.00,14,1722,0.0000,0.0000,0.0000,0.0000,0.0000
2026-04-20T18:05:28.734,1.182,1,0.49,-0.49,-0.07,0.04,1,-0.0176,0.0703,0.3056,0.0000,0.0000,0.0000,95.74,1.83,57.09,58.79,71,71,1.00000,1.00000,1.00000,1.00000,3,3,1,24.40728,0.00253,1.06873,0.0176,-0.0703,0.0444,0.0000,0.0000,0.0000,-95.74,-4.23,12.92,1,1,1,71,217,0,0,0,0,0,20.00,0,3108,0,0,0,0,0,250.06,0.00,14,1722,0.0000,0.0000,0.0000,0.0000,0.0000
2026-04-20T18:05:28.752,1.200,1,0.49,-0.49,-0.07,0.04,1,-0.0175,0.0705,0.3057,0.0000,0.0000,0.0000,95.73,0.59,63.05,61.42,72,72,1.00000,1.00000,1.00000,1.00000,3,3,1,24.36464,0.00244,1.06890,0.0175,-0.0705,0.0443,0.0000,0.0000,0.0000,-95.73,-4.41,12.71,1,1,1,72,217,0,0,0,0,0,20.00,0,3108,0,0,0,0,0,250.06,0.00,14,1722,0.0000,0.0000,0.0000,0.0000,0.0000
2026-04-20T18:05:28.768,1.216,1,0.49,-0.49,-0.07,0.04,1,-0.0176,0.0705,0.3055,0.0000,0.0000,0.0000,95.74,-0.58,57.68,56.53,73,73,1.00000,1.00000,1.00000,1.00000,3,3,1,24.39747,0.00263,1.06926,0.0176,-0.0705,0.0445,0.0000,0.0000,0.0000,-95.74,-4.41,12.75,1,1,1,73,217,0,0,0,0,0,20.00,0,3108,0,0,0,0,0,250.06,0.00,14,1722,0.0000,0.0000,0.0000,0.0000,0.0000
2026-04-20T18:05:28.784,1.232,1,0.49,-0.49,-0.07,0.04,1,-0.0177,0.0702,0.3057,0.0000,0.0000,0.0000,95.68,4.06,61.94,67.35,74,74,1.00000,1.00000,1.00000,1.00000,3,3,1,24.32440,0.00258,1.06840,0.0177,-0.0702,0.0443,0.0000,0.0000,0.0000,-95.68,-4.07,12.85,1,1,1,74,217,0,0,0,0,0,20.00,0,3108,0,0,0,0,0,250.06,0.00,14,1722,0.0000,0.0000,0.0000,0.0000,0.0000
2026-04-20T18:05:28.802,1.250,1,0.49,-0.49,-0.07,0.04,1,-0.0177,0.0704,0.3057,0.0000,0.0000,0.0000,95.72,-2.22,67.65,57.34,75,75,1.00000,1.00000,1.00000,1.00000,3,3,1,24.38264,0.00258,1.07050,0.0177,-0.0704,0.0443,0.0000,0.0000,0.0000,-95.72,-4.23,12.97,1,1,1,75,217,0,0,0,0,0,20.00,0,3108,0,0,0,0,0,250.06,0.00,14,1722,0.0000,0.0000,0.0000,0.0000,0.0000
2026-04-20T18:05:28.817,1.265,1,0.49,-0.49,-0.07,0.04,1,-0.0176,0.0706,0.3057,0.0000,0.0000,0.0000,95.82,-6.42,52.56,60.03,76,76,1.00000,1.00000,1.00000,1.00000,3,3,1,24.39380,0.00268,1.06999,0.0176,-0.0706,0.0443,0.0000,0.0000,0.0000,-95.82,-4.65,12.90,1,1,1,76,217,0,0,0,0,0,20.00,0,3108,0,0,0,0,0,250.06,0.00,14,1722,0.0000,0.0000,0.0000,0.0000,0.0000
2026-04-20T18:05:28.835,1.283,1,0.49,-0.49,-0.07,0.04,1,-0.0176,0.0705,0.3058,0.0000,0.0000,0.0000,95.78,2.22,64.24,58.01,77,77,1.00000,1.00000,1.00000,1.00000,3,3,1,24.40524,0.00263,1.06827,0.0176,-0.0705,0.0442,0.0000,0.0000,0.0000,-95.78,-4.73,12.83,1,1,1,77,217,0,0,0,0,0,20.00,0,3108,0,0,0,0,0,250.06,0.00,14,1722,0.0000,0.0000,0.0000,0.0000,0.0000
2026-04-20T18:05:28.851,1.299,1,0.49,-0.49,-0.07,0.04,1,-0.0177,0.0705,0.3058,0.0000,0.0000,0.0000,95.83,-2.99,58.67,62.12,78,78,1.00000,1.00000,1.00000,1.00000,3,3,1,24.39752,0.00259,1.07046,0.0177,-0.0705,0.0442,0.0000,0.0000,0.0000,-95.83,-4.63,12.87,1,1,1,78,217,0,0,0,0,0,20.00,0,3108,0,0,0,0,0,250.06,0.00,14,1722,0.0000,0.0000,0.0000,0.0000,0.0000
2026-04-20T18:05:28.866,1.314,1,0.49,-0.49,-0.07,0.04,1,-0.0176,0.0707,0.3059,0.0000,0.0000,0.0000,95.91,-5.23,59.75,57.55,79,79,1.00000,1.00000,1.00000,1.00000,3,3,1,24.35529,0.00257,1.06976,0.0176,-0.0707,0.0441,0.0000,0.0000,0.0000,-95.91,-4.88,12.91,1,1,1,79,218,0,0,0,0,0,20.00,0,3108,0,0,0,0,0,250.06,0.00,14,1722,0.0000,0.0000,0.0000,0.0000,0.0000
2026-04-20T18:05:28.883,1.331,1,0.49,-0.49,-0.07,0.04,1,-0.0176,0.0703,0.3056,0.0000,0.0000,0.0000,95.74,10.16,63.83,63.07,80,80,1.00000,1.00000,1.00000,1.00000,3,3,1,24.36652,0.00262,1.06879,0.0176,-0.0703,0.0444,0.0000,0.0000,0.0000,-95.74,-4.30,12.83,1,1,1,80,216,0,0,0,0,0,20.00,0,3108,0,0,0,0,0,250.06,0.00,14,1722,0.0000,0.0000,0.0000,0.0000,0.0000
2026-04-20T18:05:28.900,1.348,1,0.49,-0.49,-0.07,0.04,1,-0.0177,0.0704,0.3057,0.0000,0.0000,0.0000,95.78,-2.35,59.26,59.61,81,81,1.00000,1.00000,1.00000,1.00000,3,3,1,24.38631,0.00257,1.06943,0.0177,-0.0704,0.0443,0.0000,0.0000,0.0000,-95.78,-4.34,12.94,1,1,1,81,217,0,0,0,0,0,20.00,0,3108,0,0,0,0,0,250.06,0.00,14,1722,0.0000,0.0000,0.0000,0.0000,0.0000
2026-04-20T18:05:28.917,1.365,1,0.49,-0.49,-0.07,0.04,1,-0.0176,0.0707,0.3056,0.0000,0.0000,0.0000,95.82,-2.51,60.47,61.22,82,82,1.00000,1.00000,1.00000,1.00000,3,3,1,24.36870,0.00263,1.06892,0.0176,-0.0707,0.0444,0.0000,0.0000,0.0000,-95.82,-4.63,12.83,1,1,1,82,218,0,0,0,0,0,20.00,0,3108,0,0,0,0,0,250.06,0.00,14,1722,0.0000,0.0000,0.0000,0.0000,0.0000
2026-04-20T18:05:28.935,1.383,1,0.49,-0.49,-0.07,0.04,1,-0.0175,0.0705,0.3058,0.0000,0.0000,0.0000,95.80,1.09,59.01,59.03,83,83,1.00000,1.00000,1.00000,1.00000,3,3,1,24.34681,0.00250,1.07151,0.0175,-0.0705,0.0442,0.0000,0.0000,0.0000,-95.80,-4.66,12.74,1,1,1,83,216,0,0,0,0,0,20.00,0,3108,0,0,0,0,0,250.06,0.00,14,1722,0.0000,0.0000,0.0000,0.0000,0.0000
2026-04-20T18:05:28.950,1.398,1,0.49,-0.49,-0.07,0.04,1,-0.0176,0.0707,0.3058,0.0000,0.0000,0.0000,95.87,-4.76,56.28,59.67,84,84,1.00000,1.00000,1.00000,1.00000,3,3,1,24.38402,0.00255,1.06917,0.0176,-0.0707,0.0442,0.0000,0.0000,0.0000,-95.87,-4.85,12.78,1,1,1,84,218,0,0,0,0,0,20.00,0,3108,0,0,0,0,0,250.06,0.00,14,1722,0.0000,0.0000,0.0000,0.0000,0.0000
2026-04-20T18:05:28.967,1.415,1,0.49,-0.49,-0.07,0.04,1,-0.0175,0.0706,0.3057,0.0000,0.0000,0.0000,95.80,4.12,65.17,59.40,85,85,1.00000,1.00000,1.00000,1.00000,3,3,1,24.34437,0.00255,1.07018,0.0175,-0.0706,0.0443,0.0000,0.0000,0.0000,-95.80,-4.79,12.75,1,1,1,85,217,0,0,0,0,0,20.00,0,3108,0,0,0,0,0,250.06,0.00,14,1722,0.0000,0.0000,0.0000,0.0000,0.0000
2026-04-20T18:05:28.986,1.434,1,0.49,-0.49,-0.07,0.04,1,-0.0175,0.0706,0.3055,0.0000,0.0000,0.0000,95.77,1.57,58.29,59.91,86,86,1.00000,1.00000,1.00000,1.00000,3,3,1,24.37616,0.00243,1.06755,0.0175,-0.0706,0.0445,0.0000,0.0000,0.0000,-95.77,-4.50,12.65,1,1,1,86,217,0,0,0,0,0,20.00,0,3108,0,0,0,0,0,250.06,0.00,14,1722,0.0000,0.0000,0.0000,0.0000,0.0000
2026-04-20T18:05:29.001,1.448,1,0.49,-0.49,-0.07,0.04,1,-0.0175,0.0704,0.3057,0.0000,0.0000,0.0000,95.72,3.50,53.10,61.02,87,87,1.00000,1.00000,1.00000,1.00000,3,3,1,24.39238,0.00255,1.07011,0.0175,-0.0704,0.0443,0.0000,0.0000,0.0000,-95.72,-4.43,12.68,1,1,1,87,217,0,0,0,0,0,20.00,0,3108,0,0,0,0,0,250.06,0.00,14,1722,0.0000,0.0000,0.0000,0.0000,0.0000
2026-04-20T18:05:29.017,1.465,1,0.49,-0.49,-0.07,0.04,1,-0.0176,0.0705,0.3057,0.0000,0.0000,0.0000,95.74,-1.19,70.06,61.74,88,88,1.00000,1.00000,1.00000,1.00000,3,3,1,24.36303,0.00255,1.06921,0.0176,-0.0705,0.0443,0.0000,0.0000,0.0000,-95.74,-4.53,12.72,1,1,1,88,217,0,0,0,0,0,20.00,0,3108,0,0,0,0,0,250.06,0.00,14,1722,0.0000,0.0000,0.0000,0.0000,0.0000
2026-04-20T18:05:29.036,1.484,1,0.49,-0.49,-0.07,0.04,1,-0.0176,0.0706,0.3058,0.0000,0.0000,0.0000,95.83,-4.71,65.56,58.37,89,89,1.00000,1.00000,1.00000,1.00000,3,3,1,24.40359,0.00258,1.07085,0.0176,-0.0706,0.0442,0.0000,0.0000,0.0000,-95.83,-4.69,12.90,1,1,1,89,217,0,0,0,0,0,20.00,0,3108,0,0,0,0,0,250.06,0.00,14,1722,0.0000,0.0000,0.0000,0.0000,0.0000
2026-04-20T18:05:29.051,1.499,1,0.49,-0.49,-0.07,0.04,1,-0.0175,0.0707,0.3055,0.0000,0.0000,0.0000,95.76,4.54,47.73,55.23,90,90,1.00000,1.00000,1.00000,1.00000,3,3,1,24.39049,0.00250,1.06700,0.0175,-0.0707,0.0445,0.0000,0.0000,0.0000,-95.76,-4.76,12.70,1,1,1,90,217,0,0,0,0,0,20.00,0,3108,0,0,0,0,0,250.06,0.00,14,1722,0.0000,0.0000,0.0000,0.0000,0.0000
2026-04-20T18:05:29.068,1.515,1,0.49,-0.49,-0.07,0.04,1,-0.0175,0.0706,0.3057,0.0000,0.0000,0.0000,95.84,-5.09,70.90,63.60,91,91,1.00000,1.00000,1.00000,1.00000,3,3,1,24.41329,0.00262,1.06921,0.0175,-0.0706,0.0443,0.0000,0.0000,0.0000,-95.84,-4.74,12.72,1,1,1,91,218,0,0,0,0,0,20.00,0,3108,0,0,0,0,0,250.06,0.00,14,1722,0.0000,0.0000,0.0000,0.0000,0.0000
2026-04-20T18:05:29.085,1.533,1,0.49,-0.49,-0.07,0.04,1,-0.0175,0.0706,0.3058,0.0000,0.0000,0.0000,95.80,2.21,59.21,60.73,92,92,1.00000,1.00000,1.00000,1.00000,3,3,1,24.38525,0.00253,1.06864,0.0175,-0.0706,0.0442,0.0000,0.0000,0.0000,-95.80,-4.69,12.72,1,1,1,92,217,0,0,0,0,0,20.00,0,3108,0,0,0,0,0,250.06,0.00,14,1722,0.0000,0.0000,0.0000,0.0000,0.0000
2026-04-20T18:05:29.102,1.550,1,0.49,-0.49,-0.07,0.04,1,-0.0177,0.0706,0.3057,0.0000,0.0000,0.0000,95.82,-1.23,57.27,56.06,93,93,1.00000,1.00000,1.00000,1.00000,3,3,1,24.40132,0.00267,1.07057,0.0177,-0.0706,0.0443,0.0000,0.0000,0.0000,-95.82,-4.66,12.89,1,1,1,93,218,0,0,0,0,0,20.00,0,3108,0,0,0,0,0,250.06,0.00,14,1722,0.0000,0.0000,0.0000,0.0000,0.0000
2026-04-20T18:05:29.117,1.565,1,0.49,-0.49,-0.07,0.04,1,-0.0176,0.0705,0.3058,0.0000,0.0000,0.0000,95.85,-1.84,59.76,63.25,94,94,1.00000,1.00000,1.00000,1.00000,3,3,1,24.39531,0.00262,1.06982,0.0176,-0.0705,0.0442,0.0000,0.0000,0.0000,-95.85,-4.53,12.96,1,1,1,94,217,0,0,0,0,0,20.00,0,3108,0,0,0,0,0,250.06,0.00,14,1722,0.0000,0.0000,0.0000,0.0000,0.0000
2026-04-20T18:05:29.135,1.583,1,0.49,-0.49,-0.07,0.04,1,-0.0176,0.0705,0.3058,0.0000,0.0000,0.0000,95.78,3.99,65.41,57.17,95,95,1.00000,1.00000,1.00000,1.00000,3,3,1,24.36350,0.00256,1.07029,0.0176,-0.0705,0.0442,0.0000,0.0000,0.0000,-95.78,-4.52,12.97,1,1,1,95,217,0,0,0,0,0,20.00,0,3108,0,0,0,0,0,250.06,0.00,14,1722,0.0000,0.0000,0.0000,0.0000,0.0000
2026-04-20T18:05:29.152,1.600,1,0.49,-0.49,-0.07,0.04,1,-0.0176,0.0707,0.3059,0.0000,0.0000,0.0000,95.87,-5.62,55.48,58.60,96,96,1.00000,1.00000,1.00000,1.00000,3,3,1,24.35275,0.00249,1.06988,0.0176,-0.0707,0.0441,0.0000,0.0000,0.0000,-95.87,-4.79,12.91,1,1,1,96,218,0,0,0,0,0,20.00,0,3108,0,0,0,0,0,250.06,0.00,14,1722,0.0000,0.0000,0.0000,0.0000,0.0000
2026-04-20T18:05:29.167,1.615,1,0.49,-0.49,-0.07,0.04,1,-0.0176,0.0707,0.3058,0.0000,0.0000,0.0000,95.93,-3.61,60.26,62.05,97,97,1.00000,1.00000,1.00000,1.00000,3,3,1,24.38685,0.00256,1.06862,0.0176,-0.0707,0.0442,0.0000,0.0000,0.0000,-95.93,-4.78,12.90,1,1,1,97,217,0,0,0,0,0,20.00,0,3108,0,0,0,0,0,250.06,0.00,14,1722,0.0000,0.0000,0.0000,0.0000,0.0000
2026-04-20T18:05:29.185,1.633,1,0.49,-0.49,-0.07,0.04,1,-0.0175,0.0706,0.3058,0.0000,0.0000,0.0000,95.86,4.13,62.99,63.20,98,98,1.00000,1.00000,1.00000,1.00000,3,3,1,24.39313,0.00252,1.07117,0.0175,-0.0706,0.0442,0.0000,0.0000,0.0000,-95.86,-4.81,12.81,1,1,1,98,218,0,0,0,0,0,20.00,0,3108,0,0,0,0,0,250.06,0.00,14,1722,0.0000,0.0000,0.0000,0.0000,0.0000
2026-04-20T18:05:29.201,1.649,1,0.49,-0.49,-0.07,0.04,1,-0.0176,0.0708,0.3057,0.0000,0.0000,0.0000,95.88,-1.20,56.35,57.90,99,99,1.00000,1.00000,1.00000,1.00000,3,3,1,24.36753,0.00257,1.06882,0.0176,-0.0708,0.0443,0.0000,0.0000,0.0000,-95.88,-4.96,12.79,1,1,1,99,218,0,0,0,0,0,20.00,0,3108,0,0,0,0,0,250.06,0.00,14,1722,0.0000,0.0000,0.0000,0.0000,0.0000
2026-04-20T18:05:29.218,1.666,1,0.49,-0.49,-0.07,0.04,1,-0.0175,0.0707,0.3056,0.0000,0.0000,0.0000,95.80,5.05,60.55,59.36,100,100,1.00000,1.00000,1.00000,1.00000,3,3,1,24.37794,0.00253,1.06887,0.0175,-0.0707,0.0444,0.0000,0.0000,0.0000,-95.80,-4.94,12.74,1,1,1,100,217,0,0,0,0,0,20.00,0,3108,0,0,0,0,0,250.06,0.00,14,1722,0.0000,0.0000,0.0000,0.0000,0.0000
2026-04-20T18:05:29.236,1.684,0,0.00,0.00,0.00,0.00,1,-0.0176,0.0707,0.3057,0.0000,0.0000,0.0000,95.84,-2.13,65.57,59.93,101,101,1.00000,1.00000,1.00000,1.00000,3,3,1,24.38365,0.00251,1.06912,0.0176,-0.0707,0.0443,0.0000,0.0000,0.0000,-95.84,-4.86,12.81,1,1,1,101,218,0,0,0,0,0,20.00,0,3108,0,0,0,0,0,250.06,0.00,14,1722,0.0000,0.0000,0.0000,0.0000,0.0000
2026-04-20T18:05:29.251,1.699,1,0.45,-0.50,-0.11,-0.05,1,-0.0176,0.0707,0.3055,0.0000,0.0000,0.0000,95.83,0.64,52.71,59.50,102,102,1.00000,1.00000,1.00000,1.00000,3,3,1,24.38552,0.00261,1.06894,0.0176,-0.0707,0.0445,0.0000,0.0000,0.0000,-95.83,-4.75,12.87,1,1,1,102,218,0,0,0,0,0,20.00,0,3108,0,0,0,0,0,250.06,0.00,14,1722,0.0000,0.0000,0.0000,0.0000,0.0000
2026-04-20T18:05:29.268,1.715,1,0.45,-0.50,-0.11,-0.05,1,-0.0175,0.0706,0.3058,0.0000,0.0000,0.0000,95.82,0.65,66.28,63.22,103,103,1.00000,1.00000,1.00000,1.00000,3,3,1,24.35044,0.00261,1.06962,0.0175,-0.0706,0.0442,0.0000,0.0000,0.0000,-95.82,-4.61,12.81,1,1,1,103,218,0,0,0,0,0,20.00,0,3108,0,0,0,0,0,250.06,0.00,14,1722,0.0000,0.0000,0.0000,0.0000,0.0000
2026-04-20T18:05:29.284,1.732,1,0.45,-0.50,-0.11,-0.05,1,-0.0176,0.0705,0.3057,0.0000,0.0000,0.0000,95.80,1.22,61.08,57.65,104,104,1.00000,1.00000,1.00000,1.00000,3,3,1,24.39440,0.00256,1.06951,0.0176,-0.0705,0.0443,0.0000,0.0000,0.0000,-95.80,-4.47,12.92,1,1,1,104,216,0,0,0,0,0,20.00,0,3108,0,0,0,0,0,250.06,0.00,14,1722,0.0000,0.0000,0.0000,0.0000,0.0000
2026-04-20T18:05:29.302,1.750,1,0.45,-0.50,-0.11,-0.05,1,-0.0175,0.0705,0.3056,0.0000,0.0000,0.0000,95.71,5.02,59.50,60.86,105,105,1.00000,1.00000,1.00000,1.00000,3,3,1,24.34972,0.00252,1.06823,0.0175,-0.0705,0.0444,0.0000,0.0000,0.0000,-95.71,-4.47,12.73,1,1,1,105,217,0,0,0,0,0,20.00,0,3108,0,0,0,0,0,250.06,0.00,14,1722,0.0000,0.0000,0.0000,0.0000,0.0000
2026-04-20T18:05:29.317,1.765,1,0.45,-0.50,-0.11,-0.05,1,-0.0175,0.0705,0.3057,0.0000,0.0000,0.0000,95.73,-1.23,57.27,61.33,106,106,1.00000,1.00000,1.00000,1.00000,3,3,1,24.37057,0.00265,1.06900,0.0175,-0.0705,0.0443,0.0000,0.0000,0.0000,-95.73,-4.51,12.72,1,1,1,106,217,0,0,0,0,0,20.00,0,3108,0,0,0,0,0,250.06,0.00,14,1722,0.0000,0.0000,0.0000,0.0000,0.0000
2026-04-20T18:05:29.335,1.782,1,0.45,-0.50,-0.11,-0.05,1,-0.0176,0.0707,0.3058,0.0000,0.0000,0.0000,95.80,-4.24,63.58,58.73,107,107,1.00000,1.00000,1.00000,1.00000,3,3,1,24.37492,0.00271,1.06958,0.0176,-0.0707,0.0442,0.0000,0.0000,0.0000,-95.80,-4.65,12.86,1,1,1,107,217,0,0,0,0,0,20.00,0,3108,0,0,0,0,0,250.06,0.00,14,1722,0.0000,0.0000,0.0000,0.0000,0.0000
2026-04-20T18:05:29.352,1.800,1,0.45,-0.50,-0.11,-0.05,1,-0.0176,0.0705,0.3057,0.0000,0.0000,0.0000,95.78,1.20,60.40,60.09,108,108,1.00000,1.00000,1.00000,1.00000,3,3,1,24.37430,0.00253,1.06974,0.0176,-0.0705,0.0443,0.0000,0.0000,0.0000,-95.78,-4.53,12.85,1,1,1,108,217,180,180,180,0,0,60.00,180,2965,0,0,0,0,0,250.06,0.00,14,1722,0.0000,0.0000,0.0000,0.0000,0.0000
2026-04-20T18:05:29.368,1.815,1,0.45,-0.50,-0.11,-0.05,1,-0.0176,0.0705,0.3057,0.0000,0.0000,0.0000,95.77,0.61,56.98,61.45,109,109,1.00000,1.00000,1.00000,1.00000,3,3,1,24.37305,0.00259,1.07021,0.0176,-0.0705,0.0443,0.0000,0.0000,0.0000,-95.77,-4.39,12.90,1,1,1,109,216,180,180,180,0,0,60.00,180,2965,0,0,0,0,0,250.06,0.00,14,1722,0.0000,0.0000,0.0000,0.0000,0.0000
2026-04-20T18:05:29.384,1.832,1,0.45,-0.50,-0.11,-0.05,1,-0.0176,0.0708,0.3058,0.0000,0.0000,0.0000,95.90,-8.02,62.94,59.84,110,110,1.00000,1.00000,1.00000,1.00000,3,3,1,24.37749,0.00253,1.06983,0.0176,-0.0708,0.0442,0.0000,0.0000,0.0000,-95.90,-4.72,12.82,1,1,1,110,217,180,180,180,0,0,60.00,180,2965,0,0,0,0,0,250.06,0.00,14,1722,0.0000,0.0000,0.0000,0.0000,0.0000
2026-04-20T18:05:29.401,1.849,1,0.45,-0.50,-0.11,-0.05,1,-0.0176,0.0706,0.3057,0.0000,0.0000,0.0000,95.92,-1.10,59.82,58.42,111,111,1.00000,1.00000,1.00000,1.00000,3,3,1,24.41475,0.00257,1.06858,0.0176,-0.0706,0.0443,0.0000,0.0000,0.0000,-95.92,-4.70,12.88,1,1,1,111,217,180,180,180,0,0,60.00,180,2965,0,0,0,0,0,250.06,0.00,14,1722,0.0000,0.0000,0.0000,0.0000,0.0000
2026-04-20T18:05:29.419,1.867,1,0.45,-0.50,-0.11,-0.05,1,-0.0175,0.0706,0.3057,0.0000,0.0000,0.0000,95.79,7.18,58.98,58.43,112,112,1.00000,1.00000,1.00000,1.00000,3,3,1,24.38759,0.00251,1.06879,0.0175,-0.0706,0.0443,0.0000,0.0000,0.0000,-95.79,-4.56,12.71,1,1,1,112,218,180,180,180,0,0,60.00,180,2965,0,0,0,0,0,250.06,0.00,14,1722,0.0000,0.0000,0.0000,0.0000,0.0000
2026-04-20T18:05:29.435,1.883,1,0.45,-0.50,-0.11,-0.05,1,-0.0176,0.0706,0.3058,0.0000,0.0000,0.0000,95.78,0.64,53.14,62.05,113,113,1.00000,1.00000,1.00000,1.00000,3,3,1,24.33917,0.00261,1.06895,0.0176,-0.0706,0.0442,0.0000,0.0000,0.0000,-95.78,-4.62,12.86,1,1,1,113,218,180,180,180,0,0,60.00,180,2965,0,0,0,0,0,250.06,0.00,14,1722,0.0000,0.0000,0.0000,0.0000,0.0000
2026-04-20T18:05:29.452,1.900,1,0.45,-0.50,-0.11,-0.05,1,-0.0177,0.0706,0.3058,0.0000,0.0000,0.0000,95.82,-2.45,67.62,60.02,114,114,1.00000,1.00000,1.00000,1.00000,3,3,1,24.38170,0.00255,1.06969,0.0177,-0.0706,0.0442,0.0000,0.0000,0.0000,-95.82,-4.52,12.93,1,1,1,114,218,180,180,180,0,0,60.00,180,2965,0,0,0,0,0,250.06,0.00,14,1722,0.0000,0.0000,0.0000,0.0000,0.0000
2026-04-20T18:05:29.469,1.917,1,0.45,-0.50,-0.11,-0.05,1,-0.0175,0.0706,0.3057,0.0000,0.0000,0.0000,95.78,2.34,58.61,57.52,115,115,1.00000,1.00000,1.00000,1.00000,3,3,1,24.39568,0.00255,1.06893,0.0175,-0.0706,0.0443,0.0000,0.0000,0.0000,-95.78,-4.45,12.77,1,1,1,115,218,180,180,180,0,0,60.00,180,2965,0,0,0,0,0,250.06,0.00,14,1722,0.0000,0.0000,0.0000,0.0000,0.0000
2026-04-20T18:05:29.485,1.933,1,0.45,-0.50,-0.11,-0.05,1,-0.0176,0.0707,0.3056,0.0000,0.0000,0.0000,95.78,0.00,58.42,62.02,116,116,1.00000,1.00000,1.00000,1.00000,3,3,1,24.36436,0.00255,1.07094,0.0176,-0.0707,0.0444,0.0000,0.0000,0.0000,-95.78,-4.53,12.84,1,1,1,116,218,180,180,180,0,0,60.00,180,2965,0,0,0,0,0,250.06,0.00,14,1722,0.0000,0.0000,0.0000,0.0000,0.0000
2026-04-20T18:05:29.504,1.952,1,0.45,-0.50,-0.11,-0.05,1,-0.0176,0.0706,0.3057,0.0000,0.0000,0.0000,95.71,3.79,60.90,60.04,117,117,1.00000,1.00000,1.00000,1.00000,3,3,1,24.34611,0.00255,1.06925,0.0176,-0.0706,0.0443,0.0000,0.0000,0.0000,-95.71,-4.56,12.75,1,1,1,117,218,180,180,180,0,0,60.00,180,2965,0,0,0,0,0,250.06,0.00,14,1722,0.0000,0.0000,0.0000,0.0000,0.0000
2026-04-20T18:05:29.518,1.966,1,0.45,-0.50,-0.11,-0.05,1,-0.0174,0.0707,0.3057,0.0000,0.0000,0.0000,95.73,-1.46,52.57,62.73,118,118,1.00000,1.00000,1.00000,1.00000,3,3,1,24.40249,0.00252,1.06877,0.0174,-0.0707,0.0443,0.0000,0.0000,0.0000,-95.73,-4.71,12.65,1,1,1,118,218,180,180,180,0,0,60.00,180,2965,0,0,0,0,0,250.06,0.00,14,1722,0.0000,0.0000,0.0000,0.0000,0.0000
2026-04-20T18:05:29.535,1.983,1,0.45,-0.50,-0.11,-0.05,1,-0.0176,0.0706,0.3058,0.0000,0.0000,0.0000,95.76,-1.66,79.80,56.52,119,119,1.00000,1.00000,1.00000,1.00000,3,3,1,24.38268,0.00253,1.06985,0.0176,-0.0706,0.0442,0.0000,0.0000,0.0000,-95.76,-4.61,12.72,1,1,1,119,218,180,180,180,0,0,60.00,180,2965,0,0,0,0,0,250.06,0.00,14,1722,0.0000,0.0000,0.0000,0.0000,0.0000
2026-04-20T18:05:29.552,2.000,1,0.45,-0.50,-0.11,-0.05,1,-0.0177,0.0707,0.3056,0.0000,0.0000,0.0000,95.80,-2.56,54.99,61.08,120,120,1.00000,1.00000,1.00000,1.00000,3,3,1,24.37109,0.00263,1.06783,0.0177,-0.0707,0.0444,0.0000,0.0000,0.0000,-95.80,-4.56,12.91,1,1,1,120,217,180,180,180,0,0,60.00,180,2965,0,0,0,0,0,250.06,0.00,14,1722,0.0000,0.0000,0.0000,0.0000,0.0000
2026-04-20T18:05:29.569,2.016,1,0.45,-0.50,-0.11,-0.05,1,-0.0175,0.0707,0.3056,0.0000,0.0000,0.0000,95.76,2.34,60.15,58.92,121,121,1.00000,1.00000,1.00000,1.00000,3,3,1,24.38188,0.00257,1.06768,0.0175,-0.0707,0.0444,0.0000,0.0000,0.0000,-95.76,-4.53,12.70,1,1,1,121,217,180,180,180,0,0,60.00,180,2965,151,0,0,0,151,249.94,0.00,2,3114,0.0000,0.0000,0.0000,0.0000,0.0000
2026-04-20T18:05:29.585,2.033,1,0.45,-0.50,-0.11,-0.05,1,-0.0175,0.0705,0.3056,0.0000,0.0000,0.0000,95.70,3.46,63.80,60.78,122,122,1.00000,1.00000,1.00000,1.00000,3,3,1,24.39557,0.00250,1.06741,0.0175,-0.0705,0.0444,0.0000,0.0000,0.0000,-95.70,-4.41,12.65,1,1,1,122,216,180,180,180,0,0,60.00,180,2965,151,0,0,0,151,249.94,0.00,2,3114,0.0000,0.0000,0.0000,0.0000,0.0000
2026-04-20T18:05:29.602,2.050,1,0.45,-0.50,-0.11,-0.05,1,-0.0175,0.0706,0.3057,0.0000,0.0000,0.0000,95.77,-4.35,57.34,61.36,123,123,1.00000,1.00000,1.00000,1.00000,3,3,1,24.35086,0.00246,1.06927,0.0175,-0.0706,0.0443,0.0000,0.0000,0.0000,-95.77,-4.52,12.67,1,1,1,123,218,180,180,180,0,0,60.00,180,2965,151,0,0,0,151,249.94,0.00,2,3114,0.0000,0.0000,0.0000,0.0000,0.0000
2026-04-20T18:05:29.617,2.065,1,0.48,-0.51,-0.08,0.02,1,-0.0176,0.0709,0.3056,0.0000,0.0000,0.0000,95.89,-7.28,59.01,58.27,124,124,1.00000,1.00000,1.00000,1.00000,3,3,1,24.34191,0.00255,1.07038,0.0176,-0.0709,0.0444,0.0000,0.0000,0.0000,-95.89,-4.83,12.81,1,1,1,124,218,180,180,180,0,0,60.00,180,2965,151,0,0,0,151,249.94,0.00,2,3114,0.0000,0.0000,0.0000,0.0000,0.0000
2026-04-20T18:05:29.635,2.083,1,0.48,-0.51,-0.08,0.02,1,-0.0176,0.0707,0.3056,0.0000,0.0000,0.0000,95.81,4.59,62.66,60.11,125,125,1.00000,1.00000,1.00000,1.00000,3,3,1,24.35429,0.00261,1.06902,0.0176,-0.0707,0.0444,0.0000,0.0000,0.0000,-95.81,-4.75,12.74,1,1,1,125,218,180,180,180,0,0,60.00,180,2965,151,0,0,0,151,249.94,0.00,2,3114,0.0000,0.0000,0.0000,0.0000,0.0000
2026-04-20T18:05:29.651,2.099,1,0.48,-0.51,-0.08,0.02,1,-0.0176,0.0706,0.3055,0.0000,0.0000,0.0000,95.77,2.59,58.06,61.65,126,126,1.00000,1.00000,1.00000,1.00000,3,3,1,24.38011,0.00262,1.06935,0.0176,-0.0706,0.0445,0.0000,0.0000,0.0000,-95.77,-4.59,12.78,1,1,1,126,218,180,180,180,0,0,60.00,180,2965,151,0,0,0,151,249.94,0.00,2,3114,0.0000,0.0000,0.0000,0.0000,0.0000
2026-04-20T18:05:29.671,2.119,1,0.48,-0.51,-0.08,0.02,1,-0.0176,0.0706,0.3056,0.0000,0.0000,0.0000,95.76,0.50,61.44,59.64,127,127,1.00000,1.00000,1.00000,1.00000,3,3,1,24.37995,0.00254,1.06963,0.0176,-0.0706,0.0444,0.0000,0.0000,0.0000,-95.76,-4.49,12.88,1,1,1,127,218,180,180,180,0,0,60.00,180,2965,151,0,0,0,151,249.94,0.00,2,3114,0.0000,0.0000,0.0000,0.0000,0.0000
2026-04-20T18:05:29.684,2.132,1,0.48,-0.51,-0.08,0.02,1,-0.0176,0.0707,0.3055,0.0000,0.0000,0.0000,95.80,-2.99,50.82,62.45,128,128,1.00000,1.00000,1.00000,1.00000,3,3,1,24.36048,0.00264,1.06749,0.0176,-0.0707,0.0445,0.0000,0.0000,0.0000,-95.80,-4.52,12.85,1,1,1,128,217,180,180,180,0,0,60.00,180,2965,151,0,0,0,151,249.94,0.00,2,3114,0.0000,0.0000,0.0000,0.0000,0.0000
2026-04-20T18:05:29.701,2.149,1,0.48,-0.51,-0.08,0.02,1,-0.0176,0.0707,0.3055,0.0000,0.0000,0.0000,95.76,2.29,70.25,57.60,129,129,1.00000,1.00000,1.00000,1.00000,3,3,1,24.35523,0.00259,1.06781,0.0176,-0.0707,0.0445,0.0000,0.0000,0.0000,-95.76,-4.55,12.77,1,1,1,129,218,180,180,180,0,0,60.00,180,2965,151,0,0,0,151,249.94,0.00,2,3114,0.0000,0.0000,0.0000,0.0000,0.0000
2026-04-20T18:05:29.719,2.167,1,0.48,-0.51,-0.08,0.02,1,-0.0176,0.0708,0.3056,0.0000,0.0000,0.0000,95.87,-6.43,62.20,59.68,130,130,1.00000,1.00000,1.00000,1.00000,3,3,1,24.37411,0.00255,1.07173,0.0176,-0.0708,0.0444,0.0000,0.0000,0.0000,-95.87,-4.74,12.94,1,1,1,130,218,180,180,180,0,0,60.00,180,2965,151,0,0,0,151,249.94,0.00,2,3114,0.0000,0.0000,0.0000,0.0000,0.0000
2026-04-20T18:05:29.735,2.183,1,0.48,-0.51,-0.08,0.02,1,-0.0175,0.0710,0.3055,0.0000,0.0000,0.0000,95.94,-4.63,53.73,61.22,131,131,1.00000,1.00000,1.00000,1.00000,3,3,1,24.36290,0.00246,1.07119,0.0175,-0.0710,0.0445,0.0000,0.0000,0.0000,-95.94,-4.97,12.84,1,1,1,131,218,180,180,180,0,0,60.00,180,2965,151,0,0,0,151,249.94,0.00,2,3114,0.0000,0.0000,0.0000,0.0000,0.0000
2026-04-20T18:05:29.751,2.199,1,0.48,-0.51,-0.08,0.02,1,-0.0175,0.0705,0.3055,0.0000,0.0000,0.0000,95.73,11.77,64.70,58.61,132,132,1.00000,1.00000,1.00000,1.00000,3,3,1,24.33711,0.00256,1.06799,0.0175,-0.0705,0.0445,0.0000,0.0000,0.0000,-95.73,-4.43,12.65,1,1,1,132,217,180,180,180,0,0,60.00,180,2965,151,0,0,0,151,249.94,0.00,2,3114,0.0000,0.0000,0.0000,0.0000,0.0000
2026-04-20T18:05:29.769,2.217,1,0.48,-0.51,-0.08,0.02,1,-0.0175,0.0706,0.3055,0.0000,0.0000,0.0000,95.72,0.59,64.51,60.18,133,133,1.00000,1.00000,1.00000,1.00000,3,3,1,24.36979,0.00251,1.06785,0.0175,-0.0706,0.0445,0.0000,0.0000,0.0000,-95.72,-4.34,12.60,1,1,1,133,217,180,180,180,0,0,60.00,180,2965,151,0,0,0,151,249.94,0.00,2,3114,0.0000,0.0000,0.0000,0.0000,0.0000
2026-04-20T18:05:29.786,2.233,1,0.48,-0.51,-0.08,0.02,1,-0.0174,0.0708,0.3057,0.0000,0.0000,0.0000,95.78,-3.61,55.79,63.29,134,134,1.00000,1.00000,1.00000,1.00000,3,3,1,24.33973,0.00262,1.07094,0.0174,-0.0708,0.0443,0.0000,0.0000,0.0000,-95.78,-4.66,12.58,1,1,1,134,218,180,180,180,0,0,60.00,180,2965,151,0,0,0,151,249.94,0.00,2,3114,0.0000,0.0000,0.0000,0.0000,0.0000
2026-04-20T18:05:29.801,2.249,1,0.48,-0.51,-0.08,0.02,1,-0.0175,0.0707,0.3054,0.0000,0.0000,0.0000,95.73,3.29,60.85,57.66,135,135,1.00000,1.00000,1.00000,1.00000,3,3,1,24.37654,0.00257,1.06755,0.0175,-0.0707,0.0446,0.0000,0.0000,0.0000,-95.73,-4.53,12.61,1,1,1,135,218,180,180,180,0,0,60.00,180,2965,151,0,0,0,151,249.94,0.00,2,3114,0.0000,0.0000,0.0000,0.0000,0.0000
2026-04-20T18:05:29.818,2.266,1,0.48,-0.51,-0.08,0.02,1,-0.0175,0.0707,0.3055,0.0000,0.0000,0.0000,95.78,-2.86,62.92,60.13,136,136,1.00000,1.00000,1.00000,1.00000,3,3,1,24.41246,0.00256,1.07055,0.0175,-0.0707,0.0445,0.0000,0.0000,0.0000,-95.78,-4.58,12.75,1,1,1,136,218,180,180,180,0,0,60.00,180,2965,151,0,0,0,151,249.94,0.00,2,3114,0.0000,0.0000,0.0000,0.0000,0.0000
2026-04-20T18:05:29.835,2.282,1,0.48,-0.51,-0.08,0.02,1,-0.0176,0.0706,0.3056,0.0000,0.0000,0.0000,95.77,0.63,55.54,61.79,137,137,1.00000,1.00000,1.00000,1.00000,3,3,1,24.40079,0.00254,1.06924,0.0176,-0.0706,0.0444,0.0000,0.0000,0.0000,-95.77,-4.45,12.89,1,1,1,137,218,180,180,180,0,0,60.00,180,2965,151,0,0,0,151,249.94,0.00,2,3114,0.0000,0.0000,0.0000,0.0000,0.0000
2026-04-20T18:05:29.851,2.298,1,0.48,-0.51,-0.08,0.02,1,-0.0175,0.0705,0.3055,0.0000,0.0000,0.0000,95.77,0.00,62.84,57.86,138,138,1.00000,1.00000,1.00000,1.00000,3,3,1,24.39868,0.00259,1.06923,0.0175,-0.0705,0.0445,0.0000,0.0000,0.0000,-95.77,-4.28,12.87,1,1,1,138,217,180,180,180,0,0,60.00,180,2965,151,0,0,0,151,249.94,0.00,2,3114,0.0000,0.0000,0.0000,0.0000,0.0000
2026-04-20T18:05:29.869,2.316,1,0.48,-0.51,-0.08,0.02,1,-0.0176,0.0706,0.3056,0.0000,0.0000,0.0000,95.76,0.58,62.82,60.10,139,139,1.00000,1.00000,1.00000,1.00000,3,3,1,24.37568,0.00255,1.06916,0.0176,-0.0706,0.0444,0.0000,0.0000,0.0000,-95.76,-4.35,12.91,1,1,1,139,218,180,180,180,0,0,60.00,180,2965,151,0,0,0,151,249.94,0.00,2,3114,0.0000,0.0000,0.0000,0.0000,0.0000
2026-04-20T18:05:29.883,2.331,1,0.48,-0.51,-0.08,0.02,1,-0.0176,0.0705,0.3056,0.0000,0.0000,0.0000,95.76,0.00,55.21,59.96,140,140,1.00000,1.00000,1.00000,1.00000,3,3,1,24.40079,0.00254,1.06924,0.0176,-0.0705,0.0444,0.0000,0.0000,0.0000,-95.76,-4.33,12.97,1,1,1,140,217,180,180,180,0,0,60.00,180,2965,151,0,0,0,151,249.94,0.00,2,3114,0.0000,0.0000,0.0000,0.0000,0.0000
2026-04-20T18:05:29.902,2.349,1,0.48,-0.51,-0.08,0.02,1,-0.0176,0.0706,0.3056,0.0000,0.0000,0.0000,95.79,-1.84,66.12,61.29,141,141,1.00000,1.00000,1.00000,1.00000,3,3,1,24.37690,0.00259,1.06856,0.0176,-0.0706,0.0444,0.0000,0.0000,0.0000,-95.79,-4.50,12.85,1,1,1,141,217,180,180,180,0,0,60.00,180,2965,151,0,0,0,151,249.94,0.00,2,3114,0.0000,0.0000,0.0000,0.0000,0.0000
2026-04-20T18:05:29.920,2.368,1,0.48,-0.51,-0.08,0.02,1,-0.0176,0.0705,0.3057,0.0000,0.0000,0.0000,95.79,0.00,57.54,58.90,142,142,1.00000,1.00000,1.00000,1.00000,3,3,1,24.39771,0.00256,1.06892,0.0176,-0.0705,0.0443,0.0000,0.0000,0.0000,-95.79,-4.47,12.85,1,1,1,142,217,180,180,180,0,0,60.00,180,2965,151,0,0,0,151,249.94,0.00,2,3114,0.0000,0.0000,0.0000,0.0000,0.0000
2026-04-20T18:05:29.934,2.382,1,0.48,-0.51,-0.08,0.02,1,-0.0176,0.0707,0.3056,0.0000,0.0000,0.0000,95.79,0.00,54.65,59.06,143,143,1.00000,1.00000,1.00000,1.00000,3,3,1,24.37107,0.00260,1.06801,0.0176,-0.0707,0.0444,0.0000,0.0000,0.0000,-95.79,-4.61,12.87,1,1,1,143,218,180,180,180,0,0,60.00,180,2965,151,0,0,0,151,249.94,0.00,2,3114,0.0000,0.0000,0.0000,0.0000,0.0000
2026-04-20T18:05:29.952,2.400,1,0.48,-0.51,-0.08,0.02,1,-0.0175,0.0707,0.3058,0.0000,0.0000,0.0000,95.81,-1.12,68.95,60.16,144,144,1.00000,1.00000,1.00000,1.00000,3,3,1,24.34136,0.00254,1.07075,0.0175,-0.0707,0.0442,0.0000,0.0000,0.0000,-95.81,-4.69,12.77,1,1,1,144,218,180,180,180,0,0,60.00,180,2965,151,0,0,0,151,249.94,0.00,2,3114,0.0000,0.0000,0.0000,0.0000,0.0000
2026-04-20T18:05:29.968,2.416,1,0.48,-0.51,-0.08,0.02,1,-0.0175,0.0708,0.3057,0.0000,0.0000,0.0000,95.84,-1.76,54.60,63.43,145,145,1.00000,1.00000,1.00000,1.00000,3,3,1,24.34829,0.00248,1.07085,0.0175,-0.0708,0.0443,0.0000,0.0000,0.0000,-95.84,-4.81,12.81,1,1,1,145,218,180,180,180,0,0,60.00,180,2965,151,0,0,0,151,249.94,0.00,2,3114,0.0000,0.0000,0.0000,0.0000,0.0000
2026-04-20T18:05:29.986,2.433,1,0.50,-0.49,-0.10,0.05,1,-0.0177,0.0704,0.3057,0.0000,0.0000,0.0000,95.74,6.01,66.28,58.32,146,146,1.00000,1.00000,1.00000,1.00000,3,3,1,24.36299,0.00260,1.07009,0.0177,-0.0704,0.0443,0.0000,0.0000,0.0000,-95.74,-4.25,12.97,1,1,1,146,217,180,180,180,0,0,60.00,180,2965,151,0,0,0,151,249.94,0.00,2,3114,0.0000,0.0000,0.0000,0.0000,0.0000
2026-04-20T18:05:30.002,2.450,1,0.50,-0.49,-0.10,0.05,1,-0.0177,0.0706,0.3057,0.0000,0.0000,0.0000,95.78,-2.37,58.36,58.76,147,147,1.00000,1.00000,1.00000,1.00000,3,3,1,24.41235,0.00261,1.06986,0.0177,-0.0706,0.0443,0.0000,0.0000,0.0000,-95.78,-4.35,13.01,1,1,1,147,215,180,180,180,0,0,60.00,180,2965,151,0,0,0,151,249.94,0.00,2,3114,0.0000,0.0000,0.0000,0.0000,0.0000
2026-04-20T18:05:30.017,2.465,1,0.50,-0.49,-0.10,0.05,1,-0.0176,0.0706,0.3057,0.0000,0.0000,0.0000,95.78,0.00,57.66,62.87,148,148,1.00000,1.00000,1.00000,1.00000,3,3,1,24.34766,0.00252,1.07168,0.0176,-0.0706,0.0443,0.0000,0.0000,0.0000,-95.78,-4.32,12.94,1,1,1,148,218,180,180,180,0,0,60.00,180,2965,151,0,0,0,151,249.94,0.00,2,3114,0.0000,0.0000,0.0000,0.0000,0.0000
2026-04-20T18:05:30.034,2.482,1,0.50,-0.49,-0.01,-0.01,1,-0.0176,0.0707,0.3057,0.0000,0.0000,0.0000,95.86,-4.88,66.32,58.99,149,149,1.00000,1.00000,1.00000,1.00000,3,3,1,24.38939,0.00252,1.06841,0.0176,-0.0707,0.0443,0.0000,0.0000,0.0000,-95.86,-4.57,12.83,1,1,1,149,218,180,180,180,0,0,60.00,180,2965,151,0,0,0,151,249.94,0.00,2,3114,0.0000,0.0000,0.0000,0.0000,0.0000
2026-04-20T18:05:30.051,2.499,1,0.50,-0.49,-0.01,-0.01,1,-0.0176,0.0706,0.3057,0.0000,0.0000,0.0000,95.82,2.32,59.15,59.39,150,150,1.00000,1.00000,1.00000,1.00000,3,3,1,24.37142,0.00253,1.06720,0.0176,-0.0706,0.0443,0.0000,0.0000,0.0000,-95.82,-4.46,12.90,1,1,1,150,217,180,180,180,0,0,60.00,180,2965,151,0,0,0,151,249.94,0.00,2,3114,0.0000,0.0000,0.0000,0.0000,0.0000
2026-04-20T18:05:30.068,2.516,1,0.50,-0.49,-0.01,-0.01,1,-0.0175,0.0705,0.3056,0.0000,0.0000,0.0000,95.72,5.97,59.71,60.25,151,151,1.00000,1.00000,1.00000,1.00000,3,3,1,24.40137,0.00249,1.06769,0.0175,-0.0705,0.0444,0.0000,0.0000,0.0000,-95.72,-4.32,12.76,1,1,1,151,217,180,180,180,0,0,60.00,180,2965,151,0,0,0,151,249.94,0.00,2,3114,0.0000,0.0000,0.0000,0.0000,0.0000
2026-04-20T18:05:30.084,2.532,1,0.50,-0.49,-0.01,-0.01,1,-0.0175,0.0708,0.3057,0.0000,0.0000,0.0000,95.74,-1.20,59.74,61.77,152,152,1.00000,1.00000,1.00000,1.00000,3,3,1,24.35846,0.00252,1.06902,0.0175,-0.0708,0.0443,0.0000,0.0000,0.0000,-95.74,-4.71,12.64,1,1,1,152,218,180,180,180,0,0,60.00,180,2965,151,0,0,0,151,249.94,0.00,2,3114,0.0000,0.0000,0.0000,0.0000,0.0000
2026-04-20T18:05:30.102,2.549,1,0.50,-0.49,-0.01,-0.01,1,-0.0175,0.0707,0.3057,0.0000,0.0000,0.0000,95.75,-0.60,63.83,60.33,153,153,1.00000,1.00000,1.00000,1.00000,3,3,1,24.36618,0.00247,1.06777,0.0175,-0.0707,0.0443,0.0000,0.0000,0.0000,-95.75,-4.72,12.71,1,1,1,153,218,180,180,180,0,0,60.00,180,2965,151,0,0,0,151,249.94,0.00,2,3114,0.0000,0.0000,0.0000,0.0000,0.0000
2026-04-20T18:05:30.117,2.565,1,0.50,-0.49,-0.01,-0.01,1,-0.0176,0.0707,0.3056,0.0000,0.0000,0.0000,95.81,-3.70,56.69,59.83,154,154,1.00000,1.00000,1.00000,1.00000,3,3,1,24.36062,0.00254,1.07032,0.0176,-0.0707,0.0444,0.0000,0.0000,0.0000,-95.81,-4.57,12.97,1,1,1,154,218,180,180,180,0,0,60.00,180,2965,151,0,0,0,151,249.94,0.00,2,3114,0.0000,0.0000,0.0000,0.0000,0.0000
2026-04-20T18:05:30.135,2.582,1,0.50,-0.49,-0.01,-0.01,1,-0.0176,0.0704,0.3056,0.0000,0.0000,0.0000,95.69,6.92,61.58,59.22,155,155,1.00000,1.00000,1.00000,1.00000,3,3,1,24.37143,0.00264,1.06845,0.0176,-0.0704,0.0444,0.0000,0.0000,0.0000,-95.69,-4.01,12.96,1,1,1,155,214,180,180,180,0,0,60.00,180,2965,151,0,0,0,151,249.94,0.00,2,3114,0.0000,0.0000,0.0000,0.0000,0.0000
2026-04-20T18:05:30.151,2.599,1,0.50,-0.49,-0.01,-0.01,1,-0.0176,0.0706,0.3056,0.0000,0.0000,0.0000,95.79,-6.17,57.90,61.80,156,156,1.00000,1.00000,1.00000,1.00000,3,3,1,24.40974,0.00256,1.06951,0.0176,-0.0706,0.0444,0.0000,0.0000,0.0000,-95.79,-4.32,13.02,1,1,1,156,218,180,180,180,0,0,60.00,180,2965,151,0,0,0,151,249.94,0.00,2,3114,0.0000,0.0000,0.0000,0.0000,0.0000
2026-04-20T18:05:30.167,2.614,1,0.50,-0.49,-0.01,-0.01,1,-0.0176,0.0707,0.3056,0.0000,0.0000,0.0000,95.88,-5.40,59.86,56.83,157,157,1.00000,1.00000,1.00000,1.00000,3,3,1,24.37154,0.00249,1.06921,0.0176,-0.0707,0.0444,0.0000,0.0000,0.0000,-95.88,-4.56,12.93,1,1,1,157,218,180,180,180,0,0,60.00,180,2965,151,0,0,0,151,249.94,0.00,2,3114,0.0000,0.0000,0.0000,0.0000,0.0000
2026-04-20T18:05:30.186,2.634,1,0.50,-0.49,-0.01,-0.01,1,-0.0176,0.0708,0.3057,0.0000,0.0000,0.0000,95.91,-1.57,64.15,62.90,158,158,1.00000,1.00000,1.00000,1.00000,3,3,1,24.31322,0.00258,1.07191,0.0176,-0.0708,0.0443,0.0000,0.0000,0.0000,-95.91,-4.83,12.99,1,1,1,158,218,180,180,180,0,0,60.00,180,2965,151,0,0,0,151,249.94,0.00,2,3114,0.0000,0.0000,0.0000,0.0000,0.0000
2026-04-20T18:05:30.202,2.649,1,0.50,-0.49,-0.01,-0.01,1,-0.0176,0.0707,0.3057,0.0000,0.0000,0.0000,95.88,2.00,53.18,57.32,159,159,1.00000,1.00000,1.00000,1.00000,3,3,1,24.32948,0.00259,1.07060,0.0176,-0.0707,0.0443,0.0000,0.0000,0.0000,-95.88,-4.87,12.97,1,1,1,159,218,180,180,180,0,0,60.00,180,2965,151,0,0,0,151,249.94,0.00,2,3114,0.0000,0.0000,0.0000,0.0000,0.0000
2026-04-20T18:05:30.218,2.666,1,0.50,-0.49,-0.01,-0.01,1,-0.0175,0.0706,0.3057,0.0000,0.0000,0.0000,95.83,3.16,63.16,62.75,160,160,1.00000,1.00000,1.00000,1.00000,3,3,1,24.38745,0.00253,1.07005,0.0175,-0.0706,0.0443,0.0000,0.0000,0.0000,-95.83,-4.77,12.88,1,1,1,160,218,180,180,180,0,0,60.00,180,2965,151,0,0,0,151,249.94,0.00,2,3114,0.0000,0.0000,0.0000,0.0000,0.0000
2026-04-20T18:05:30.234,2.682,1,0.50,-0.49,-0.01,-0.01,1,-0.0176,0.0705,0.3056,0.0000,0.0000,0.0000,95.82,0.61,65.68,57.96,161,161,1.00000,1.00000,1.00000,1.00000,3,3,1,24.41138,0.00257,1.06941,0.0176,-0.0705,0.0444,0.0000,0.0000,0.0000,-95.82,-4.53,12.94,1,1,1,161,217,180,180,180,0,0,60.00,180,2965,151,0,0,0,151,249.94,0.00,2,3114,0.0000,0.0000,0.0000,0.0000,0.0000
2026-04-20T18:05:30.252,2.700,1,0.50,-0.49,-0.01,-0.01,1,-0.0176,0.0707,0.3057,0.0000,0.0000,0.0000,95.84,-1.08,57.11,59.37,162,162,1.00000,1.00000,1.00000,1.00000,3,3,1,24.35606,0.00246,1.06969,0.0176,-0.0707,0.0443,0.0000,0.0000,0.0000,-95.84,-4.57,12.89,1,1,1,162,218,180,180,180,0,0,60.00,180,2965,151,0,0,0,151,249.94,0.00,2,3114,0.0000,0.0000,0.0000,0.0000,0.0000
2026-04-20T18:05:30.266,2.714,1,0.50,-0.49,-0.01,-0.01,1,-0.0175,0.0706,0.3056,0.0000,0.0000,0.0000,95.82,1.32,55.45,65.20,163,163,1.00000,1.00000,1.00000,1.00000,3,3,1,24.37763,0.00252,1.06974,0.0175,-0.0706,0.0444,0.0000,0.0000,0.0000,-95.82,-4.49,12.83,1,1,1,163,218,180,180,180,0,0,60.00,180,2965,151,0,0,0,151,249.94,0.00,2,3114,0.0000,0.0000,0.0000,0.0000,0.0000
